address,price,area,rooms,year,type,url,price_per_m2,lat,lon,date,floor,ownership,postal_code,city
Lingelemveien 1,5290000,222,6.0,1961.0,Enebolig,https://www.finn.no/realestate/homes/ad.html?finnkode=297765532,23828,59.1465682,10.2194371,13/04/2023,,Eier (Selveier),3225,Sandefjord
Nyresvegen 88,2800000,213,7.0,1959.0,Enebolig,https://www.finn.no/realestate/homes/ad.html?finnkode=298692234,13145,60.623748,6.434609,13/04/2023,,Eier (Selveier),5700,Voss
Torggata 13,2490000,162,4.0,1947.0,Enebolig,https://www.finn.no/realestate/homes/ad.html?finnkode=297481990,15370,59.1112423,9.6442011,13/04/2023,2.0,Eier (Selveier),3936,Porsgrunn
Michael Krohns gate 64,3390000,57,3.0,1930.0,Leilighet,https://www.finn.no/realestate/homes/ad.html?finnkode=298642676,59473,60.3803252,5.3205981,13/04/2023,2.0,Eier (Selveier),5057,Bergen
Kommandørveien 25,10500000,132,7.0,1917.0,Enebolig,https://www.finn.no/realestate/homes/ad.html?finnkode=286626849,79545,58.9894282,5.7346302,13/04/2023,,Eier (Selveier),4077,Hundvåg
Njords veg 28 C,3200000,64,3.0,1966.0,Leilighet,https://www.finn.no/realestate/homes/ad.html?finnkode=298688640,50000,63.4038981,10.4154603,13/04/2023,3.0,Andel,7035,Trondheim
Øygardshaugen 84B,1550000,69,,1993.0,Leilighet,https://www.finn.no/realestate/homes/ad.html?finnkode=298687871,22463,59.1489,5.244797,13/04/2023,1.0,Eier (Selveier),4280,Skudeneshavn
Hestavangen 3,4350000,71,3.0,2018.0,Leilighet,https://www.finn.no/realestate/homes/ad.html?finnkode=298581177,61267,60.628664,6.421177,13/04/2023,2.0,Eier (Selveier),5700,Voss
Myrveien 22C,8500000,162,6.0,2015.0,Enebolig,https://www.finn.no/realestate/homes/ad.html?finnkode=298603432,52469,60.0561661,10.8653036,13/04/2023,2.0,Eier (Selveier),1482,Nittedal
Hangursvegen 37,5000000,181,5.0,1969.0,Enebolig,https://www.finn.no/realestate/homes/ad.html?finnkode=298601250,27624,60.629082,6.399553,13/04/2023,2.0,Eier (Selveier),5704,Voss
Gjerdrumsveien 73A,5800000,192,8.0,2002.0,Tomannsbolig,https://www.finn.no/realestate/homes/ad.html?finnkode=298685046,30208,60.0235261,11.0331321,13/04/2023,3.0,Eier (Selveier),2020,Skedsmokorset
Wingejordet 31B Sande i,3600000,111,5.0,2010.0,Leilighet,https://www.finn.no/realestate/homes/ad.html?finnkode=298680777,32432,59.5828788,10.2113066,13/04/2023,2.0,Eier (Selveier),3070,Vestfold
Hafellbakkan 20,4795000,239,,2018.0,Enebolig,https://www.finn.no/realestate/homes/ad.html?finnkode=295201661,20062,63.50986,10.022756,13/04/2023,,Eier (Selveier),7105,Stadsbygd
Smålensgata 4A,5850000,84,3.0,1980.0,Leilighet,https://www.finn.no/realestate/homes/ad.html?finnkode=298495466,69642,59.907113,10.784086,13/04/2023,1.0,Andel,657,Oslo
Asaldalbakken 99,2590000,127,,2008.0,Enebolig,https://www.finn.no/realestate/homes/ad.html?finnkode=298684550,20393,59.2863548,5.2897538,13/04/2023,2.0,Eier (Selveier),4250,Kopervik
Fossegrenda 25 A,2890000,87,1.0,1977.0,Leilighet,https://www.finn.no/realestate/homes/ad.html?finnkode=298683177,33218,63.387607,10.413017,13/04/2023,2.0,Eier (Selveier),7038,Trondheim
Søre Maggevarden 23,3850000,152,6.0,1995.0,Enebolig,https://www.finn.no/realestate/homes/ad.html?finnkode=298632852,25328,60.4026798,5.0103965,13/04/2023,3.0,Eier (Selveier),5363,Ågotnes
Høiendal 6A,3250000,100,,1966.0,Enebolig,https://www.finn.no/realestate/homes/ad.html?finnkode=298665216,32500,59.235104,10.963768,13/04/2023,,Andel,1617,Fredrikstad
Søråshøgda 106 D,3390000,118,,1988.0,Rekkehus,https://www.finn.no/realestate/homes/ad.html?finnkode=298683415,28728,60.3054628,5.3228718,13/04/2023,,Eier (Selveier),5235,Rådal
Lindebergåsen 14A,2800000,44,2.0,1976.0,Leilighet,https://www.finn.no/realestate/homes/ad.html?finnkode=298650042,63636,59.929363,10.880266,13/04/2023,2.0,Andel,1068,Oslo
Ivar Aasens vei 8A,7700000,256,,1955.0,Enebolig,https://www.finn.no/realestate/homes/ad.html?finnkode=292259060,30078,59.9615016,10.9909071,13/04/2023,,Eier (Selveier),2013,Skjetten
Revsbakken 6,3080000,177,4.0,1971.0,Enebolig,https://www.finn.no/realestate/homes/ad.html?finnkode=290937069,17401,68.816724,16.5493991,13/04/2023,2.0,Eier (Selveier),9404,Harstad
Korsholms gate 2,3490000,172,,1957.0,Enebolig,https://www.finn.no/realestate/homes/ad.html?finnkode=298682001,20290,58.0266572,7.4415211,13/04/2023,,Eier (Selveier),4514,Mandal
Solheims tverrgate 13,3790000,90,3.0,1981.0,Leilighet,https://www.finn.no/realestate/homes/ad.html?finnkode=298640006,42111,60.3743778,5.3366281,13/04/2023,3.0,Andel,5054,Bergen
Breidablikkstien 2C,3750000,63,,2019.0,Tomannsbolig,https://www.finn.no/realestate/homes/ad.html?finnkode=298680541,59523,63.412532,10.377961,13/04/2023,2.0,Eier (Selveier),7019,Trondheim
Bjønnstien 12,5250000,253,6.0,1989.0,Enebolig,https://www.finn.no/realestate/homes/ad.html?finnkode=291552638,20750,60.1863519,11.9744581,13/04/2023,,Eier (Selveier),2208,Kongsvinger
Kalfarveien 20D,12600000,117,4.0,2023.0,Leilighet,https://www.finn.no/realestate/homes/ad.html?finnkode=298679656,107692,60.389769,5.339313,13/04/2023,10.0,Eier (Selveier),5018,Bergen
Stølen 33A,3150000,100,3.0,2005.0,Leilighet,https://www.finn.no/realestate/homes/ad.html?finnkode=298679590,31500,60.5583291,5.2553857,13/04/2023,1.0,Eier (Selveier),5911,Alversund
Torgny Segerstedts vei 150,1990000,45,,1971.0,Leilighet,https://www.finn.no/realestate/homes/ad.html?finnkode=298678909,44222,60.3448431,5.2970885,13/04/2023,10.0,Andel,5143,Fyllingsdalen
Bjørkelundvegen 17,7490000,213,5.0,2010.0,Enebolig,https://www.finn.no/realestate/homes/ad.html?finnkode=298530591,35164,60.3486465,5.1519579,13/04/2023,,Eier (Selveier),5350,Brattholmen
Haugenesveien 39,2990000,163,,1978.0,Rekkehus,https://www.finn.no/realestate/homes/ad.html?finnkode=289834040,18343,58.378818,8.7018138,13/04/2023,,Eier (Selveier),4870,Fevik
Prestestien 14,2850000,77,3.0,1970.0,Leilighet,https://www.finn.no/realestate/homes/ad.html?finnkode=298656375,37012,60.4673992,5.307131,13/04/2023,2.0,Andel,5118,Ulset
Kyavegen 8,2050000,47,2.0,1945.0,Leilighet,https://www.finn.no/realestate/homes/ad.html?finnkode=298617230,43617,63.4317963,10.4453858,13/04/2023,1.0,Andel,7045,Trondheim
Kvernfaret 36,9900000,137,,1953.0,Rekkehus,https://www.finn.no/realestate/homes/ad.html?finnkode=297797037,72262,59.928698,10.630679,13/04/2023,,Andel,383,Oslo
Ekeliveien 10,1790000,160,,1955.0,Enebolig,https://www.finn.no/realestate/homes/ad.html?finnkode=298671532,11187,59.036406,9.7110522,13/04/2023,,Eier (Selveier),3961,Stathelle
Eventyrveien 23,6300000,223,6.0,1989.0,Enebolig,https://www.finn.no/realestate/homes/ad.html?finnkode=291318212,28251,59.7646105,10.0159504,13/04/2023,,Eier (Selveier),3055,Krokstadelva
Ensjøveien 34,4690000,35,2.0,,Leilighet,https://www.finn.no/realestate/homes/ad.html?finnkode=298513352,134000,59.9104461,10.7921051,13/04/2023,4.0,Eier (Selveier),661,Oslo
Vesøygaten 1A,2980000,64,,2017.0,Leilighet,https://www.finn.no/realestate/homes/ad.html?finnkode=298676277,46562,58.3381642,8.5836429,13/04/2023,2.0,Eier (Selveier),4876,Grimstad
Karmsundgata 214,1750000,64,3.0,1922.0,Leilighet,https://www.finn.no/realestate/homes/ad.html?finnkode=298676284,27343,59.4159399,5.2729246,13/04/2023,2.0,Eier (Selveier),5525,Haugesund
Nordlysbuen 4B,4990000,157,4.0,1964.0,Tomannsbolig,https://www.finn.no/realestate/homes/ad.html?finnkode=298492630,31783,67.2816548,14.4039713,13/04/2023,,Eier (Selveier),8007,Bodø
Elgfaret 7 A,800000,59,2.0,1994.0,Leilighet,https://www.finn.no/realestate/homes/ad.html?finnkode=298506402,13559,67.0936258,15.3921311,13/04/2023,1.0,Andel,8250,Rognan
Hesnesveien 41,3900000,146,,2002.0,Enebolig,https://www.finn.no/realestate/homes/ad.html?finnkode=296876705,26712,58.362598,8.622057,13/04/2023,2.0,Eier (Selveier),4885,Grimstad
Skedsmogata 25,5100000,40,2.0,,Leilighet,https://www.finn.no/realestate/homes/ad.html?finnkode=298675060,127500,59.913676,10.786392,13/04/2023,6.0,Eier (Selveier),655,Oslo
Hellinga 2A,3250000,103,5.0,1951.0,Enebolig,https://www.finn.no/realestate/homes/ad.html?finnkode=297770328,31553,60.7185314,11.1994705,13/04/2023,2.0,Eier (Selveier),2335,Stange
Løkkeveien 13,4450000,220,,1973.0,Enebolig,https://www.finn.no/realestate/homes/ad.html?finnkode=298675528,20227,59.008755,10.022333,13/04/2023,,Eier (Selveier),3292,Stavern
Enebakkveien 422 A,11950000,201,6.0,2022.0,Tomannsbolig,https://www.finn.no/realestate/homes/ad.html?finnkode=280366130,59452,59.833757,10.84607,13/04/2023,,Eier (Selveier),1279,Oslo
Ladeveien 30A,2790000,38,2.0,2020.0,Leilighet,https://www.finn.no/realestate/homes/ad.html?finnkode=293195653,73421,63.442862,10.43474,13/04/2023,1.0,Eier (Selveier),7066,Trondheim
Nordre Gommershaugen 52,11500000,349,,1989.0,Enebolig,https://www.finn.no/realestate/homes/ad.html?finnkode=297491915,32951,60.2931771,5.2739502,13/04/2023,3.0,Eier (Selveier),5254,Sandsli
Kristofer Jansons vei 85,3290000,67,,,Leilighet,https://www.finn.no/realestate/homes/ad.html?finnkode=298674835,49104,60.3547968,5.3613216,13/04/2023,,Andel,5089,Bergen
Fedjedalen 46,7390000,251,7.0,2013.0,Enebolig,https://www.finn.no/realestate/homes/ad.html?finnkode=298631833,29442,59.4134662,5.3360783,13/04/2023,,Eier (Selveier),5533,Haugesund
Breiviksveien 62,7690000,121,4.0,1957.0,Leilighet,https://www.finn.no/realestate/homes/ad.html?finnkode=291001887,63553,60.423537,5.297506,13/04/2023,2.0,Eier (Selveier),5043,Bergen
Haumyrveien 27,6990000,236,,1972.0,Enebolig,https://www.finn.no/realestate/homes/ad.html?finnkode=298673238,29618,58.1608026,8.0653375,13/04/2023,,Eier (Selveier),4637,Kristiansand S
Lekvenmarka 222,3890000,80,4.0,2015.0,Leilighet,https://www.finn.no/realestate/homes/ad.html?finnkode=297740846,48625,60.1678105,5.4502142,13/04/2023,2.0,Eier (Selveier),5209,Os
Rosevegen 24,5250000,206,6.0,1993.0,Enebolig,https://www.finn.no/realestate/homes/ad.html?finnkode=298540068,25485,59.081366,9.6789195,13/04/2023,2.0,Eier (Selveier),3940,Porsgrunn
Strandstykket 77,1700000,80,,1977.0,Rekkehus,https://www.finn.no/realestate/homes/ad.html?finnkode=297676981,21250,60.908142,11.55852,13/04/2023,1.0,Andel,2409,Elverum
Valletangen 17,12500000,160,5.0,1992.0,Enebolig,https://www.finn.no/realestate/homes/ad.html?finnkode=298672356,78125,58.931513,9.5558838,13/04/2023,,Eier (Selveier),3967,Stathelle
Revebjelleveien 52,2300000,67,3.0,2004.0,Leilighet,https://www.finn.no/realestate/homes/ad.html?finnkode=298657055,34328,59.4109243,10.6947694,13/04/2023,2.0,Andel,1529,Moss
Odins gate 14 B,9650000,98,4.0,1897.0,Leilighet,https://www.finn.no/realestate/homes/ad.html?finnkode=274676550,98469,59.919741,10.706785,13/04/2023,,Eier (Selveier),266,Oslo
Renslostigen 11B,2850000,109,4.0,2008.0,Tomannsbolig,https://www.finn.no/realestate/homes/ad.html?finnkode=296877370,26146,60.7091278,8.9384027,13/04/2023,,Eier (Selveier),3550,Gol
Dalveien 23,4700000,312,,1974.0,Enebolig,https://www.finn.no/realestate/homes/ad.html?finnkode=298670511,15064,59.270657,11.036671,13/04/2023,,Eier (Selveier),1718,Greåker
Sandvikbakken 34A,2250000,101,3.0,2000.0,Leilighet,https://www.finn.no/realestate/homes/ad.html?finnkode=292290219,22277,58.8712616,5.768929,13/04/2023,2.0,Andel,4329,Sandnes
Guldmand brygge 9,2100000,47,2.0,2007.0,Leilighet,https://www.finn.no/realestate/homes/ad.html?finnkode=298670420,44680,58.3344401,8.591492,13/04/2023,1.0,Andel,4876,Grimstad
Sandslimarka 33a,3700000,74,,2021.0,Leilighet,https://www.finn.no/realestate/homes/ad.html?finnkode=297298154,50000,60.292303,5.281956,13/04/2023,1.0,Eier (Selveier),5254,Sandsli
Mikaels vei 7,7750000,277,,2023.0,Enebolig,https://www.finn.no/realestate/homes/ad.html?finnkode=298670259,27978,59.132567,11.345732,13/04/2023,,Eier (Selveier),1783,Halden
Astreavegen 12,3990000,218,,1975.0,Enebolig,https://www.finn.no/realestate/homes/ad.html?finnkode=296866140,18302,59.4207578,5.2915153,13/04/2023,,Eier (Selveier),5519,Haugesund
Birkeveien 1,3750000,77,3.0,1949.0,Leilighet,https://www.finn.no/realestate/homes/ad.html?finnkode=298670183,48701,60.3646352,5.3605335,13/04/2023,2.0,Aksje,5093,Bergen
Ekholt hageby 6C,3600000,92,4.0,1961.0,Rekkehus,https://www.finn.no/realestate/homes/ad.html?finnkode=287699892,39130,59.4106528,10.6824047,13/04/2023,2.0,Andel,1526,Moss
Bølevegen 143,2360000,262,5.0,1930.0,Enebolig,https://www.finn.no/realestate/homes/ad.html?finnkode=296517797,9007,59.1814698,9.6317154,13/04/2023,3.0,Eier (Selveier),3713,Skien
Storhamargata 23B,2250000,45,,1959.0,Leilighet,https://www.finn.no/realestate/homes/ad.html?finnkode=298669135,50000,60.7948418,11.0652919,13/04/2023,5.0,Andel,2317,Hamar
Solvangvegen 22J,2890000,71,3.0,2006.0,Leilighet,https://www.finn.no/realestate/homes/ad.html?finnkode=296996292,40704,60.8044821,11.0819432,13/04/2023,5.0,Andel,2318,Hamar
Busterudgata 17,3990000,178,9.0,1836.0,Tomannsbolig,https://www.finn.no/realestate/homes/ad.html?finnkode=298669494,22415,59.126568,11.385211,13/04/2023,,Eier (Selveier),1776,Halden
A. K. Blix veg 52,850000,29,2.0,2005.0,Leilighet,https://www.finn.no/realestate/homes/ad.html?finnkode=298617798,29310,60.198093,11.993336,13/04/2023,1.0,Andel,2214,Kongsvinger
Moltevegen 6,3300000,197,5.0,1978.0,Enebolig,https://www.finn.no/realestate/homes/ad.html?finnkode=262470274,16751,60.9084882,11.5527233,13/04/2023,2.0,Eier (Selveier),2409,Elverum
Amtmannvegen 37,2490000,94,3.0,1988.0,Leilighet,https://www.finn.no/realestate/homes/ad.html?finnkode=298534873,26489,62.743061,7.224239,13/04/2023,1.0,Eier (Selveier),6419,Molde
Henrik Ourens veg 7,2990000,76,3.0,1968.0,Leilighet,https://www.finn.no/realestate/homes/ad.html?finnkode=298325117,39342,63.4173,10.456026,13/04/2023,2.0,Andel,7069,Trondheim
Stallmestervegen 2C,3990000,94,3.0,1972.0,Leilighet,https://www.finn.no/realestate/homes/ad.html?finnkode=297352795,42446,63.427559,10.444623,13/04/2023,3.0,Andel,7046,Trondheim
Lauritz Hervigs vei 115C,1890000,52,2.0,1970.0,Leilighet,https://www.finn.no/realestate/homes/ad.html?finnkode=298563467,36346,59.7140851,10.2246488,13/04/2023,1.0,Andel,3035,Drammen
Konsul Børs' gate 15A,1790000,69,,1923.0,Leilighet,https://www.finn.no/realestate/homes/ad.html?finnkode=298667051,25942,60.384572,5.320083,13/04/2023,1.0,Aksje,5006,Bergen
Stongfjordvegen 680,2950000,227,,1928.0,Enebolig,https://www.finn.no/realestate/homes/ad.html?finnkode=298667111,12995,61.423582,5.152552,13/04/2023,,Eier (Selveier),6984,Stongfjorden
Camilla Colletts gate 5F,3290000,49,2.0,1931.0,Leilighet,https://www.finn.no/realestate/homes/ad.html?finnkode=298666870,67142,60.372397,5.346307,13/04/2023,2.0,Eier (Selveier),5052,Bergen
Greåkerveien 92,3000000,75,,1900.0,Enebolig,https://www.finn.no/realestate/homes/ad.html?finnkode=284109925,40000,59.2669503,11.0552218,13/04/2023,,Eier (Selveier),1718,Greåker
Eikeneset 18,7690000,220,7.0,1972.0,Enebolig,https://www.finn.no/realestate/homes/ad.html?finnkode=298663485,34954,60.2657235,5.2626732,13/04/2023,2.0,Eier (Selveier),5259,Hjellestad
Magnussenløkka 1B,3500000,148,,1982.0,Rekkehus,https://www.finn.no/realestate/homes/ad.html?finnkode=298664954,23648,60.800673,11.0750414,13/04/2023,2.0,Andel,2318,Hamar
Skullerudskogen 9,3300000,42,2.0,2006.0,Leilighet,https://www.finn.no/realestate/homes/ad.html?finnkode=298648282,78571,59.868219,10.836677,13/04/2023,3.0,Andel,1188,Oslo
Rådhusvegen 7A,5750000,70,3.0,2018.0,Leilighet,https://www.finn.no/realestate/homes/ad.html?finnkode=286281324,82142,60.145229,11.174875,13/04/2023,5.0,Eier (Selveier),2066,Jessheim
Øvre Blekeveien 15A,3750000,41,3.0,1897.0,Leilighet,https://www.finn.no/realestate/homes/ad.html?finnkode=267618045,91463,60.3981154,5.3288167,13/04/2023,4.0,Eier (Selveier),5003,Bergen
Svaneveien 40A,3650000,125,,1975.0,Rekkehus,https://www.finn.no/realestate/homes/ad.html?finnkode=298663772,29200,58.84262,5.710302,13/04/2023,,Andel,4318,Sandnes
Vindalveien 62,6300000,152,7.0,1963.0,Enebolig,https://www.finn.no/realestate/homes/ad.html?finnkode=295160599,41447,59.1100456,10.2435832,13/04/2023,2.0,Eier (Selveier),3219,Sandefjord
Sonjas vei 21,6800000,215,7.0,2001.0,Enebolig,https://www.finn.no/realestate/homes/ad.html?finnkode=290931969,31627,59.594401,10.703716,13/04/2023,2.0,Eier (Selveier),1542,Vestby
Trøgstadveien 68,3950000,186,5.0,1947.0,Enebolig,https://www.finn.no/realestate/homes/ad.html?finnkode=298663679,21236,59.5964584,11.1829472,13/04/2023,2.0,Eier (Selveier),1808,Askim
Kunterudveien 23,4750000,122,3.0,1978.0,Enebolig,https://www.finn.no/realestate/homes/ad.html?finnkode=285263359,38934,59.756152,10.2924449,13/04/2023,1.0,Eier (Selveier),3426,Gullaug
Årdalsvegen 8B Øvre,1450000,78,4.0,1964.0,Leilighet,https://www.finn.no/realestate/homes/ad.html?finnkode=298663428,18589,61.3073953,7.8119384,13/04/2023,1.0,Andel,6884,Årdal
Ole Aasveds veg 6,2470000,60,3.0,2003.0,Leilighet,https://www.finn.no/realestate/homes/ad.html?finnkode=298663477,41166,63.4089492,10.4530293,13/04/2023,5.0,Andel,7049,Trondheim
Dronningveien 39,6400000,247,6.0,1987.0,Enebolig,https://www.finn.no/realestate/homes/ad.html?finnkode=298662223,25910,60.0618113,10.3203261,13/04/2023,,Eier (Selveier),3531,Krokkleiva
Utstrandveien 256,1850000,251,8.0,1976.0,Enebolig,https://www.finn.no/realestate/homes/ad.html?finnkode=297481484,7370,63.7295514,9.646535,13/04/2023,,Eier (Selveier),7140,Opphaug
Solengveien 20,4300000,144,,1956.0,Enebolig,https://www.finn.no/realestate/homes/ad.html?finnkode=298542895,29861,59.2466137,10.9951093,13/04/2023,,Eier (Selveier),1661,Rolvsøy
Øvragardsvegen 148,2450000,192,7.0,1969.0,Enebolig,https://www.finn.no/realestate/homes/ad.html?finnkode=298629155,12760,60.5745206,6.9202584,13/04/2023,,Eier (Selveier),5730,Ulvik
Skappels gate 1B,3150000,60,,1957.0,Leilighet,https://www.finn.no/realestate/homes/ad.html?finnkode=298662391,52500,60.7940608,11.0652978,13/04/2023,5.0,Andel,2317,Hamar
Fabriciusgata 8,1725000,56,,2022.0,Leilighet,https://www.finn.no/realestate/homes/ad.html?finnkode=292364025,30803,59.149599,9.657045,13/04/2023,2.0,Andel,3912,Porsgrunn
Andreas Markussons vei 31,4800000,116,4.0,1971.0,Tomannsbolig,https://www.finn.no/realestate/homes/ad.html?finnkode=298535550,41379,67.2760113,14.5039345,13/04/2023,2.0,Eier (Selveier),8019,Bodø
Fürstveien 47C,21900000,209,5.0,2009.0,Tomannsbolig,https://www.finn.no/realestate/homes/ad.html?finnkode=252321047,104784,59.877769,10.6040284,13/04/2023,,Eier (Selveier),1367,Snarøya
Porselensvegen 46,8950000,464,8.0,1776.0,Enebolig,https://www.finn.no/realestate/homes/ad.html?finnkode=298660611,19288,59.1398796,9.6369445,13/04/2023,,Eier (Selveier),3920,Porsgrunn
Boggestranda 444 Eidsvåg i,600000,207,4.0,1957.0,Enebolig,https://www.finn.no/realestate/homes/ad.html?finnkode=298660303,2898,62.739145,8.098894,13/04/2023,,Eier (Selveier),6460,Romsdal
Harestien 1,5290000,255,,1986.0,Enebolig,https://www.finn.no/realestate/homes/ad.html?finnkode=297846643,20745,59.628827,10.3907094,13/04/2023,,Eier (Selveier),3060,Svelvik
Kvartsvegen 5B,4700000,91,4.0,1994.0,Leilighet,https://www.finn.no/realestate/homes/ad.html?finnkode=298659819,51648,59.9354714,11.0553213,13/04/2023,,Eier (Selveier),2008,Fjerdingby
Solvanggata 5,7250000,313,9.0,2015.0,Enebolig,https://www.finn.no/realestate/homes/ad.html?finnkode=298659811,23162,64.4686889,11.5136881,13/04/2023,,Eier (Selveier),7804,Namsos
Nedre Møllenberg gate 80B,2790000,61,,1896.0,Leilighet,https://www.finn.no/realestate/homes/ad.html?finnkode=298538506,45737,63.4354116,10.4198313,13/04/2023,2.0,Eier (Selveier),7068,Trondheim
Inges gate 4L,5890000,68,3.0,2005.0,Leilighet,https://www.finn.no/realestate/homes/ad.html?finnkode=291295252,86617,59.903169,10.776204,13/04/2023,3.0,Andel,196,Oslo
Bøgardsvegen 32,3950000,105,,2015.0,Leilighet,https://www.finn.no/realestate/homes/ad.html?finnkode=298658010,37619,61.4488696,5.8461294,13/04/2023,2.0,Eier (Selveier),6800,Førde
Bråtåsveien 112,2000000,55,,1989.0,Leilighet,https://www.finn.no/realestate/homes/ad.html?finnkode=298637696,36363,59.8642018,10.2122873,13/04/2023,1.0,Andel,3405,Lier
Stokkbekken 135,2390000,28,,2016.0,Leilighet,https://www.finn.no/realestate/homes/ad.html?finnkode=298555100,85357,63.414297,10.481884,13/04/2023,2.0,Eier (Selveier),7048,Trondheim
Klæbuveien 100,2990000,54,,1984.0,Leilighet,https://www.finn.no/realestate/homes/ad.html?finnkode=298378747,55370,63.414869,10.399215,13/04/2023,5.0,Andel,7030,Trondheim
Ludvig Grønvolds Vei 48,2990000,126,,1951.0,Enebolig,https://www.finn.no/realestate/homes/ad.html?finnkode=268424558,23730,60.1796977,10.2354356,13/04/2023,,Eier (Selveier),3517,Hønefoss
Tangen 42,2550000,60,,2008.0,Leilighet,https://www.finn.no/realestate/homes/ad.html?finnkode=294228649,42500,58.146867,8.0093968,13/04/2023,3.0,Andel,4608,Kristiansand S
Vallalia 156,2600000,65,,1986.0,Leilighet,https://www.finn.no/realestate/homes/ad.html?finnkode=298656364,40000,60.2944303,5.3865665,13/04/2023,4.0,Eier (Selveier),5227,Nesttun
Knausen 181,3100000,103,4.0,1978.0,Rekkehus,https://www.finn.no/realestate/homes/ad.html?finnkode=298655688,30097,69.6929261,18.9956601,13/04/2023,2.0,Andel,9018,Tromsø
Gubberogata 5,3600000,146,5.0,1933.0,Enebolig,https://www.finn.no/realestate/homes/ad.html?finnkode=298644565,24657,59.4324307,10.6714798,13/04/2023,3.0,Eier (Selveier),1533,Moss
Jønholtdalen 18,1950000,66,,1959.0,Leilighet,https://www.finn.no/realestate/homes/ad.html?finnkode=298654835,29545,59.1332225,9.6503133,13/04/2023,2.0,Andel,3922,Porsgrunn
Hasselvegen 12,3200000,218,,1981.0,Enebolig,https://www.finn.no/realestate/homes/ad.html?finnkode=298654849,14678,58.1203634,7.8499426,13/04/2023,,Eier (Selveier),4647,Brennåsen
Birkelands gate 6B,950000,108,,1915.0,Tomannsbolig,https://www.finn.no/realestate/homes/ad.html?finnkode=298654905,8796,59.8780428,8.5906587,13/04/2023,,Eier (Selveier),3660,Rjukan
Norbygata 15b,4500000,74,,1896.0,Leilighet,https://www.finn.no/realestate/homes/ad.html?finnkode=292446545,60810,59.914374,10.763119,13/04/2023,5.0,Eier (Selveier),187,Oslo
Vestaveien 27,6900000,157,5.0,1953.0,Tomannsbolig,https://www.finn.no/realestate/homes/ad.html?finnkode=289612538,43949,59.9245803,10.9302739,13/04/2023,,Eier (Selveier),1476,Rasta
Tyrivegen 17A,6500000,184,4.0,1953.0,Enebolig,https://www.finn.no/realestate/homes/ad.html?finnkode=298519410,35326,60.1588671,11.1859268,13/04/2023,,Eier (Selveier),2069,Jessheim
Fotlandsvegen 200,3600000,167,6.0,1959.0,Enebolig,https://www.finn.no/realestate/homes/ad.html?finnkode=292244958,21556,60.526956,5.527305,13/04/2023,2.0,Eier (Selveier),5282,Lonevåg
Liljevegen 14,1590000,88,3.0,1974.0,Leilighet,https://www.finn.no/realestate/homes/ad.html?finnkode=298653361,18068,59.113311,9.665518,13/04/2023,3.0,Andel,3929,Porsgrunn
Liavegen 12,3900000,154,3.0,1948.0,Enebolig,https://www.finn.no/realestate/homes/ad.html?finnkode=298358454,25324,60.3170793,11.2978501,13/04/2023,2.0,Eier (Selveier),2080,Eidsvoll
Morviklien 57,6390000,164,6.0,2005.0,Tomannsbolig,https://www.finn.no/realestate/homes/ad.html?finnkode=298653259,38963,60.4740438,5.2733257,13/04/2023,2.0,Eier (Selveier),5124,Morvik
Nysetervegen 1,1450000,159,4.0,1967.0,Enebolig,https://www.finn.no/realestate/homes/ad.html?finnkode=298652459,9119,63.0567431,9.1928035,13/04/2023,,Eier (Selveier),6657,Rindal
Elvegata 41,3690000,77,,2004.0,Leilighet,https://www.finn.no/realestate/homes/ad.html?finnkode=298651633,47922,58.1509514,7.9979894,13/04/2023,1.0,Eier (Selveier),4614,Kristiansand S
Fredrik Meltzers gate 13B,3590000,45,,1899.0,Leilighet,https://www.finn.no/realestate/homes/ad.html?finnkode=298651786,79777,60.3865136,5.3269277,13/04/2023,,Eier (Selveier),5007,Bergen
Nordstrandveien 50B,8950000,161,5.0,1954.0,Tomannsbolig,https://www.finn.no/realestate/homes/ad.html?finnkode=287046974,55590,59.861237,10.80504,13/04/2023,1.0,Eier (Selveier),1163,Oslo
Solheimslio 12C Førde i,1600000,72,,1994.0,Leilighet,https://www.finn.no/realestate/homes/ad.html?finnkode=298650815,22222,59.6155155,5.4763657,13/04/2023,1.0,Eier (Selveier),5555,Hordaland
Fagerdalsveien 2E,3290000,125,,1953.0,Rekkehus,https://www.finn.no/realestate/homes/ad.html?finnkode=298651182,26320,58.1479859,7.9655414,13/04/2023,,Eier (Selveier),4617,Kristiansand S
Saltveitvegen 34B,2990000,192,,1951.0,Enebolig,https://www.finn.no/realestate/homes/ad.html?finnkode=293235597,15572,59.4139149,5.2889136,13/04/2023,,Eier (Selveier),5521,Haugesund
Tollbodgata 70,4290000,98,,2016.0,Leilighet,https://www.finn.no/realestate/homes/ad.html?finnkode=276842235,43775,58.1488712,8.002593,13/04/2023,3.0,Eier (Selveier),4614,Kristiansand S
Nordvikveien 61,8500000,263,7.0,1992.0,Enebolig,https://www.finn.no/realestate/homes/ad.html?finnkode=298650638,32319,58.994896,5.766426,13/04/2023,,Eier (Selveier),4085,Hundvåg
Støperiveien 22,3700000,59,2.0,2005.0,Leilighet,https://www.finn.no/realestate/homes/ad.html?finnkode=298650551,62711,59.947975,11.0092715,13/04/2023,2.0,Eier (Selveier),2010,Strømmen
Barkåkerveien 17,1790000,51,,1974.0,Leilighet,https://www.finn.no/realestate/homes/ad.html?finnkode=298650552,35098,59.3210584,10.3948101,13/04/2023,2.0,Eier (Selveier),3157,Barkåker
Strandpromenaden 114,2750000,50,2.0,1967.0,Leilighet,https://www.finn.no/realestate/homes/ad.html?finnkode=298650469,55000,59.4208738,10.6303589,13/04/2023,1.0,Andel,1516,Moss
Tordenskjolds gate 28,3975000,75,,2005.0,Leilighet,https://www.finn.no/realestate/homes/ad.html?finnkode=296112700,53000,58.147855,7.989569,13/04/2023,3.0,Eier (Selveier),4612,Kristiansand S
Slettebrotan 96B,2650000,126,5.0,2011.0,Tomannsbolig,https://www.finn.no/realestate/homes/ad.html?finnkode=298649957,21031,58.2680864,7.8359851,13/04/2023,,Eier (Selveier),4715,Øvrebø
Store Elvegate 49,2300000,225,,,Andre,https://www.finn.no/realestate/homes/ad.html?finnkode=246762253,10222,58.0286978,7.4586203,13/04/2023,,Eier (Selveier),4517,Mandal
Bruasetvegen 99,1100000,66,4.0,1979.0,Leilighet,https://www.finn.no/realestate/homes/ad.html?finnkode=297556129,16666,62.528604,7.434553,13/04/2023,1.0,Eier (Selveier),6386,Måndalen
Rødna 51,3100000,178,,1958.0,Enebolig,https://www.finn.no/realestate/homes/ad.html?finnkode=298648541,17415,60.0613784,6.5394376,13/04/2023,,Eier (Selveier),5750,Odda
Nøtterøveien 20,3585000,106,13.0,1939.0,Leilighet,https://www.finn.no/realestate/homes/ad.html?finnkode=298648359,33820,59.256795,10.4156845,13/04/2023,2.0,Eier (Selveier),3127,Tønsberg
Valen 7,850000,52,3.0,2019.0,Leilighet,https://www.finn.no/realestate/homes/ad.html?finnkode=298648206,16346,59.001423,5.609365,13/04/2023,1.0,Andel,4070,Randaberg
Bukkholtvegen 29,4990000,134,6.0,2021.0,Enebolig,https://www.finn.no/realestate/homes/ad.html?finnkode=262798985,37238,60.71219,11.211051,13/04/2023,2.0,Eier (Selveier),2335,Stange
Måseskjæret 18,7590000,85,,2000.0,Leilighet,https://www.finn.no/realestate/homes/ad.html?finnkode=298647480,89294,60.4120245,5.3185422,13/04/2023,2.0,Eier (Selveier),5035,Bergen
Lokes vei 19,2850000,129,4.0,1983.0,Enebolig,https://www.finn.no/realestate/homes/ad.html?finnkode=275896627,22093,58.4776336,8.75331,13/04/2023,2.0,Eier (Selveier),4846,Arendal
Glenneveien 38B,2935000,121,,1954.0,Tomannsbolig,https://www.finn.no/realestate/homes/ad.html?finnkode=293225445,24256,59.1289039,11.3714611,13/04/2023,,Eier (Selveier),1781,Halden
Heimdalsvegen 14B,2650000,79,,2008.0,Leilighet,https://www.finn.no/realestate/homes/ad.html?finnkode=296297571,33544,63.3484352,10.355244,13/04/2023,1.0,Eier (Selveier),7080,Heimdal
Snølia 5,4400000,56,3.0,2021.0,Leilighet,https://www.finn.no/realestate/homes/ad.html?finnkode=292499878,78571,59.946703,10.952525,13/04/2023,4.0,Eier (Selveier),1470,Lørenskog
Spondalen 62,3290000,85,3.0,1975.0,Leilighet,https://www.finn.no/realestate/homes/ad.html?finnkode=298645237,38705,60.4661485,5.29899,13/04/2023,4.0,Andel,5121,Ulset
Meieriveien 10,2850000,74,3.0,2001.0,Leilighet,https://www.finn.no/realestate/homes/ad.html?finnkode=298339683,38513,59.5528761,11.3281419,13/04/2023,2.0,Eier (Selveier),1850,Mysen
Gullvegen 22,3900000,58,3.0,2018.0,Leilighet,https://www.finn.no/realestate/homes/ad.html?finnkode=298644166,67241,69.680716,19.058048,13/04/2023,1.0,Eier (Selveier),9022,Krokelvdalen
Ringvegen 41c,4850000,212,,1970.0,Enebolig,https://www.finn.no/realestate/homes/ad.html?finnkode=298612256,22877,60.768133,11.135222,13/04/2023,,Eier (Selveier),2312,Ottestad
Friluftsvegen 21,4750000,218,,1986.0,Enebolig,https://www.finn.no/realestate/homes/ad.html?finnkode=298642236,21788,60.4557537,5.1059495,13/04/2023,,Eier (Selveier),5310,Hauglandshella
Uglavegen 7,4290000,73,,1942.0,Leilighet,https://www.finn.no/realestate/homes/ad.html?finnkode=298642311,58767,63.399175,10.3402061,13/04/2023,2.0,Eier (Selveier),7071,Trondheim
Rypevegen 32 c,2140000,56,2.0,1978.0,Leilighet,https://www.finn.no/realestate/homes/ad.html?finnkode=298642097,38214,63.3491843,10.3352421,13/04/2023,2.0,Andel,7082,Kattem
Fridheims gate 21,1890000,55,,1973.0,Leilighet,https://www.finn.no/realestate/homes/ad.html?finnkode=298642058,34363,63.7979593,11.4898714,13/04/2023,3.0,Andel,7650,Verdal
Tyrilia 22 Gamle,6250000,203,,1969.0,Enebolig,https://www.finn.no/realestate/homes/ad.html?finnkode=298541360,30788,59.2114851,11.0053917,13/04/2023,1.0,Eier (Selveier),1639,Fredrikstad
Friggs veg 10A,3590000,138,4.0,2016.0,Tomannsbolig,https://www.finn.no/realestate/homes/ad.html?finnkode=292621593,26014,60.896279,11.593658,13/04/2023,,Eier (Selveier),2413,Elverum
Schweigaardstun 2,1550000,72,3.0,2014.0,Leilighet,https://www.finn.no/realestate/homes/ad.html?finnkode=298641574,21527,59.2128832,9.6049739,13/04/2023,3.0,Andel,3717,Skien
Regine Normanns vei 68,4950000,140,,1971.0,Tomannsbolig,https://www.finn.no/realestate/homes/ad.html?finnkode=297508686,35357,67.2755886,14.509418,13/04/2023,,Eier (Selveier),8019,Bodø
Ogndalsvegen 61,1500000,81,3.0,2018.0,Leilighet,https://www.finn.no/realestate/homes/ad.html?finnkode=298641339,18518,64.017175,11.511472,13/04/2023,3.0,Andel,7716,Steinkjer
Førresbrekka 21B,3590000,213,6.0,2018.0,Tomannsbolig,https://www.finn.no/realestate/homes/ad.html?finnkode=245606136,16854,59.4216775,5.3902557,13/04/2023,,Eier (Selveier),5563,Førresfjorden
Nannas vei 1B,2675000,49,2.0,1990.0,Leilighet,https://www.finn.no/realestate/homes/ad.html?finnkode=298640817,54591,59.6015409,10.7592165,13/04/2023,,Eier (Selveier),1540,Vestby
Stadsing Dahls gate 8,2850000,62,,1947.0,Leilighet,https://www.finn.no/realestate/homes/ad.html?finnkode=275441289,45967,63.4301114,10.4180291,13/04/2023,1.0,Andel,7015,Trondheim
Nedre Storaberget 91,2900000,98,3.0,1984.0,Leilighet,https://www.finn.no/realestate/homes/ad.html?finnkode=298504398,29591,58.8965475,5.7234284,13/04/2023,1.0,Andel,4034,Stavanger
Fredheimsvegen 3,3750000,104,5.0,1999.0,Enebolig,https://www.finn.no/realestate/homes/ad.html?finnkode=298540842,36057,58.770527,5.630917,13/04/2023,,Eier (Selveier),4350,Kleppe
Bratsbergvegen 112,1710000,32,1.0,2007.0,Leilighet,https://www.finn.no/realestate/homes/ad.html?finnkode=294719341,53437,63.385337,10.428253,13/04/2023,1.0,Andel,7036,Trondheim
Setrevegen 45B,4450000,118,4.0,1961.0,Rekkehus,https://www.finn.no/realestate/homes/ad.html?finnkode=268442735,37711,62.473704,6.187354,13/04/2023,,Eier (Selveier),6007,Ålesund
Fartein Valens vei 27,1790000,49,2.0,2007.0,Leilighet,https://www.finn.no/realestate/homes/ad.html?finnkode=296111326,36530,58.8511273,5.7129641,13/04/2023,2.0,Andel,4318,Sandnes
Blåbæråsen 3,3800000,117,,1968.0,Enebolig,https://www.finn.no/realestate/homes/ad.html?finnkode=298385462,32478,59.429664,10.6763663,13/04/2023,1.0,Eier (Selveier),1533,Moss
Vestsidevegen 36,6490000,537,,1964.0,Enebolig,https://www.finn.no/realestate/homes/ad.html?finnkode=298638110,12085,60.4264171,11.0651679,13/04/2023,,Eier (Selveier),2090,Hurdal
Totlandsvegen 43,2350000,98,4.0,1900.0,Enebolig,https://www.finn.no/realestate/homes/ad.html?finnkode=298637250,23979,59.6944474,5.3443415,13/04/2023,,Eier (Selveier),5440,Mosterhamn
Rådyrveien 50B,4880000,88,,1969.0,Rekkehus,https://www.finn.no/realestate/homes/ad.html?finnkode=298637039,55454,59.80959,10.811625,13/04/2023,,Eier (Selveier),1413,Tårnåsen
Stølsvegen 92B,1890000,51,2.0,1969.0,Leilighet,https://www.finn.no/realestate/homes/ad.html?finnkode=298568034,37058,60.41435,5.476831,13/04/2023,1.0,Andel,5262,Arnatveit
ÅSMARKVEGEN 16,2390000,39,2.0,2023.0,Leilighet,https://www.finn.no/realestate/homes/ad.html?finnkode=298631090,61282,60.930717,10.706164,13/04/2023,2.0,Eier (Selveier),2390,Moelv
John Strandruds vei 17,4190000,41,2.0,2015.0,Leilighet,https://www.finn.no/realestate/homes/ad.html?finnkode=292408636,102195,59.9057016,10.6231772,13/04/2023,1.0,Eier (Selveier),1366,Lysaker
Skoleveien 6,2550000,66,3.0,1956.0,Leilighet,https://www.finn.no/realestate/homes/ad.html?finnkode=298589683,38636,59.3811847,10.7465214,13/04/2023,1.0,Andel,1580,Rygge
Myravegen 6,2100000,72,,2006.0,Tomannsbolig,https://www.finn.no/realestate/homes/ad.html?finnkode=298634421,29166,60.6180661,12.0098897,13/04/2023,,Eier (Selveier),2270,Flisa
Byggstien 1,3690000,78,4.0,2019.0,Leilighet,https://www.finn.no/realestate/homes/ad.html?finnkode=298532798,47307,60.187519,11.259887,13/04/2023,2.0,Eier (Selveier),2055,Nordkisa
Moflatvegen 5,775000,42,1.0,1963.0,Leilighet,https://www.finn.no/realestate/homes/ad.html?finnkode=298513415,18452,59.1904154,9.5914128,13/04/2023,1.0,Andel,3733,Skien
Sverres gate 11B,10700000,143,,1995.0,Leilighet,https://www.finn.no/realestate/homes/ad.html?finnkode=298634118,74825,63.4283469,10.3897645,13/04/2023,4.0,Eier (Selveier),7012,Trondheim
Oskars gate 64,1790000,29,,2006.0,Leilighet,https://www.finn.no/realestate/homes/ad.html?finnkode=298633739,61724,59.2834171,11.1151845,13/04/2023,4.0,Eier (Selveier),1706,Sarpsborg
Sædalsvegen 104,8490000,187,6.0,1964.0,Enebolig,https://www.finn.no/realestate/homes/ad.html?finnkode=298632986,45401,60.3411391,5.376591,13/04/2023,2.0,Eier (Selveier),5099,Bergen
Måltrostvegen 6D,5100000,135,,1985.0,Enebolig,https://www.finn.no/realestate/homes/ad.html?finnkode=295205348,37777,60.0749347,11.0045898,13/04/2023,,Eier (Selveier),2022,Gjerdrum
Rebækkas gate 11,5150000,77,3.0,2019.0,Leilighet,https://www.finn.no/realestate/homes/ad.html?finnkode=295107804,66883,59.439537,10.665793,13/04/2023,5.0,Eier (Selveier),1534,Moss
Arsenalvegen 9,2275000,134,5.0,2008.0,Tomannsbolig,https://www.finn.no/realestate/homes/ad.html?finnkode=283758032,16977,63.3302512,10.3121433,13/04/2023,1.0,Andel,7083,Leinstrand
Harald Torps veg 27,2690000,40,2.0,2018.0,Leilighet,https://www.finn.no/realestate/homes/ad.html?finnkode=298356285,67250,63.3595239,10.4014237,13/04/2023,4.0,Eier (Selveier),7091,Tiller
Frederik Glads gate 15,5950000,70,3.0,1984.0,Leilighet,https://www.finn.no/realestate/homes/ad.html?finnkode=298355282,85000,59.941828,10.773993,13/04/2023,4.0,Eier (Selveier),482,Oslo
Gloppegata 19,3490000,61,3.0,2021.0,Leilighet,https://www.finn.no/realestate/homes/ad.html?finnkode=298334427,57213,59.397249,5.282049,13/04/2023,5.0,Eier (Selveier),5529,Haugesund
Kristine Bonnevies vei 4,4090000,58,2.0,1958.0,Leilighet,https://www.finn.no/realestate/homes/ad.html?finnkode=298430909,70517,59.948584,10.827192,13/04/2023,1.0,Eier (Selveier),592,Oslo
Statsminister Kolstads vei 75,3390000,146,,1964.0,Enebolig,https://www.finn.no/realestate/homes/ad.html?finnkode=298628924,23219,59.2823705,11.0909988,13/04/2023,,Eier (Selveier),1711,Sarpsborg
Hans Hagerups gate 4A,4200000,66,3.0,1952.0,Leilighet,https://www.finn.no/realestate/homes/ad.html?finnkode=293480643,63636,63.429995,10.3878929,13/04/2023,5.0,Andel,7012,Trondheim
Valnesfjordveien 130,1750000,87,,1948.0,Enebolig,https://www.finn.no/realestate/homes/ad.html?finnkode=297582762,20114,67.328036,15.1749889,13/04/2023,1.0,Eier (Selveier),8215,Valnesfjord
Brinken 93,3690000,87,,1967.0,Tomannsbolig,https://www.finn.no/realestate/homes/ad.html?finnkode=298625063,42413,60.1370898,11.1615556,13/04/2023,,Eier (Selveier),2050,Jessheim
Ramsays gate 10,2690000,104,3.0,1990.0,Leilighet,https://www.finn.no/realestate/homes/ad.html?finnkode=298624049,25865,63.109249,7.727824,13/04/2023,1.0,Eier (Selveier),6508,Kristiansund N
Venneslaveien 64,3975000,273,,1948.0,Enebolig,https://www.finn.no/realestate/homes/ad.html?finnkode=271468037,14560,58.2229171,7.9324741,13/04/2023,,Eier (Selveier),4619,Mosby
Kvernhusteigen 3,400000,68,3.0,1920.0,Leilighet,https://www.finn.no/realestate/homes/ad.html?finnkode=297633071,5882,60.1165033,6.5624321,13/04/2023,1.0,Andel,5770,Tyssedal
Fernanda Nissens gate 5 A,4490000,42,2.0,2014.0,Leilighet,https://www.finn.no/realestate/homes/ad.html?finnkode=297809465,106904,59.944943,10.767641,13/04/2023,1.0,Eier (Selveier),484,Oslo
Strandvegen 22B,3090000,104,3.0,1999.0,Leilighet,https://www.finn.no/realestate/homes/ad.html?finnkode=298622904,29711,64.0120893,11.4972019,13/04/2023,2.0,Eier (Selveier),7713,Steinkjer
Vollsåsen Terrasse 19,4800000,182,,1980.0,Enebolig,https://www.finn.no/realestate/homes/ad.html?finnkode=298625954,26373,59.504047,10.2858763,13/04/2023,,Eier (Selveier),3086,Holmestrand
Kyrre Grepps gate 2,6900000,85,3.0,1926.0,Leilighet,https://www.finn.no/realestate/homes/ad.html?finnkode=298531965,81176,59.940874,10.77618,13/04/2023,2.0,Andel,481,Oslo
Gåseidmarka 42,2990000,75,,1996.0,Leilighet,https://www.finn.no/realestate/homes/ad.html?finnkode=298625214,39866,62.4666352,6.2512696,13/04/2023,1.0,Eier (Selveier),6015,Ålesund
Figgenveien 42B,3690000,135,5.0,2014.0,Tomannsbolig,https://www.finn.no/realestate/homes/ad.html?finnkode=298624982,27333,58.7862362,5.8144464,13/04/2023,,Eier (Selveier),4332,Figgjo
Hærnøsandveien 45A,4250000,173,5.0,2005.0,Leilighet,https://www.finn.no/realestate/homes/ad.html?finnkode=298524535,24566,63.1236519,7.7255274,13/04/2023,2.0,Eier (Selveier),6514,Kristiansund N
Nykirkeallmenningen 21,3690000,68,3.0,1954.0,Leilighet,https://www.finn.no/realestate/homes/ad.html?finnkode=298622608,54264,60.3968343,5.312049,13/04/2023,4.0,Eier (Selveier),5005,Bergen
Nedste Nakken 5B,3650000,138,6.0,1971.0,Rekkehus,https://www.finn.no/realestate/homes/ad.html?finnkode=298544721,26449,62.4706729,6.3156723,13/04/2023,2.0,Eier (Selveier),6014,Ålesund
Prins Oscars gate 11,2490000,37,2.0,1900.0,Leilighet,https://www.finn.no/realestate/homes/ad.html?finnkode=298535558,67297,59.743173,10.218844,13/04/2023,2.0,Eier (Selveier),3011,Drammen
Vestre Vadmyra 35,2100000,74,3.0,1970.0,Leilighet,https://www.finn.no/realestate/homes/ad.html?finnkode=298525174,28378,60.363712,5.222119,13/04/2023,10.0,Andel,5172,Loddefjord
Bråtenlia 9D,2750000,60,4.0,2007.0,Leilighet,https://www.finn.no/realestate/homes/ad.html?finnkode=298523335,45833,60.0339528,11.3550474,13/04/2023,2.0,Eier (Selveier),1929,Auli
Tore Segelckes vei 8A,2500000,82,3.0,1991.0,Leilighet,https://www.finn.no/realestate/homes/ad.html?finnkode=298531665,30487,59.212986,10.957348,13/04/2023,1.0,Andel,1604,Fredrikstad
Østenga 32,6500000,249,5.0,1953.0,Enebolig,https://www.finn.no/realestate/homes/ad.html?finnkode=298493487,26104,59.7916231,10.237201,13/04/2023,3.0,Eier (Selveier),3404,Lier
Skullerudskogen 39B,3900000,65,3.0,2005.0,Leilighet,https://www.finn.no/realestate/homes/ad.html?finnkode=298495777,60000,59.867345,10.835575,13/04/2023,3.0,Andel,1188,Oslo
Næskilds gate 2B,3300000,102,,2021.0,Leilighet,https://www.finn.no/realestate/homes/ad.html?finnkode=259153829,32352,59.4853153,10.3234091,13/04/2023,4.0,Andel,3080,Holmestrand
Øvre Bergsvingen 11,3990000,71,4.0,1949.0,Leilighet,https://www.finn.no/realestate/homes/ad.html?finnkode=293231048,56197,63.4177975,10.4249154,13/04/2023,2.0,Eier (Selveier),7052,Trondheim
Råvarden 99,5290000,132,4.0,2005.0,Rekkehus,https://www.finn.no/realestate/homes/ad.html?finnkode=297679781,40075,60.2881499,5.3181046,13/04/2023,,Eier (Selveier),5239,Rådal
H. Kildahls vei 51,4650000,200,,1951.0,Enebolig,https://www.finn.no/realestate/homes/ad.html?finnkode=260897203,23250,59.4316938,10.6875572,13/04/2023,2.0,Eier (Selveier),1597,Moss
Skausnaret 11B,5950000,141,,1951.0,Tomannsbolig,https://www.finn.no/realestate/homes/ad.html?finnkode=298612623,42198,59.832299,10.804366,13/04/2023,,Eier (Selveier),1262,Oslo
Skåreråsen 16,3200000,73,4.0,1970.0,Leilighet,https://www.finn.no/realestate/homes/ad.html?finnkode=289766256,43835,59.923644,10.962833,13/04/2023,13.0,Andel,1473,Lørenskog
Laboveien 8,4150000,126,5.0,1954.0,Leilighet,https://www.finn.no/realestate/homes/ad.html?finnkode=294105309,32936,59.9784248,10.9645027,13/04/2023,1.0,Eier (Selveier),2013,Skjetten
Guristuveien 15 C,6300000,117,,1960.0,Rekkehus,https://www.finn.no/realestate/homes/ad.html?finnkode=298607091,53846,59.885867,10.842548,13/04/2023,,Eier (Selveier),690,Oslo
Morvikbotn 166B,4490000,111,3.0,2000.0,Leilighet,https://www.finn.no/realestate/homes/ad.html?finnkode=295057190,40450,60.4681829,5.2813536,13/04/2023,1.0,Eier (Selveier),5122,Morvik
Nyli terrasse 5,2890000,311,,1973.0,Enebolig,https://www.finn.no/realestate/homes/ad.html?finnkode=298605995,9292,58.471878,8.7786198,13/04/2023,,Eier (Selveier),4844,Arendal
Erling Skakkes gate 51A,4690000,75,,1912.0,Leilighet,https://www.finn.no/realestate/homes/ad.html?finnkode=298605641,62533,63.429312,10.383342,13/04/2023,2.0,Eier (Selveier),7012,Trondheim
Nøtteskogen 46,2790000,65,3.0,2013.0,Leilighet,https://www.finn.no/realestate/homes/ad.html?finnkode=298587936,42923,60.3660839,5.1571773,13/04/2023,1.0,Eier (Selveier),5355,Knarrevik
Magnus Berrføtts veg 11,2890000,60,2.0,1968.0,Leilighet,https://www.finn.no/realestate/homes/ad.html?finnkode=298602691,48166,63.421636,10.442702,13/04/2023,5.0,Andel,7046,Trondheim
AMMERUDVEIEN 19,2495000,62,3.0,2023.0,Leilighet,https://www.finn.no/realestate/homes/ad.html?finnkode=297957244,40241,59.958634,10.871193,13/04/2023,2.0,Andel,958,Oslo
Bekkeskogen 47,6300000,153,,2023.0,Enebolig,https://www.finn.no/realestate/homes/ad.html?finnkode=298593925,41176,59.251034,10.361757,13/04/2023,2.0,Eier (Selveier),3173,Vear
Beringstredet 17,2290000,30,1.0,1973.0,Leilighet,https://www.finn.no/realestate/homes/ad.html?finnkode=298601092,76333,69.673681,18.966424,13/04/2023,1.0,Eier (Selveier),9010,Tromsø
Bråtaveien 4,3300000,168,4.0,1986.0,Tomannsbolig,https://www.finn.no/realestate/homes/ad.html?finnkode=296742465,19642,60.1573884,10.2529024,13/04/2023,,Eier (Selveier),3511,Hønefoss
Rødbergveien 95,4600000,78,3.0,1971.0,Leilighet,https://www.finn.no/realestate/homes/ad.html?finnkode=292144366,58974,59.944181,10.829921,13/04/2023,2.0,Andel,593,Oslo
Keiseråsvegen 8,3590000,50,3.0,2023.0,Leilighet,https://www.finn.no/realestate/homes/ad.html?finnkode=291688278,71800,63.36783,10.405175,13/04/2023,5.0,Eier (Selveier),7081,Sjetnemarka
Aurdalslia 22,3250000,118,,1990.0,Leilighet,https://www.finn.no/realestate/homes/ad.html?finnkode=298599417,27542,60.3056513,5.2802797,13/04/2023,5.0,Andel,5253,Sandsli
Marsvegen 10,9500000,252,6.0,1966.0,Enebolig,https://www.finn.no/realestate/homes/ad.html?finnkode=298594827,37698,60.335959,5.3695683,13/04/2023,2.0,Eier (Selveier),5099,Bergen
Myklabergveien 69,4090000,166,3.0,1987.0,Rekkehus,https://www.finn.no/realestate/homes/ad.html?finnkode=298597724,24638,58.8851038,5.7361092,13/04/2023,,Andel,4314,Sandnes
Røysbakken 42B,2450000,73,3.0,1996.0,Tomannsbolig,https://www.finn.no/realestate/homes/ad.html?finnkode=298597660,33561,62.1454302,6.0776216,13/04/2023,1.0,Eier (Selveier),6100,Volda
Øyjordsveien 39,2790000,69,3.0,1964.0,Leilighet,https://www.finn.no/realestate/homes/ad.html?finnkode=298597165,40434,60.4279769,5.3071355,13/04/2023,1.0,Andel,5038,Bergen
Øvre Fyllingsveien 32 E,3590000,90,,1999.0,Leilighet,https://www.finn.no/realestate/homes/ad.html?finnkode=298596821,39888,60.3780112,5.3051929,13/04/2023,4.0,Eier (Selveier),5161,Laksevåg
Midtunhaugen 65,6395000,175,6.0,1992.0,Rekkehus,https://www.finn.no/realestate/homes/ad.html?finnkode=289007495,36542,60.3191394,5.3599484,13/04/2023,2.0,Eier (Selveier),5224,Nesttun
Grimstadtunet 9,3850000,112,5.0,2017.0,Enebolig,https://www.finn.no/realestate/homes/ad.html?finnkode=298595739,34375,59.214507,11.189632,13/04/2023,,Eier (Selveier),1746,Skjeberg
Asbjørn Øverås veg 20C,2700000,55,2.0,1971.0,Leilighet,https://www.finn.no/realestate/homes/ad.html?finnkode=298595764,49090,63.3926345,10.4304138,13/04/2023,1.0,Andel,7036,Trondheim
Meierivegen 15B,2960000,69,3.0,2002.0,Leilighet,https://www.finn.no/realestate/homes/ad.html?finnkode=271517244,42898,63.467151,10.926633,13/04/2023,1.0,Eier (Selveier),7503,Stjørdal
Henrik Angells gate 1A,10490000,362,10.0,1916.0,Enebolig,https://www.finn.no/realestate/homes/ad.html?finnkode=298289004,28977,63.435697,10.444848,13/04/2023,,Eier (Selveier),7045,Trondheim
Tonstadbrinken 317D,6990000,164,4.0,2018.0,Enebolig,https://www.finn.no/realestate/homes/ad.html?finnkode=298529598,42621,63.365591,10.391676,13/04/2023,3.0,Eier (Selveier),7091,Tiller
Ladeveien 8A,3790000,72,,1912.0,Leilighet,https://www.finn.no/realestate/homes/ad.html?finnkode=298594241,52638,63.4408861,10.4340983,13/04/2023,4.0,Eier (Selveier),7066,Trondheim
Strandvegen 114A,3550000,39,2.0,2018.0,Leilighet,https://www.finn.no/realestate/homes/ad.html?finnkode=297584715,91025,69.634603,18.931613,13/04/2023,6.0,Eier (Selveier),9006,Tromsø
Røråslia 33,4980000,145,5.0,2021.0,Enebolig,https://www.finn.no/realestate/homes/ad.html?finnkode=271367771,34344,59.210791,9.530605,13/04/2023,,Eier (Selveier),3720,Skien
Rognstadvegen 31,3270000,130,4.0,1947.0,Enebolig,https://www.finn.no/realestate/homes/ad.html?finnkode=289841719,25153,60.7185274,11.2532268,13/04/2023,1.0,Eier (Selveier),2335,Stange
Notveien 9,4275000,128,8.0,1926.0,Enebolig,https://www.finn.no/realestate/homes/ad.html?finnkode=298591225,33398,58.9299102,5.8448158,13/04/2023,2.0,Eier (Selveier),4310,Hommersåk
Knappane 7,2690000,111,4.0,1958.0,Enebolig,https://www.finn.no/realestate/homes/ad.html?finnkode=295940834,24234,59.8140036,5.5207761,13/04/2023,,Eier (Selveier),5414,Stord
Vikane 30 b,2990000,493,,1935.0,Andre,https://www.finn.no/realestate/homes/ad.html?finnkode=240727975,6064,60.427531,5.1523595,13/04/2023,2.0,Eier (Selveier),5304,Hetlevik
Rønningmyra 3 B,2890000,89,5.0,2004.0,Leilighet,https://www.finn.no/realestate/homes/ad.html?finnkode=298420140,32471,59.2890261,10.4869294,13/04/2023,2.0,Andel,3153,Tolvsrød
John Strandruds vei 23,4500000,46,2.0,2018.0,Leilighet,https://www.finn.no/realestate/homes/ad.html?finnkode=298456579,97826,59.905107,10.621518,13/04/2023,5.0,Eier (Selveier),1366,Lysaker
Klokkargården 68,1800000,211,,1980.0,Enebolig,https://www.finn.no/realestate/homes/ad.html?finnkode=298579177,8530,58.8806377,9.028451,13/04/2023,2.0,Eier (Selveier),4980,Gjerstad
Nygata 6,1700000,53,,2008.0,Leilighet,https://www.finn.no/realestate/homes/ad.html?finnkode=298587101,32075,58.149344,7.9912328,13/04/2023,2.0,Andel,4612,Kristiansand S
Håkons vei 101A,7900000,188,,1987.0,Tomannsbolig,https://www.finn.no/realestate/homes/ad.html?finnkode=285585969,42021,59.9325034,10.9460894,13/04/2023,,Eier (Selveier),1470,Lørenskog
Storengveien 69A,8200000,83,4.0,1910.0,Tomannsbolig,https://www.finn.no/realestate/homes/ad.html?finnkode=294975990,98795,59.9108607,10.6036772,13/04/2023,2.0,Eier (Selveier),1368,Stabekk
Høybråtenveien 5A,4250000,117,,1977.0,Leilighet,https://www.finn.no/realestate/homes/ad.html?finnkode=298584341,36324,59.945855,10.90392,13/04/2023,1.0,Andel,1055,Oslo
Doktorveien 2,5200000,213,,1971.0,Enebolig,https://www.finn.no/realestate/homes/ad.html?finnkode=298584019,24413,59.05848,10.046476,13/04/2023,,Eier (Selveier),3274,Larvik
Hillerenveien 79,5750000,185,7.0,1978.0,Enebolig,https://www.finn.no/realestate/homes/ad.html?finnkode=298583950,31081,60.3350097,5.2034841,13/04/2023,,Eier (Selveier),5174,Mathopen
Greverudveien 8A,12700000,282,,1978.0,Enebolig,https://www.finn.no/realestate/homes/ad.html?finnkode=296120271,45035,59.8522791,10.4670549,13/04/2023,,Eier (Selveier),1395,Hvalstad
Alnagata 18,3000000,40,,2007.0,Leilighet,https://www.finn.no/realestate/homes/ad.html?finnkode=298582509,75000,59.903346,10.775105,13/04/2023,7.0,Andel,192,Oslo
Rådyrlia 3,2250000,67,,1987.0,Leilighet,https://www.finn.no/realestate/homes/ad.html?finnkode=298581996,33582,59.6283393,10.3893504,13/04/2023,1.0,Andel,3060,Svelvik
Per Sivles vei 38,6200000,163,,1960.0,Enebolig,https://www.finn.no/realestate/homes/ad.html?finnkode=261002190,38036,59.4419263,10.6367432,13/04/2023,,Eier (Selveier),1511,Moss
Nedre Møllenberg gate 7,4490000,75,,1900.0,Leilighet,https://www.finn.no/realestate/homes/ad.html?finnkode=290745895,59866,63.429806,10.407459,13/04/2023,2.0,Eier (Selveier),7014,Trondheim
Breidablikkvegen 35,2190000,188,10.0,1978.0,Enebolig,https://www.finn.no/realestate/homes/ad.html?finnkode=297486459,11648,59.2873922,5.2691366,13/04/2023,2.0,Eier (Selveier),4250,Kopervik
Landstads gate 51,5390000,84,3.0,2020.0,Leilighet,https://www.finn.no/realestate/homes/ad.html?finnkode=272996627,64166,59.955909,11.054329,13/04/2023,4.0,Andel,2000,Lillestrøm
Revebjelleveien 82,2200000,66,3.0,2003.0,Leilighet,https://www.finn.no/realestate/homes/ad.html?finnkode=298518911,33333,59.4111948,10.6953647,13/04/2023,2.0,Andel,1529,Moss
Rådhusgata 44,8490000,181,,1810.0,Enebolig,https://www.finn.no/realestate/homes/ad.html?finnkode=298576965,46906,58.148216,7.9995348,13/04/2023,,Eier (Selveier),4614,Kristiansand S
Poppegårdsveien 5,8500000,270,,1961.0,Enebolig,https://www.finn.no/realestate/homes/ad.html?finnkode=297846915,31481,59.7202492,10.1435993,13/04/2023,,Eier (Selveier),3031,Drammen
Lauritz Hervigs vei 95G,1990000,78,3.0,1971.0,Leilighet,https://www.finn.no/realestate/homes/ad.html?finnkode=298324401,25512,59.7140472,10.2286463,13/04/2023,2.0,Andel,3035,Drammen
Herresalveien 76C,2520000,117,,2008.0,Enebolig,https://www.finn.no/realestate/homes/ad.html?finnkode=298537066,21538,59.3131834,11.1247995,13/04/2023,,Andel,1727,Sarpsborg
Ørnahaugen 63,9900000,215,6.0,1971.0,Enebolig,https://www.finn.no/realestate/homes/ad.html?finnkode=292993461,46046,60.3514425,5.2849279,13/04/2023,,Eier (Selveier),5144,Fyllingsdalen
Ole Irgens vei 14,16500000,174,4.0,2009.0,Leilighet,https://www.finn.no/realestate/homes/ad.html?finnkode=298574293,94827,60.387939,5.350992,13/04/2023,3.0,Eier (Selveier),5019,Bergen
Romolslia 17 A,1690000,53,,1972.0,Leilighet,https://www.finn.no/realestate/homes/ad.html?finnkode=298548809,31886,63.3821038,10.3679736,13/04/2023,3.0,Andel,7029,Trondheim
Flatheimvegen 5,5990000,192,,2006.0,Enebolig,https://www.finn.no/realestate/homes/ad.html?finnkode=298571080,31197,63.3110283,10.4319352,13/04/2023,,Eier (Selveier),7549,Tanem
Søren Lemmichs gate 4,2500000,38,1.0,1971.0,Leilighet,https://www.finn.no/realestate/homes/ad.html?finnkode=298570065,65789,59.74184,10.216358,13/04/2023,3.0,Andel,3015,Drammen
Bjørnstjerne Bjørnsons veg 14,2290000,55,2.0,2004.0,Leilighet,https://www.finn.no/realestate/homes/ad.html?finnkode=298359859,41636,62.7358323,7.1493964,13/04/2023,1.0,Andel,6412,Molde
Lørenveien 54C,5980000,60,3.0,2019.0,Leilighet,https://www.finn.no/realestate/homes/ad.html?finnkode=295087567,99666,59.929992,10.796363,13/04/2023,5.0,Andel,585,Oslo
Nedre Blåsenborg 18,2890000,50,3.0,1845.0,Leilighet,https://www.finn.no/realestate/homes/ad.html?finnkode=298568272,57800,58.970145,5.741379,13/04/2023,2.0,Eier (Selveier),4013,Stavanger
Ellingsbergvegen 121,1150000,178,,1972.0,Enebolig,https://www.finn.no/realestate/homes/ad.html?finnkode=298567781,6460,61.1842025,10.3334266,13/04/2023,,Eier (Selveier),2625,Fåberg
Rundvegen 13,2740000,219,,1957.0,Enebolig,https://www.finn.no/realestate/homes/ad.html?finnkode=295734418,12511,58.5703057,5.6844632,13/04/2023,,Eier (Selveier),4362,Vigrestad
Skiparviklia 11,4260000,72,3.0,2021.0,Leilighet,https://www.finn.no/realestate/homes/ad.html?finnkode=295999430,59166,60.31809,5.335158,13/04/2023,,Eier (Selveier),5221,Nesttun
Gullfunnet 7,5725000,135,,1999.0,Enebolig,https://www.finn.no/realestate/homes/ad.html?finnkode=298563471,42407,59.3905157,10.6823928,13/04/2023,,Eier (Selveier),1570,Dilling
Brattbakken 8,2700000,200,,1948.0,Enebolig,https://www.finn.no/realestate/homes/ad.html?finnkode=296869986,13500,60.1852524,11.994169,13/04/2023,,Eier (Selveier),2208,Kongsvinger
Skåravegen 53,2500000,257,,1985.0,Enebolig,https://www.finn.no/realestate/homes/ad.html?finnkode=298524890,9727,60.13081,5.140839,13/04/2023,,Eier (Selveier),5384,Torangsvåg
Bringebærveien 18C,3490000,123,,1976.0,Rekkehus,https://www.finn.no/realestate/homes/ad.html?finnkode=298558289,28373,58.1738031,8.0972134,13/04/2023,,Eier (Selveier),4635,Kristiansand S
Gamle Somavei 14,4500000,252,6.0,1952.0,Enebolig,https://www.finn.no/realestate/homes/ad.html?finnkode=298555102,17857,58.8714314,5.7225428,13/04/2023,4.0,Eier (Selveier),4313,Sandnes
Maridalsveien 56 B,7950000,79,4.0,1892.0,Leilighet,https://www.finn.no/realestate/homes/ad.html?finnkode=275750962,100632,59.929327,10.753105,13/04/2023,3.0,Andel,458,Oslo
Olav Tryggvasons gate 34,4490000,96,,1896.0,Leilighet,https://www.finn.no/realestate/homes/ad.html?finnkode=298552175,46770,63.433318,10.3947266,13/04/2023,5.0,Eier (Selveier),7011,Trondheim
Linneaveien 49,5100000,154,2.0,1986.0,Enebolig,https://www.finn.no/realestate/homes/ad.html?finnkode=298489437,33116,59.7378599,10.0295318,13/04/2023,3.0,Eier (Selveier),3050,Mjøndalen
Fjellhaugvegen 25,5390000,191,4.0,2007.0,Enebolig,https://www.finn.no/realestate/homes/ad.html?finnkode=293205601,28219,63.3272559,10.0419696,13/04/2023,2.0,Eier (Selveier),7353,Børsa
Snølia 1,5600000,72,4.0,2021.0,Leilighet,https://www.finn.no/realestate/homes/ad.html?finnkode=298551139,77777,59.946183,10.95222,13/04/2023,1.0,Eier (Selveier),1470,Lørenskog
Kvartsveien 2B,2500000,74,,1978.0,Leilighet,https://www.finn.no/realestate/homes/ad.html?finnkode=298551140,33783,59.1400982,10.1897898,13/04/2023,1.0,Andel,3214,Sandefjord
Elgtråkket 3D,3750000,104,,1976.0,Leilighet,https://www.finn.no/realestate/homes/ad.html?finnkode=298550657,36057,59.932128,11.0352301,13/04/2023,3.0,Andel,2014,Blystadlia
Dalveien 114A,1740000,55,,1971.0,Leilighet,https://www.finn.no/realestate/homes/ad.html?finnkode=298550339,31636,59.2803112,11.0476182,13/04/2023,3.0,Andel,1718,Greåker
Bringebærhagen 10,3950000,71,3.0,2008.0,Leilighet,https://www.finn.no/realestate/homes/ad.html?finnkode=298500379,55633,59.6742756,10.6627844,13/04/2023,2.0,Andel,1448,Drøbak
Fjeldheimvegen 7,9590000,210,6.0,2014.0,Enebolig,https://www.finn.no/realestate/homes/ad.html?finnkode=280622382,45666,60.1315683,11.1728982,13/04/2023,,Eier (Selveier),2053,Jessheim
Solstrandvegen 142,3200000,74,3.0,2001.0,Leilighet,https://www.finn.no/realestate/homes/ad.html?finnkode=298548133,43243,69.6300775,18.9570751,13/04/2023,2.0,Andel,9020,Tromsdalen
Bevervegen 19,4990000,300,6.0,1970.0,Enebolig,https://www.finn.no/realestate/homes/ad.html?finnkode=282655230,16633,60.2266843,11.033986,13/04/2023,,Eier (Selveier),2030,Nannestad
Alexander Kiellands gate 8B,4200000,66,3.0,1951.0,Leilighet,https://www.finn.no/realestate/homes/ad.html?finnkode=298547465,63636,59.9596018,11.0556349,13/04/2023,1.0,Andel,2000,Lillestrøm
Vardane 15F,2490000,47,2.0,2012.0,Leilighet,https://www.finn.no/realestate/homes/ad.html?finnkode=298546842,52978,60.4499394,5.2193612,13/04/2023,2.0,Eier (Selveier),5306,Erdal
Rådmann Paulsens gate 18,4500000,66,3.0,2014.0,Leilighet,https://www.finn.no/realestate/homes/ad.html?finnkode=298546742,68181,59.920071,10.950958,13/04/2023,6.0,Eier (Selveier),1461,Lørenskog
Sundjordgata 35,2950000,164,,1955.0,Tomannsbolig,https://www.finn.no/realestate/homes/ad.html?finnkode=298488311,17987,59.1290805,9.6401151,13/04/2023,,Eier (Selveier),3933,Porsgrunn
Løbergsjå 2A,3490000,133,5.0,2011.0,Tomannsbolig,https://www.finn.no/realestate/homes/ad.html?finnkode=298499628,26240,58.8319466,5.8196734,13/04/2023,,Eier (Selveier),4337,Sandnes
Sanddalskollen 45,2550000,67,3.0,2000.0,Leilighet,https://www.finn.no/realestate/homes/ad.html?finnkode=275811144,38059,60.3268578,5.3683874,13/04/2023,1.0,Andel,5225,Nesttun
Buvikveien 1,1900000,61,,1959.0,Leilighet,https://www.finn.no/realestate/homes/ad.html?finnkode=298546440,31147,59.2703789,11.0875784,13/04/2023,2.0,Andel,1725,Sarpsborg
Toftes gate 15B,6400000,66,3.0,2010.0,Leilighet,https://www.finn.no/realestate/homes/ad.html?finnkode=298408848,96969,59.930107,10.760633,13/04/2023,4.0,Eier (Selveier),556,Oslo
Moribakken 7,2890000,85,2.0,1860.0,Enebolig,https://www.finn.no/realestate/homes/ad.html?finnkode=298544491,34000,58.4592188,8.7614411,13/04/2023,,Eier (Selveier),4836,Arendal
Troldhaugvegen 50B,5490000,72,3.0,2016.0,Leilighet,https://www.finn.no/realestate/homes/ad.html?finnkode=298525981,76250,60.3243849,5.3404474,13/04/2023,3.0,Eier (Selveier),5232,Paradis
Skolegaten 13,2730000,80,2.0,,Leilighet,https://www.finn.no/realestate/homes/ad.html?finnkode=298501224,34125,59.4838885,10.3241302,13/04/2023,1.0,Eier (Selveier),3080,Holmestrand
Gamle Somavei 12B,3650000,105,3.0,1952.0,Leilighet,https://www.finn.no/realestate/homes/ad.html?finnkode=298378029,34761,58.871656,5.722422,13/04/2023,2.0,Eier (Selveier),4313,Sandnes
Ystenesgata 26,1200000,40,2.0,1951.0,Leilighet,https://www.finn.no/realestate/homes/ad.html?finnkode=298541606,30000,62.4708199,6.1769339,13/04/2023,2.0,Andel,6007,Ålesund
Ytterveien 1,2000000,59,,1957.0,Leilighet,https://www.finn.no/realestate/homes/ad.html?finnkode=297719764,33898,67.2619101,15.3885454,13/04/2023,1.0,Andel,8200,Fauske
Prestesetervegen 4,3230000,82,,2023.0,Enebolig,https://www.finn.no/realestate/homes/ad.html?finnkode=298543639,39390,60.6816233,10.626802,13/04/2023,,Eier (Selveier),2840,Reinsvoll
Hyllbergvegen 3,3390000,232,,1976.0,Enebolig,https://www.finn.no/realestate/homes/ad.html?finnkode=298542960,14612,63.5077873,11.1208562,13/04/2023,,Eier (Selveier),7520,Hegra
Bordalen 22,4300000,327,,1980.0,Enebolig,https://www.finn.no/realestate/homes/ad.html?finnkode=298542307,13149,58.12363,8.09641,13/04/2023,,Eier (Selveier),4639,Kristiansand S
Gårdsveien 11,3950000,166,,1997.0,Enebolig,https://www.finn.no/realestate/homes/ad.html?finnkode=298397044,23795,63.1256082,7.8091254,13/04/2023,,Eier (Selveier),6518,Kristiansund N
Sundliveien 351,1500000,145,,1963.0,Enebolig,https://www.finn.no/realestate/homes/ad.html?finnkode=298440384,10344,69.0209577,18.4881499,13/04/2023,,Eier (Selveier),9360,Bardu
Grasmovegen 70,4990000,251,7.0,1968.0,Enebolig,https://www.finn.no/realestate/homes/ad.html?finnkode=283045798,19880,60.23504,11.08404,13/04/2023,2.0,Eier (Selveier),2030,Nannestad
Pilestredet 29A,9200000,94,3.0,1988.0,Leilighet,https://www.finn.no/realestate/homes/ad.html?finnkode=298350734,97872,59.918389,10.737099,13/04/2023,6.0,Eier (Selveier),166,Oslo
Ramstaddammen 4,3220000,77,3.0,2021.0,Leilighet,https://www.finn.no/realestate/homes/ad.html?finnkode=292922498,41818,60.163771,10.992826,13/04/2023,3.0,Eier (Selveier),2033,Åsgreina
Frida Hansens vei 12,2450000,40,2.0,2007.0,Leilighet,https://www.finn.no/realestate/homes/ad.html?finnkode=298351300,61250,58.9506145,5.7407535,13/04/2023,1.0,Eier (Selveier),4016,Stavanger
Prestestien 32,2690000,77,3.0,1971.0,Leilighet,https://www.finn.no/realestate/homes/ad.html?finnkode=298540383,34935,60.4668119,5.3057229,13/04/2023,2.0,Andel,5118,Ulset
Bruhagen 4,2590000,115,4.0,1991.0,Leilighet,https://www.finn.no/realestate/homes/ad.html?finnkode=298540308,22521,58.8449858,5.7291188,13/04/2023,3.0,Eier (Selveier),4306,Sandnes
Brogata 3A,800000,72,6.0,1957.0,Leilighet,https://www.finn.no/realestate/homes/ad.html?finnkode=296778439,11111,59.8781428,8.6028042,13/04/2023,1.0,Andel,3660,Rjukan
Flaktveitvegen 712,2650000,62,,1985.0,Leilighet,https://www.finn.no/realestate/homes/ad.html?finnkode=298539355,42741,60.4643801,5.3702748,13/04/2023,4.0,Eier (Selveier),5134,Flaktveit
Vårveien 6,6000000,270,4.0,1992.0,Enebolig,https://www.finn.no/realestate/homes/ad.html?finnkode=298539272,22222,58.8486161,5.7213014,13/04/2023,,Eier (Selveier),4319,Sandnes
Cudrios gate 22,2350000,73,3.0,2021.0,Leilighet,https://www.finn.no/realestate/homes/ad.html?finnkode=296499983,32191,59.002955,9.749089,13/04/2023,2.0,Andel,3970,Langesund
Munkebekken 398,6800000,126,6.0,1986.0,Tomannsbolig,https://www.finn.no/realestate/homes/ad.html?finnkode=297608685,53968,59.933199,10.913897,13/04/2023,3.0,Andel,1061,Oslo
Lekvolden 3G,2490000,86,,2013.0,Enebolig,https://www.finn.no/realestate/homes/ad.html?finnkode=289977670,28953,60.6844449,11.3473461,13/04/2023,1.0,Eier (Selveier),2330,Vallset
Holmsens vei 139,4850000,75,3.0,1998.0,Leilighet,https://www.finn.no/realestate/homes/ad.html?finnkode=298504571,64666,59.9469117,11.0035858,13/04/2023,1.0,Eier (Selveier),1467,Strømmen
Eddaveien 17K,1490000,47,2.0,2000.0,Leilighet,https://www.finn.no/realestate/homes/ad.html?finnkode=298535409,31702,59.4466293,10.6515459,13/04/2023,2.0,Andel,1513,Moss
Hjemsengveien 115,2400000,66,4.0,1962.0,Leilighet,https://www.finn.no/realestate/homes/ad.html?finnkode=298535408,36363,59.2193271,10.4423395,13/04/2023,2.0,Andel,3133,Duken
Nyjordstubben 145,4850000,104,4.0,1985.0,Rekkehus,https://www.finn.no/realestate/homes/ad.html?finnkode=278759851,46634,59.827451,10.840497,13/04/2023,2.0,Eier (Selveier),1275,Oslo
Ilevollen 46A,6150000,139,4.0,1987.0,Tomannsbolig,https://www.finn.no/realestate/homes/ad.html?finnkode=293875664,44244,63.4293633,10.3675569,13/04/2023,,Eier (Selveier),7018,Trondheim
Tandbergåsen 24B,9900000,192,5.0,2018.0,Enebolig,https://www.finn.no/realestate/homes/ad.html?finnkode=298498775,51562,59.702194,10.848782,13/04/2023,,Eier (Selveier),1424,Ski
Sangsvanelia 52C,4390000,104,4.0,2019.0,Rekkehus,https://www.finn.no/realestate/homes/ad.html?finnkode=298534687,42211,60.260158,11.052563,13/04/2023,,Eier (Selveier),2032,Maura
Kvitsøygata 18C,2200000,42,,1868.0,Leilighet,https://www.finn.no/realestate/homes/ad.html?finnkode=298534399,52380,58.969023,5.7562086,13/04/2023,2.0,Eier (Selveier),4014,Stavanger
Vikavegen 28A,2950000,84,3.0,2008.0,Tomannsbolig,https://www.finn.no/realestate/homes/ad.html?finnkode=298534216,35119,62.595148,9.6740489,13/04/2023,1.0,Eier (Selveier),7340,Oppdal
Åmlandsveien 21,3600000,205,,1960.0,Enebolig,https://www.finn.no/realestate/homes/ad.html?finnkode=298534186,17560,58.157823,8.22407,13/04/2023,,Eier (Selveier),4770,Høvåg
Prestekragevegen 25,11490000,276,,1975.0,Enebolig,https://www.finn.no/realestate/homes/ad.html?finnkode=298534037,41630,63.4082553,10.4307518,13/04/2023,,Eier (Selveier),7050,Trondheim
Landåslien 75A,7590000,132,,1959.0,Tomannsbolig,https://www.finn.no/realestate/homes/ad.html?finnkode=298533578,57500,60.3639637,5.3754337,13/04/2023,,Eier (Selveier),5097,Bergen
Sulitjelmaveien 8 L,3600000,74,3.0,2006.0,Leilighet,https://www.finn.no/realestate/homes/ad.html?finnkode=298532548,48648,67.2800845,14.4014116,13/04/2023,2.0,Eier (Selveier),8007,Bodø
STADIONVEGEN 6,2760000,89,5.0,2022.0,Leilighet,https://www.finn.no/realestate/homes/ad.html?finnkode=284292193,31011,58.30836,6.960666,13/04/2023,,Eier (Selveier),4480,Kvinesdal
Tante Ulrikkes vei 32B,2790000,62,,1971.0,Leilighet,https://www.finn.no/realestate/homes/ad.html?finnkode=298532116,45000,59.959883,10.918285,13/04/2023,2.0,Andel,984,Oslo
Tømmervågen 41,4490000,82,,2007.0,Leilighet,https://www.finn.no/realestate/homes/ad.html?finnkode=288693396,54756,60.4422424,5.2997486,13/04/2023,,Andel,5101,Eidsvågneset
Buerveien 60,3890000,110,3.0,2005.0,Leilighet,https://www.finn.no/realestate/homes/ad.html?finnkode=276980399,35363,59.6011827,11.0763396,13/04/2023,4.0,Eier (Selveier),1820,Spydeberg
Skjøllendgata 5 D,450000,65,2.0,1955.0,Leilighet,https://www.finn.no/realestate/homes/ad.html?finnkode=298530354,6923,62.6711689,8.5672882,13/04/2023,1.0,Andel,6600,Sunndalsøra
Strømsoddveien 269,1690000,142,,1961.0,Enebolig,https://www.finn.no/realestate/homes/ad.html?finnkode=288932866,11901,60.3380066,9.8490152,13/04/2023,1.0,Eier (Selveier),3534,Sokna
Bjørklundvegen 11,4550000,181,4.0,1970.0,Enebolig,https://www.finn.no/realestate/homes/ad.html?finnkode=296901525,25138,60.075584,11.026828,13/04/2023,2.0,Eier (Selveier),2022,Gjerdrum
Stjørdalsveien 7,3290000,43,3.0,2017.0,Leilighet,https://www.finn.no/realestate/homes/ad.html?finnkode=294714926,76511,63.4416038,10.4366821,13/04/2023,1.0,Eier (Selveier),7066,Trondheim
Kilgata 13B,4460000,67,3.0,2020.0,Leilighet,https://www.finn.no/realestate/homes/ad.html?finnkode=293500399,66567,59.127323,10.236917,13/04/2023,2.0,Eier (Selveier),3217,Sandefjord
Langstien 45,9500000,346,,1985.0,Enebolig,https://www.finn.no/realestate/homes/ad.html?finnkode=292213132,27456,59.2750138,11.0537065,13/04/2023,,Eier (Selveier),1715,Yven
Gyldenløves gate 27 A,3290000,88,3.0,1956.0,Leilighet,https://www.finn.no/realestate/homes/ad.html?finnkode=297459724,37386,59.276479,10.423381,13/04/2023,1.0,Andel,3117,Tønsberg
Operagata 61 A,25950000,130,4.0,2020.0,Leilighet,https://www.finn.no/realestate/homes/ad.html?finnkode=298373112,199615,59.906753,10.757844,13/04/2023,6.0,Eier (Selveier),194,Oslo
Ulstadløkkveien 4,3190000,72,,1911.0,Leilighet,https://www.finn.no/realestate/homes/ad.html?finnkode=269443320,44305,63.4368222,10.4234411,13/04/2023,2.0,Andel,7014,Trondheim
Markveien 22,5190000,142,4.0,2005.0,Leilighet,https://www.finn.no/realestate/homes/ad.html?finnkode=298528417,36549,58.8590881,5.7440772,13/04/2023,4.0,Eier (Selveier),4307,Sandnes
Ulrikkaplassen 3 B,1290000,83,3.0,2019.0,Leilighet,https://www.finn.no/realestate/homes/ad.html?finnkode=295868343,15542,63.611667,11.046446,13/04/2023,1.0,Andel,7630,Åsen
Korporalstubben 8A,4100000,140,,1968.0,Rekkehus,https://www.finn.no/realestate/homes/ad.html?finnkode=298358847,29285,58.9419996,5.652634,13/04/2023,,Andel,4045,Hafrsfjord
Tangenheia 19,6175000,195,5.0,2020.0,Enebolig,https://www.finn.no/realestate/homes/ad.html?finnkode=271150636,31666,58.62213,8.945271,13/04/2023,,Eier (Selveier),4904,Tvedestrand
Glitterudveien 39,2450000,72,3.0,1990.0,Leilighet,https://www.finn.no/realestate/homes/ad.html?finnkode=298527354,34027,59.9184067,10.5005313,13/04/2023,1.0,Andel,1352,Kolsås
Skovveien 7,11000000,96,4.0,1937.0,Leilighet,https://www.finn.no/realestate/homes/ad.html?finnkode=297921151,114583,59.916599,10.717036,13/04/2023,4.0,Eier (Selveier),257,Oslo
Sildreveien 1E,3450000,102,,1976.0,Rekkehus,https://www.finn.no/realestate/homes/ad.html?finnkode=290840142,33823,59.3025272,10.419902,13/04/2023,,Eier (Selveier),3123,Tønsberg
Sentrumsveien 5,4465000,61,2.0,2022.0,Leilighet,https://www.finn.no/realestate/homes/ad.html?finnkode=272782150,73196,59.602844,10.748756,13/04/2023,5.0,Eier (Selveier),1540,Vestby
Stornesvika 9,4650000,205,5.0,1987.0,Enebolig,https://www.finn.no/realestate/homes/ad.html?finnkode=294225960,22682,60.754125,5.065152,13/04/2023,3.0,Eier (Selveier),5955,Lindås
Laboratorieveien 13,2900000,43,2.0,2017.0,Leilighet,https://www.finn.no/realestate/homes/ad.html?finnkode=298348912,67441,60.048721,10.858661,13/04/2023,1.0,Eier (Selveier),1482,Nittedal
Statsrådvegen 122A Eidsvoll,3350000,59,,2021.0,Leilighet,https://www.finn.no/realestate/homes/ad.html?finnkode=272009675,56779,60.291789,11.162237,13/04/2023,2.0,Eier (Selveier),2074,Verk
Åsmoen vestre 9,5950000,141,5.0,2008.0,Rekkehus,https://www.finn.no/realestate/homes/ad.html?finnkode=279152164,42198,60.137759,11.2204732,13/04/2023,2.0,Eier (Selveier),2052,Jessheim
Stegen 21,3950000,200,5.0,2001.0,Enebolig,https://www.finn.no/realestate/homes/ad.html?finnkode=295862385,19750,60.04018,5.20351,13/04/2023,,Eier (Selveier),5394,Kolbeinsvik
Grefsenveien 21B,4400000,57,2.0,1936.0,Leilighet,https://www.finn.no/realestate/homes/ad.html?finnkode=294142934,77192,59.942635,10.773446,13/04/2023,5.0,Eier (Selveier),482,Oslo
Nils Bergs veg 24,2250000,170,,1965.0,Enebolig,https://www.finn.no/realestate/homes/ad.html?finnkode=298525160,13235,60.236024,10.407869,13/04/2023,,Eier (Selveier),3520,Jevnaker
Vadmyrveien 2,1590000,84,,1971.0,Leilighet,https://www.finn.no/realestate/homes/ad.html?finnkode=298524834,18928,60.360931,5.230226,13/04/2023,6.0,Andel,5172,Loddefjord
Våganesstubben 9,6700000,207,,1983.0,Enebolig,https://www.finn.no/realestate/homes/ad.html?finnkode=290850191,32367,58.9114369,5.6695286,13/04/2023,2.0,Eier (Selveier),4052,Røyneberg
Skredderveien 19B,2700000,101,4.0,1975.0,Leilighet,https://www.finn.no/realestate/homes/ad.html?finnkode=286659658,26732,59.457464,10.690472,13/04/2023,1.0,Andel,1537,Moss
Murstadvegen 1,3500000,185,,1977.0,Enebolig,https://www.finn.no/realestate/homes/ad.html?finnkode=297003394,18918,60.8675268,10.9559934,13/04/2023,,Eier (Selveier),2380,Brumunddal
Dronning Eufemias gate 59,5850000,45,,2019.0,Leilighet,https://www.finn.no/realestate/homes/ad.html?finnkode=298523325,130000,59.906797,10.760658,13/04/2023,6.0,Eier (Selveier),194,Oslo
Mannsverk 4,2680000,85,2.0,1958.0,Leilighet,https://www.finn.no/realestate/homes/ad.html?finnkode=298523412,31529,60.353835,5.36689,13/04/2023,2.0,Aksje,5094,Bergen
Kilgata 15D,7990000,93,,2020.0,Leilighet,https://www.finn.no/realestate/homes/ad.html?finnkode=294324232,85913,59.127238,10.23757,13/04/2023,6.0,Eier (Selveier),3217,Sandefjord
Sundvegen 4,2200000,122,,1967.0,Rekkehus,https://www.finn.no/realestate/homes/ad.html?finnkode=298345606,18032,60.1925336,12.0130589,13/04/2023,,Andel,2213,Kongsvinger
Svartdalsveien 10B,7000000,86,3.0,1981.0,Leilighet,https://www.finn.no/realestate/homes/ad.html?finnkode=285660144,81395,59.903718,10.80191,13/04/2023,4.0,Andel,196,Oslo
Litles gate 12B Gamle,2750000,112,3.0,1952.0,Tomannsbolig,https://www.finn.no/realestate/homes/ad.html?finnkode=287185857,24553,59.216794,10.9772505,13/04/2023,1.0,Eier (Selveier),1636,Fredrikstad
Nøstegaten 69A,6990000,110,4.0,2009.0,Leilighet,https://www.finn.no/realestate/homes/ad.html?finnkode=278715471,63545,60.3934737,5.3146821,13/04/2023,4.0,Eier (Selveier),5011,Bergen
Hjartåsvegen 19 Førde i,2500000,318,8.0,1977.0,Enebolig,https://www.finn.no/realestate/homes/ad.html?finnkode=272904369,7861,59.6070524,5.4663441,13/04/2023,,Eier (Selveier),5555,Hordaland
Nordre Krabbedalen 12,3040000,79,1.0,2001.0,Leilighet,https://www.finn.no/realestate/homes/ad.html?finnkode=289975340,38481,60.3828495,5.226582,13/04/2023,1.0,Eier (Selveier),5178,Loddefjord
Øvre Bakklandet 4A,5100000,81,,1843.0,Leilighet,https://www.finn.no/realestate/homes/ad.html?finnkode=298519526,62962,63.4245979,10.4020504,13/04/2023,2.0,Eier (Selveier),7016,Trondheim
Skrukkelivegen 151,1600000,148,,1953.0,Enebolig,https://www.finn.no/realestate/homes/ad.html?finnkode=269691209,10810,60.4477248,10.8380135,13/04/2023,2.0,Eier (Selveier),2090,Hurdal
Sørkedalsveien 227,10250000,153,,1950.0,Tomannsbolig,https://www.finn.no/realestate/homes/ad.html?finnkode=262133495,66993,59.955154,10.643887,13/04/2023,1.0,Eier (Selveier),754,Oslo
Strimmelen 20,2990000,62,2.0,1956.0,Leilighet,https://www.finn.no/realestate/homes/ad.html?finnkode=297455622,48225,60.3570516,5.3701285,13/04/2023,5.0,Andel,5097,Bergen
Sollia 18,2050000,49,2.0,1974.0,Leilighet,https://www.finn.no/realestate/homes/ad.html?finnkode=298365121,41836,59.587453,11.1440304,13/04/2023,1.0,Eier (Selveier),1832,Askim
Consul Sigval Bergesens vei 212,15750000,204,5.0,2023.0,Leilighet,https://www.finn.no/realestate/homes/ad.html?finnkode=289202591,77205,58.950465,5.746311,13/04/2023,7.0,Eier (Selveier),4016,Stavanger
Ankerveien 9,2350000,39,1.0,1974.0,Leilighet,https://www.finn.no/realestate/homes/ad.html?finnkode=296882265,60256,67.2712717,14.4531914,13/04/2023,1.0,Andel,8013,Bodø
Trollsvingen 6,2890000,83,,1972.0,Leilighet,https://www.finn.no/realestate/homes/ad.html?finnkode=298356373,34819,59.2999103,11.1085328,13/04/2023,1.0,Andel,1709,Sarpsborg
Østlandbakken 12,3690000,195,5.0,1977.0,Enebolig,https://www.finn.no/realestate/homes/ad.html?finnkode=281467247,18923,58.8806408,9.3932299,13/04/2023,,Eier (Selveier),3770,Kragerø
Parkvegen 11C,3090000,72,3.0,1985.0,Leilighet,https://www.finn.no/realestate/homes/ad.html?finnkode=272155637,42916,61.2307106,7.1032431,13/04/2023,4.0,Eier (Selveier),6856,Sogndal
Styrmannsvegen 28,5600000,130,5.0,1967.0,Tomannsbolig,https://www.finn.no/realestate/homes/ad.html?finnkode=285347524,43076,69.6831911,18.9474438,13/04/2023,,Eier (Selveier),9014,Tromsø
Tømmerveien 29,5900000,121,5.0,1994.0,Enebolig,https://www.finn.no/realestate/homes/ad.html?finnkode=298517517,48760,59.7311469,10.7572696,13/04/2023,,Eier (Selveier),1407,Vinterbro
Sundjordgata 35,2950000,164,,1955.0,Tomannsbolig,https://www.finn.no/realestate/homes/ad.html?finnkode=298488311,17987,59.1290805,9.6401151,13/04/2023,,Eier (Selveier),3933,Porsgrunn
Øvre Bergsvingen 13,3450000,71,3.0,1947.0,Leilighet,https://www.finn.no/realestate/homes/ad.html?finnkode=298332060,48591,63.4177669,10.4256427,13/04/2023,1.0,Eier (Selveier),7052,Trondheim
Folldalsheia 52E,4500000,82,4.0,2017.0,Leilighet,https://www.finn.no/realestate/homes/ad.html?finnkode=280362478,54878,60.301779,5.314488,13/04/2023,3.0,Eier (Selveier),5239,Rådal
Peter Hognestads gate 9C,2135000,79,3.0,2022.0,Leilighet,https://www.finn.no/realestate/homes/ad.html?finnkode=298512884,27025,59.563835,9.255218,13/04/2023,3.0,Andel,3675,Notodden
Julianus Holms veg 62,3290000,49,,2015.0,Leilighet,https://www.finn.no/realestate/homes/ad.html?finnkode=298400006,67142,63.4417255,10.4610981,13/04/2023,1.0,Eier (Selveier),7041,Trondheim
Trygves gate 3B,2490000,84,,1989.0,Leilighet,https://www.finn.no/realestate/homes/ad.html?finnkode=291045813,29642,59.0527932,10.0321663,13/04/2023,,Eier (Selveier),3257,Larvik
Tinngata 1,3490000,62,3.0,2012.0,Leilighet,https://www.finn.no/realestate/homes/ad.html?finnkode=298049090,56290,58.9681075,5.7609865,13/04/2023,3.0,Eier (Selveier),4014,Stavanger
Volvat Terrasse 11,24900000,242,,1935.0,Enebolig,https://www.finn.no/realestate/homes/ad.html?finnkode=298514826,102892,59.931249,10.702384,13/04/2023,,Eier (Selveier),369,Oslo
Lunheimvegen 27,5750000,209,,1990.0,Enebolig,https://www.finn.no/realestate/homes/ad.html?finnkode=298513727,27511,63.3022717,10.4824411,13/04/2023,,Eier (Selveier),7540,Klæbu
Landåslien 17,2500000,51,2.0,1957.0,Leilighet,https://www.finn.no/realestate/homes/ad.html?finnkode=298377580,49019,60.3588021,5.3717075,13/04/2023,1.0,Andel,5097,Bergen
Valgrindvegen 13,3890000,60,,2011.0,Leilighet,https://www.finn.no/realestate/homes/ad.html?finnkode=298513363,64833,63.410468,10.399521,13/04/2023,3.0,Eier (Selveier),7031,Trondheim
Kirkegata 13C,1590000,95,,1999.0,Leilighet,https://www.finn.no/realestate/homes/ad.html?finnkode=298513026,16736,63.7446514,11.2943859,13/04/2023,,Andel,7600,Levanger
Ammerudveien 35B,3400000,78,4.0,1959.0,Leilighet,https://www.finn.no/realestate/homes/ad.html?finnkode=298333118,43589,59.960293,10.874138,13/04/2023,3.0,Andel,958,Oslo
Pinnsvinveien 8,4200000,167,,1970.0,Enebolig,https://www.finn.no/realestate/homes/ad.html?finnkode=290606266,25149,59.622407,11.025925,13/04/2023,,Eier (Selveier),1823,Knapstad
Hånestangen 50,7190000,151,4.0,2014.0,Leilighet,https://www.finn.no/realestate/homes/ad.html?finnkode=281421955,47615,58.1725492,8.077486,13/04/2023,1.0,Eier (Selveier),4635,Kristiansand S
Ortuflaten 14,2390000,54,,1968.0,Leilighet,https://www.finn.no/realestate/homes/ad.html?finnkode=298512984,44259,60.3431286,5.2923315,13/04/2023,3.0,Andel,5143,Fyllingsdalen
Kristian IVs gate 36A,2190000,53,,1966.0,Leilighet,https://www.finn.no/realestate/homes/ad.html?finnkode=298512679,41320,58.1483891,7.9925463,13/04/2023,5.0,Andel,4612,Kristiansand S
Parkveien 84,690000,162,4.0,1930.0,Tomannsbolig,https://www.finn.no/realestate/homes/ad.html?finnkode=280567883,4259,59.6527814,6.3666144,13/04/2023,4.0,Eier (Selveier),4200,Sauda
Orødgrenda 20C,1695000,70,3.0,2021.0,Leilighet,https://www.finn.no/realestate/homes/ad.html?finnkode=281283954,24214,59.117465,11.432308,13/04/2023,1.0,Andel,1793,Tistedal
Frøyas veg 2,2550000,114,4.0,1973.0,Leilighet,https://www.finn.no/realestate/homes/ad.html?finnkode=298503706,22368,60.1978364,11.9859855,13/04/2023,3.0,Andel,2214,Kongsvinger
Åsmarkvegen,1800000,257,,1938.0,Enebolig,https://www.finn.no/realestate/homes/ad.html?finnkode=258872608,7003,60.9888191,10.7927405,13/04/2023,2.0,Eier (Selveier),1032,Næroset
Rastavegen 18,3000000,179,,1950.0,Enebolig,https://www.finn.no/realestate/homes/ad.html?finnkode=275817003,16759,60.1796674,12.0150003,13/04/2023,,Eier (Selveier),2211,Kongsvinger
Wernersholmvegen 43,6990000,208,8.0,1929.0,Enebolig,https://www.finn.no/realestate/homes/ad.html?finnkode=297899828,33605,60.3313732,5.3426177,13/04/2023,3.0,Eier (Selveier),5232,Paradis
Kirkegata 5,3150000,108,4.0,1907.0,Leilighet,https://www.finn.no/realestate/homes/ad.html?finnkode=298510440,29166,62.4710009,6.1497289,13/04/2023,3.0,Eier (Selveier),6004,Ålesund
Håkon Magnussons gate 1B,3250000,57,3.0,2006.0,Leilighet,https://www.finn.no/realestate/homes/ad.html?finnkode=298509878,57017,63.4441828,10.4387745,13/04/2023,2.0,Eier (Selveier),7041,Trondheim
Vikåsvegen 34,2650000,93,4.0,1916.0,Leilighet,https://www.finn.no/realestate/homes/ad.html?finnkode=298509034,28494,63.4786407,10.8561981,13/04/2023,2.0,Eier (Selveier),7512,Stjørdal
Maurveien 10,5490000,199,,1989.0,Enebolig,https://www.finn.no/realestate/homes/ad.html?finnkode=292639561,27587,59.2682114,10.3556459,13/04/2023,,Eier (Selveier),3172,Vear
Torpeveien 70,4250000,118,5.0,2016.0,Tomannsbolig,https://www.finn.no/realestate/homes/ad.html?finnkode=298496655,36016,58.9990331,9.8670654,13/04/2023,,Eier (Selveier),3295,Helgeroa
Fjordgata 26,3100000,49,2.0,2007.0,Leilighet,https://www.finn.no/realestate/homes/ad.html?finnkode=298365626,63265,63.434892,10.401415,13/04/2023,2.0,Andel,7010,Trondheim
Parkveien 64,4200000,42,2.0,1935.0,Leilighet,https://www.finn.no/realestate/homes/ad.html?finnkode=293357318,100000,59.914373,10.721731,13/04/2023,,Eier (Selveier),254,Oslo
Klyveåsen 9,1750000,109,4.0,1970.0,Leilighet,https://www.finn.no/realestate/homes/ad.html?finnkode=298367959,16055,59.1532339,9.6112985,13/04/2023,1.0,Andel,3738,Skien
Baldersvei 3G,3500000,82,3.0,2007.0,Leilighet,https://www.finn.no/realestate/homes/ad.html?finnkode=290816008,42682,59.348256,10.8813629,13/04/2023,1.0,Eier (Selveier),1640,Råde
Mølleveien 20A,4200000,93,,1953.0,Leilighet,https://www.finn.no/realestate/homes/ad.html?finnkode=298506533,45161,59.227692,10.924142,13/04/2023,1.0,Eier (Selveier),1613,Fredrikstad
Kjempeholen 4,2250000,48,2.0,2013.0,Leilighet,https://www.finn.no/realestate/homes/ad.html?finnkode=298497895,46875,58.8155501,5.7624536,13/04/2023,2.0,Eier (Selveier),4324,Sandnes
Biskop Skaars gate 3D,6900000,143,,1967.0,Tomannsbolig,https://www.finn.no/realestate/homes/ad.html?finnkode=295215365,48251,63.4161783,10.417328,13/04/2023,,Eier (Selveier),7051,Trondheim
Tangen 42,2190000,40,2.0,2008.0,Leilighet,https://www.finn.no/realestate/homes/ad.html?finnkode=293314966,54750,58.146867,8.0093968,13/04/2023,4.0,Andel,4608,Kristiansand S
Kirkeveien 110 C,5600000,59,,1938.0,Leilighet,https://www.finn.no/realestate/homes/ad.html?finnkode=295401157,94915,59.934365,10.726633,13/04/2023,5.0,Eier (Selveier),361,Oslo
Kirkegata 35C,3590000,59,,1898.0,Leilighet,https://www.finn.no/realestate/homes/ad.html?finnkode=261004985,60847,63.4329257,10.4132619,13/04/2023,,Andel,7014,Trondheim
Bruhagen 4,2590000,115,4.0,1991.0,Leilighet,https://www.finn.no/realestate/homes/ad.html?finnkode=298540308,22521,58.8449858,5.7291188,13/04/2023,3.0,Eier (Selveier),4306,Sandnes
Skøyenåsveien 21,3800000,56,,1955.0,Leilighet,https://www.finn.no/realestate/homes/ad.html?finnkode=298498769,67857,59.896519,10.841296,13/04/2023,1.0,Andel,686,Oslo
KIRKEBYÅSEN,4450000,136,,2023.0,Enebolig,https://www.finn.no/realestate/homes/ad.html?finnkode=287306112,32720,59.6996481,11.2975334,13/04/2023,1.0,Eier (Selveier),1866,Båstad
Bøkeveien 7,11750000,235,,1924.0,Enebolig,https://www.finn.no/realestate/homes/ad.html?finnkode=298422586,50000,59.9382012,10.9501105,13/04/2023,3.0,Eier (Selveier),1470,Lørenskog
Regimentsvegen 156B,3500000,65,3.0,2017.0,Leilighet,https://www.finn.no/realestate/homes/ad.html?finnkode=298333134,53846,60.633375,6.435867,13/04/2023,,Eier (Selveier),5705,Voss
Sandefjordgata 4I,6800000,83,3.0,1941.0,Leilighet,https://www.finn.no/realestate/homes/ad.html?finnkode=297580746,81927,59.940443,10.752478,13/04/2023,4.0,Andel,464,Oslo
Jørgen Moes gate 4,3690000,61,,1920.0,Leilighet,https://www.finn.no/realestate/homes/ad.html?finnkode=298503307,60491,60.3789088,5.3376431,13/04/2023,,Eier (Selveier),5053,Bergen
Gudeberg allé 8 Gamle,2790000,74,3.0,1960.0,Leilighet,https://www.finn.no/realestate/homes/ad.html?finnkode=298502989,37702,59.204484,10.965547,13/04/2023,3.0,Andel,1632,Fredrikstad
Kaptein Storms vei 4,5200000,117,5.0,2018.0,Rekkehus,https://www.finn.no/realestate/homes/ad.html?finnkode=292579326,44444,59.48342,10.69538,13/04/2023,2.0,Eier (Selveier),1539,Moss
Nedre St. Hansvei 9,1620000,174,4.0,1951.0,Enebolig,https://www.finn.no/realestate/homes/ad.html?finnkode=273992235,9310,70.9833376,25.9701711,13/04/2023,,Eier (Selveier),9750,Honningsvåg
Observatoriegata 14A,14500000,131,3.0,1881.0,Leilighet,https://www.finn.no/realestate/homes/ad.html?finnkode=289708266,110687,59.912284,10.723204,13/04/2023,3.0,Eier (Selveier),254,Oslo
Kvasnesvegen 180,3990000,249,7.0,1983.0,Enebolig,https://www.finn.no/realestate/homes/ad.html?finnkode=298501848,16024,62.4201712,6.3609194,13/04/2023,,Eier (Selveier),6037,Eidsnes
Markvegen 26,2700000,60,3.0,2021.0,Leilighet,https://www.finn.no/realestate/homes/ad.html?finnkode=298319845,45000,58.773934,5.730373,13/04/2023,1.0,Eier (Selveier),4355,Kvernaland
Lislebyveien 156,1750000,74,,1986.0,Leilighet,https://www.finn.no/realestate/homes/ad.html?finnkode=262812822,23648,59.228405,10.977376,13/04/2023,1.0,Eier (Selveier),1619,Fredrikstad
Sleiverudåsen 26 Bærums,5650000,106,3.0,1988.0,Leilighet,https://www.finn.no/realestate/homes/ad.html?finnkode=291827269,53301,59.946119,10.502049,13/04/2023,4.0,Eier (Selveier),1354,Verk
Jernbanegata 17,5200000,85,3.0,2013.0,Leilighet,https://www.finn.no/realestate/homes/ad.html?finnkode=289852176,61176,61.115316,10.467807,13/04/2023,1.0,Eier (Selveier),2609,Lillehammer
Lindemans gate 15,1890000,75,3.0,1958.0,Leilighet,https://www.finn.no/realestate/homes/ad.html?finnkode=298365110,25200,59.215512,9.58845,13/04/2023,3.0,Andel,3723,Skien
Skytterdalen 7,4500000,72,3.0,1997.0,Leilighet,https://www.finn.no/realestate/homes/ad.html?finnkode=296975445,62500,59.896208,10.524153,13/04/2023,5.0,Eier (Selveier),1337,Sandvika
Hogstveien 30C,5190000,131,4.0,1979.0,Leilighet,https://www.finn.no/realestate/homes/ad.html?finnkode=292597165,39618,59.9316643,11.0256627,13/04/2023,3.0,Andel,1479,Kurland
Øvre Varden 13,9000000,302,,1967.0,Enebolig,https://www.finn.no/realestate/homes/ad.html?finnkode=298499510,29801,58.8891705,5.6645182,13/04/2023,,Eier (Selveier),4050,Sola
Eliasmarken 2B,3115000,88,3.0,2008.0,Leilighet,https://www.finn.no/realestate/homes/ad.html?finnkode=298499225,35397,60.3834688,5.2721071,13/04/2023,3.0,Andel,5164,Laksevåg
Tommelstads gate 12C,3300000,85,3.0,2006.0,Leilighet,https://www.finn.no/realestate/homes/ad.html?finnkode=294981769,38823,60.1927782,11.9991143,13/04/2023,1.0,Andel,2212,Kongsvinger
Leitesvingen 2F,2890000,69,,2012.0,Leilighet,https://www.finn.no/realestate/homes/ad.html?finnkode=298498657,41884,58.8172698,5.7006152,13/04/2023,1.0,Eier (Selveier),4322,Sandnes
Oliverlægda 18,5600000,188,7.0,1981.0,Enebolig,https://www.finn.no/realestate/homes/ad.html?finnkode=298497595,29787,61.4592135,5.8766696,13/04/2023,,Eier (Selveier),6810,Førde
Vikesdalslia 70,4490000,198,,2012.0,Enebolig,https://www.finn.no/realestate/homes/ad.html?finnkode=298497308,22676,58.6426869,6.1028525,13/04/2023,,Eier (Selveier),4389,Vikeså
Lønneveien 8,4690000,102,3.0,2018.0,Leilighet,https://www.finn.no/realestate/homes/ad.html?finnkode=291427346,45980,58.878068,5.743629,13/04/2023,1.0,Eier (Selveier),4315,Sandnes
Sofies gate 33,5850000,66,3.0,1930.0,Leilighet,https://www.finn.no/realestate/homes/ad.html?finnkode=278359930,88636,59.925402,10.734827,13/04/2023,1.0,Andel,168,Oslo
Rostadveien 24 B,3500000,212,,1970.0,Enebolig,https://www.finn.no/realestate/homes/ad.html?finnkode=295072348,16509,59.2723009,11.0105642,13/04/2023,,Eier (Selveier),1665,Rolvsøy
Østerveien 69,2890000,67,,1954.0,Leilighet,https://www.finn.no/realestate/homes/ad.html?finnkode=298495955,43134,58.157739,8.011267,13/04/2023,1.0,Andel,4631,Kristiansand S
Tryms vei 10,3890000,74,,2013.0,Leilighet,https://www.finn.no/realestate/homes/ad.html?finnkode=298495920,52567,58.1584802,8.0147465,13/04/2023,1.0,Eier (Selveier),4631,Kristiansand S
Damsveien 37D,1350000,113,,1958.0,Leilighet,https://www.finn.no/realestate/homes/ad.html?finnkode=298495911,11946,70.0767635,29.7383818,13/04/2023,1.0,Andel,9800,Vadsø
Hjalmar Johansens gate 1,2590000,80,3.0,1955.0,Leilighet,https://www.finn.no/realestate/homes/ad.html?finnkode=298495736,32375,59.7430833,10.1490587,13/04/2023,2.0,Andel,3048,Drammen
Idrettsveien 23B,7500000,183,5.0,1962.0,Enebolig,https://www.finn.no/realestate/homes/ad.html?finnkode=298353188,40983,59.947246,10.918235,13/04/2023,,Eier (Selveier),1087,Oslo
Jens Bjelkes gate 62C,4000000,49,3.0,1936.0,Leilighet,https://www.finn.no/realestate/homes/ad.html?finnkode=298494531,81632,59.913673,10.772544,13/04/2023,1.0,Aksje,652,Oslo
Bjørnsrudskogen 4B,3690000,110,,2007.0,Leilighet,https://www.finn.no/realestate/homes/ad.html?finnkode=297729631,33545,60.2506334,11.1961088,13/04/2023,,Eier (Selveier),2072,Dal
Store Brevik vei 68,1950000,43,2.0,2004.0,Leilighet,https://www.finn.no/realestate/homes/ad.html?finnkode=298341779,45348,59.51582,10.692009,13/04/2023,1.0,Andel,1555,Son
Karl Staaffs vei 13,4200000,73,3.0,1954.0,Leilighet,https://www.finn.no/realestate/homes/ad.html?finnkode=298494515,57534,59.920583,10.815902,13/04/2023,3.0,Andel,665,Oslo
Ryggveien 11,7590000,237,5.0,2002.0,Enebolig,https://www.finn.no/realestate/homes/ad.html?finnkode=297493556,32025,58.9979775,5.6301786,13/04/2023,,Eier (Selveier),4070,Randaberg
Leknesvegen 125,3080000,183,,1948.0,Enebolig,https://www.finn.no/realestate/homes/ad.html?finnkode=289945751,16830,60.5887445,5.3613392,13/04/2023,,Eier (Selveier),5915,Hjelmås
C. Sundts gate 66,4700000,71,2.0,2019.0,Leilighet,https://www.finn.no/realestate/homes/ad.html?finnkode=275012473,66197,60.399375,5.308776,13/04/2023,1.0,Andel,5004,Bergen
Hustofta 19,6190000,102,4.0,2020.0,Leilighet,https://www.finn.no/realestate/homes/ad.html?finnkode=252525489,60686,58.081014,8.010017,13/04/2023,2.0,Eier (Selveier),4625,Flekkerøy
Møllergata 5,4500000,78,,2012.0,Leilighet,https://www.finn.no/realestate/homes/ad.html?finnkode=298491920,57692,59.749765,10.010269,13/04/2023,4.0,Eier (Selveier),3050,Mjøndalen
Ullevålsveien 7,5800000,58,2.0,1991.0,Leilighet,https://www.finn.no/realestate/homes/ad.html?finnkode=298491922,100000,59.919186,10.74342,13/04/2023,2.0,Eier (Selveier),165,Oslo
Hegnegata 10,3750000,227,,1937.0,Enebolig,https://www.finn.no/realestate/homes/ad.html?finnkode=293353951,16519,59.5628252,9.2717316,13/04/2023,,Eier (Selveier),3681,Notodden
Kirkegata 5E,4200000,54,,2019.0,Rekkehus,https://www.finn.no/realestate/homes/ad.html?finnkode=291047191,77777,58.144662,7.997522,13/04/2023,,Eier (Selveier),4610,Kristiansand S
Gjelsmoveien 25,3490000,201,5.0,1937.0,Enebolig,https://www.finn.no/realestate/homes/ad.html?finnkode=298491076,17363,58.2228131,7.9291468,13/04/2023,,Eier (Selveier),4619,Mosby
Johan Øydegards vei 81,1350000,26,1.0,1956.0,Leilighet,https://www.finn.no/realestate/homes/ad.html?finnkode=285561375,51923,58.1553741,8.0208645,13/04/2023,7.0,Andel,4632,Kristiansand S
Tordenskjolds gate 36,9590000,84,3.0,2021.0,Leilighet,https://www.finn.no/realestate/homes/ad.html?finnkode=273654109,114166,58.148212,7.9903,13/04/2023,6.0,Eier (Selveier),4612,Kristiansand S
Brattbakken 23,5900000,205,,1963.0,Enebolig,https://www.finn.no/realestate/homes/ad.html?finnkode=298345763,28780,59.4457672,10.6432812,13/04/2023,,Eier (Selveier),1513,Moss
Muslingveien 12B,3200000,126,4.0,1972.0,Rekkehus,https://www.finn.no/realestate/homes/ad.html?finnkode=296813825,25396,59.0005234,5.7215924,13/04/2023,,Andel,4083,Hundvåg
Kvernabekkvegen 107F,3680000,84,5.0,2003.0,Leilighet,https://www.finn.no/realestate/homes/ad.html?finnkode=291554058,43809,60.2658399,5.3573194,13/04/2023,1.0,Eier (Selveier),5243,Fana
Bygdøynesveien 9D,65000000,323,5.0,2023.0,Leilighet,https://www.finn.no/realestate/homes/ad.html?finnkode=298489410,201238,59.901894,10.687379,13/04/2023,,Eier (Selveier),286,Oslo
Skagegata 44,1190000,109,4.0,,Rekkehus,https://www.finn.no/realestate/homes/ad.html?finnkode=298488672,10917,59.416487,5.2549981,13/04/2023,,Aksje,5523,Haugesund
Åkvågveien 568 B,1990000,88,3.0,2018.0,Leilighet,https://www.finn.no/realestate/homes/ad.html?finnkode=298488853,22613,58.691611,9.160207,13/04/2023,1.0,Eier (Selveier),4957,Risør
Mikrobølgen 23,3350000,52,,2018.0,Leilighet,https://www.finn.no/realestate/homes/ad.html?finnkode=298476657,64423,59.867535,10.812392,13/04/2023,2.0,Andel,1151,Oslo
Rostockgata 76,7500000,55,3.0,2023.0,Leilighet,https://www.finn.no/realestate/homes/ad.html?finnkode=298342413,136363,59.905577,10.760654,13/04/2023,6.0,Eier (Selveier),194,Oslo
Bufjellvegen 4c,850000,58,,1974.0,Leilighet,https://www.finn.no/realestate/homes/ad.html?finnkode=298488162,14655,68.406765,15.973707,13/04/2023,,Andel,8410,Lødingen
Kanebogåsen 10C,2479000,97,4.0,1967.0,Leilighet,https://www.finn.no/realestate/homes/ad.html?finnkode=298486440,25556,68.777987,16.5582909,13/04/2023,4.0,Andel,9411,Harstad
Freyasdalsveien 62,4190000,103,,1939.0,Leilighet,https://www.finn.no/realestate/homes/ad.html?finnkode=290757585,40679,58.1523903,8.0193718,13/04/2023,1.0,Eier (Selveier),4631,Kristiansand S
Nikkelveien 22,3600000,95,,2013.0,Leilighet,https://www.finn.no/realestate/homes/ad.html?finnkode=298444466,37894,58.870043,5.7301346,13/04/2023,4.0,Eier (Selveier),4313,Sandnes
Rødknappsvingene 13,4990000,190,4.0,1995.0,Enebolig,https://www.finn.no/realestate/homes/ad.html?finnkode=298346997,26263,58.9785314,5.6889713,13/04/2023,3.0,Eier (Selveier),4025,Stavanger
Remviksletta 18,3490000,86,4.0,2006.0,Rekkehus,https://www.finn.no/realestate/homes/ad.html?finnkode=298414263,40581,62.4509103,6.3507418,13/04/2023,,Eier (Selveier),6010,Ålesund
Dønskitoppen 14C,3990000,87,4.0,1968.0,Leilighet,https://www.finn.no/realestate/homes/ad.html?finnkode=298341298,45862,59.9038902,10.5023223,13/04/2023,5.0,Eier (Selveier),1346,Gjettum
Remmavegen 30/28,990000,184,6.0,1985.0,Enebolig,https://www.finn.no/realestate/homes/ad.html?finnkode=267796987,5380,64.659547,11.2649511,13/04/2023,,Eier (Selveier),7856,Jøa
Suhms gate 5,6700000,77,3.0,1913.0,Leilighet,https://www.finn.no/realestate/homes/ad.html?finnkode=298409442,87012,59.930755,10.724512,13/04/2023,5.0,Eier (Selveier),362,Oslo
Deleveien 29B,3890000,107,4.0,2019.0,Leilighet,https://www.finn.no/realestate/homes/ad.html?finnkode=298363495,36355,59.299233,11.052522,13/04/2023,2.0,Eier (Selveier),1712,Grålum
Sørjordet 62,6690000,130,,2021.0,Rekkehus,https://www.finn.no/realestate/homes/ad.html?finnkode=273575146,51461,59.960115,11.005567,13/04/2023,,Eier (Selveier),1466,Strømmen
Svingen 6,3250000,120,,1888.0,Enebolig,https://www.finn.no/realestate/homes/ad.html?finnkode=290619662,27083,59.4327256,10.6827603,13/04/2023,,Eier (Selveier),1597,Moss
Børøysundveien 74,2290000,117,4.0,1977.0,Enebolig,https://www.finn.no/realestate/homes/ad.html?finnkode=297769336,19572,63.566677,9.181364,13/04/2023,,Eier (Selveier),7247,Hestvika
Dakota 2 B,3190000,46,2.0,2019.0,Leilighet,https://www.finn.no/realestate/homes/ad.html?finnkode=298360823,69347,63.441896,10.438102,13/04/2023,1.0,Eier (Selveier),7066,Trondheim
Fabriciusgata 8,3900000,114,4.0,2022.0,Leilighet,https://www.finn.no/realestate/homes/ad.html?finnkode=298482315,34210,59.149599,9.657045,13/04/2023,3.0,Andel,3912,Porsgrunn
Løkkegangen 2,12950000,145,5.0,1877.0,Leilighet,https://www.finn.no/realestate/homes/ad.html?finnkode=297586031,89310,59.911526,10.722726,13/04/2023,3.0,Eier (Selveier),257,Oslo
Raschs vei 53,12590000,120,,2023.0,Rekkehus,https://www.finn.no/realestate/homes/ad.html?finnkode=287522318,104916,59.8796957,10.8057071,13/04/2023,,Eier (Selveier),1185,Oslo
Steinveien 12,12200000,107,3.0,2020.0,Leilighet,https://www.finn.no/realestate/homes/ad.html?finnkode=271146449,114018,59.8340382,10.6384131,13/04/2023,4.0,Eier (Selveier),1453,Bjørnemyr
Vågbøvegen,550000,150,,1914.0,Enebolig,https://www.finn.no/realestate/homes/ad.html?finnkode=298478569,3666,62.8523156,8.2857782,13/04/2023,,Eier (Selveier),1049,Meisingset
Balders gate 4,4650000,36,2.0,1940.0,Leilighet,https://www.finn.no/realestate/homes/ad.html?finnkode=286736557,129166,59.917902,10.71009,13/04/2023,3.0,Aksje,263,Oslo
Ovenbakken 19A,4950000,68,3.0,1966.0,Leilighet,https://www.finn.no/realestate/homes/ad.html?finnkode=298346692,72794,59.9431346,10.6094854,13/04/2023,2.0,Andel,1361,Østerås
Hvetevegen 32,4400000,108,4.0,2019.0,Enebolig,https://www.finn.no/realestate/homes/ad.html?finnkode=298465041,40740,60.188483,11.259713,13/04/2023,,Eier (Selveier),2055,Nordkisa
Grillstadfjæra 66,5690000,77,,2014.0,Leilighet,https://www.finn.no/realestate/homes/ad.html?finnkode=297333349,73896,63.4356328,10.5080047,13/04/2023,1.0,Eier (Selveier),7053,Ranheim
Fjellboveien 9,16000000,393,,2021.0,Enebolig,https://www.finn.no/realestate/homes/ad.html?finnkode=298457263,40712,59.026802,10.076635,13/04/2023,,Eier (Selveier),3260,Larvik
Hamrevegen 37B,8200000,140,4.0,2021.0,Leilighet,https://www.finn.no/realestate/homes/ad.html?finnkode=298456987,58571,60.288979,5.384767,13/04/2023,,Eier (Selveier),5229,Kalandseidet
Ovenbakken 31B,3500000,43,2.0,1968.0,Leilighet,https://www.finn.no/realestate/homes/ad.html?finnkode=298350378,81395,59.9443101,10.6087531,13/04/2023,2.0,Andel,1361,Østerås
Harry Fetts vei 7 A,3800000,55,3.0,2000.0,Leilighet,https://www.finn.no/realestate/homes/ad.html?finnkode=298455502,69090,59.902445,10.82201,13/04/2023,3.0,Eier (Selveier),667,Oslo
Konows gate 26D,9700000,119,5.0,2005.0,Leilighet,https://www.finn.no/realestate/homes/ad.html?finnkode=294695192,81512,59.902438,10.775789,13/04/2023,1.0,Eier (Selveier),196,Oslo
Stovnerbakken 45,5150000,144,5.0,1969.0,Rekkehus,https://www.finn.no/realestate/homes/ad.html?finnkode=298454454,35763,59.95271,10.930882,13/04/2023,,Andel,981,Oslo
Landrovegen 319,3690000,202,,1927.0,Enebolig,https://www.finn.no/realestate/homes/ad.html?finnkode=298453941,18267,60.4241051,4.9669447,13/04/2023,,Eier (Selveier),5363,Ågotnes
Andeveien 30,3890000,160,,1988.0,Enebolig,https://www.finn.no/realestate/homes/ad.html?finnkode=298453301,24312,58.4607074,8.7458011,13/04/2023,,Eier (Selveier),4847,Arendal
Trostvegen 6 C,5890000,96,4.0,2019.0,Leilighet,https://www.finn.no/realestate/homes/ad.html?finnkode=298359705,61354,69.6481675,18.9427465,13/04/2023,2.0,Eier (Selveier),9009,Tromsø
Rusvikvegen 25,2490000,179,11.0,1956.0,Enebolig,https://www.finn.no/realestate/homes/ad.html?finnkode=280095968,13910,59.2777448,5.3195505,13/04/2023,3.0,Eier (Selveier),4250,Kopervik
Ibsens gate 63,3600000,69,4.0,1931.0,Leilighet,https://www.finn.no/realestate/homes/ad.html?finnkode=298447486,52173,60.3732751,5.3460389,13/04/2023,2.0,Eier (Selveier),5053,Bergen
Håkonshellatoppen 14,4490000,132,,1987.0,Tomannsbolig,https://www.finn.no/realestate/homes/ad.html?finnkode=298450306,34015,60.3457417,5.179018,13/04/2023,,Eier (Selveier),5174,Mathopen
Silurveien 44,4850000,69,3.0,1960.0,Leilighet,https://www.finn.no/realestate/homes/ad.html?finnkode=298450427,70289,59.93316,10.658108,13/04/2023,3.0,Eier (Selveier),380,Oslo
Vækerøveien 97 B,18900000,273,7.0,1939.0,Enebolig,https://www.finn.no/realestate/homes/ad.html?finnkode=294358611,69230,59.931829,10.639601,13/04/2023,,Eier (Selveier),383,Oslo
Nordbyveien 167,3990000,163,,1954.0,Enebolig,https://www.finn.no/realestate/homes/ad.html?finnkode=298445489,24478,59.2976198,11.1497168,13/04/2023,,Eier (Selveier),1734,Hafslundsøy
Lindebergåsen 23D,3450000,64,2.0,1978.0,Leilighet,https://www.finn.no/realestate/homes/ad.html?finnkode=276988914,53906,59.929577,10.872172,13/04/2023,2.0,Andel,1071,Oslo
Silurveien 13,4200000,55,2.0,1962.0,Leilighet,https://www.finn.no/realestate/homes/ad.html?finnkode=295579988,76363,59.928393,10.65652,13/04/2023,1.0,Eier (Selveier),380,Oslo
Vibes gate 22,4800000,41,2.0,1893.0,Leilighet,https://www.finn.no/realestate/homes/ad.html?finnkode=298359613,117073,59.9278,10.725916,13/04/2023,3.0,Eier (Selveier),356,Oslo
Kolbeinsvik 137,1990000,179,,1960.0,Enebolig,https://www.finn.no/realestate/homes/ad.html?finnkode=298441147,11117,60.038928,5.200581,13/04/2023,,Eier (Selveier),5394,Kolbeinsvik
Høyliveien 1,3190000,177,,1967.0,Enebolig,https://www.finn.no/realestate/homes/ad.html?finnkode=297357736,18022,59.918066,11.5186909,13/04/2023,,Eier (Selveier),1930,Aurskog
Brevikveien 4F Nordre,5550000,118,5.0,2023.0,Rekkehus,https://www.finn.no/realestate/homes/ad.html?finnkode=298398943,47033,59.74673,10.697811,13/04/2023,1.0,Eier (Selveier),1455,Frogn
Feltspatveien 39,3490000,54,2.0,1957.0,Leilighet,https://www.finn.no/realestate/homes/ad.html?finnkode=298433098,64629,59.868417,10.821148,13/04/2023,1.0,Andel,1155,Oslo
Myrhaugen 27,12000000,183,6.0,1979.0,Leilighet,https://www.finn.no/realestate/homes/ad.html?finnkode=298432214,65573,59.938727,10.643861,13/04/2023,2.0,Eier (Selveier),752,Oslo
Melgårdshagan 5,2790000,64,2.0,2001.0,Rekkehus,https://www.finn.no/realestate/homes/ad.html?finnkode=293435201,43593,59.8314779,11.1450817,13/04/2023,,Eier (Selveier),1911,Flateby
Kuhnlevegen 71,5700000,190,,1998.0,Enebolig,https://www.finn.no/realestate/homes/ad.html?finnkode=298430978,30000,60.179736,5.4577961,13/04/2023,,Eier (Selveier),5209,Os
Rugdeveien 16,2830000,66,,1959.0,Leilighet,https://www.finn.no/realestate/homes/ad.html?finnkode=298426953,42878,60.3622699,5.3719936,13/04/2023,2.0,Andel,5097,Bergen
Blakkens vei 111,3590000,70,3.0,1988.0,Leilighet,https://www.finn.no/realestate/homes/ad.html?finnkode=298256920,51285,59.842055,10.82831,13/04/2023,,Eier (Selveier),1281,Oslo
Hasleveien 1 A,4100000,38,,2020.0,Leilighet,https://www.finn.no/realestate/homes/ad.html?finnkode=298426159,107894,59.926988,10.777484,13/04/2023,3.0,Eier (Selveier),571,Oslo
Strømstadgata 10,3800000,47,2.0,1922.0,Leilighet,https://www.finn.no/realestate/homes/ad.html?finnkode=297383247,80851,59.930709,10.773891,13/04/2023,1.0,Andel,569,Oslo
Seljeveien 17,5000000,82,4.0,2008.0,Leilighet,https://www.finn.no/realestate/homes/ad.html?finnkode=298363231,60975,59.928097,10.788588,13/04/2023,1.0,Andel,575,Oslo
Enebakkveien 217A,5500000,71,3.0,2005.0,Leilighet,https://www.finn.no/realestate/homes/ad.html?finnkode=298368433,77464,59.887338,10.814732,13/04/2023,1.0,Eier (Selveier),680,Oslo
Eikeveien 3B,2990000,58,,1988.0,Leilighet,https://www.finn.no/realestate/homes/ad.html?finnkode=298422719,51551,60.3614878,5.3493249,13/04/2023,2.0,Eier (Selveier),5063,Bergen
Helmer Hanssens gate 4B,1490000,42,1.0,1958.0,Leilighet,https://www.finn.no/realestate/homes/ad.html?finnkode=298416053,35476,58.9490011,5.7213731,13/04/2023,2.0,Andel,4019,Stavanger
Ammerudhellinga 35,2850000,42,1.0,1966.0,Leilighet,https://www.finn.no/realestate/homes/ad.html?finnkode=298388808,67857,59.96134,10.874032,13/04/2023,10.0,Andel,959,Oslo
Brinken 7,3780000,52,2.0,1882.0,Leilighet,https://www.finn.no/realestate/homes/ad.html?finnkode=297639715,72692,59.909516,10.7791,13/04/2023,,Eier (Selveier),654,Oslo
Høyveien 69C,1790000,61,,2010.0,Leilighet,https://www.finn.no/realestate/homes/ad.html?finnkode=298420223,29344,58.4652329,8.7578109,13/04/2023,2.0,Eier (Selveier),4838,Arendal
Kristiansands gate 5,3400000,25,1.0,1960.0,Leilighet,https://www.finn.no/realestate/homes/ad.html?finnkode=298416847,136000,59.938208,10.753234,13/04/2023,2.0,Andel,463,Oslo
Rådmann Paulsens gate 36,4790000,59,3.0,2023.0,Leilighet,https://www.finn.no/realestate/homes/ad.html?finnkode=293503390,81186,59.921349,10.950639,13/04/2023,3.0,Eier (Selveier),1473,Lørenskog
Jonas Lies vei 25,3750000,66,3.0,1994.0,Leilighet,https://www.finn.no/realestate/homes/ad.html?finnkode=298098808,56818,60.3759675,5.3467231,13/04/2023,1.0,Eier (Selveier),5053,Bergen
Bygdøy allé 125A,7400000,93,,1955.0,Leilighet,https://www.finn.no/realestate/homes/ad.html?finnkode=298415094,79569,59.919008,10.687539,13/04/2023,,Eier (Selveier),273,Oslo
Amalie Skrams vei 52,3490000,91,3.0,1962.0,Leilighet,https://www.finn.no/realestate/homes/ad.html?finnkode=296910578,38351,60.4122469,5.323351,13/04/2023,4.0,Andel,5036,Bergen
Nyveilia 138,3500000,112,4.0,1981.0,Rekkehus,https://www.finn.no/realestate/homes/ad.html?finnkode=298369281,31250,63.3730872,10.3633575,13/04/2023,2.0,Eier (Selveier),7072,Heimdal
