address,price,area,rooms,year,type,url,price_per_m2,lat,lon,date,floor,ownership,postal_code,city
Brinken 18,10900000,293,,1964.0,Enebolig,https://www.finn.no/realestate/homes/ad.html?finnkode=299789892,37201,58.1662343,7.9946991,22/04/2023,,Eier (Selveier),4630,Kristiansand S
Bjørnestien 20D,2620000,64,3.0,1992.0,Leilighet,https://www.finn.no/realestate/homes/ad.html?finnkode=299965130,40937,59.4187486,10.4525219,22/04/2023,1.0,Andel,3188,Horten
Odins gate 18,9700000,209,,1925.0,Enebolig,https://www.finn.no/realestate/homes/ad.html?finnkode=299798622,46411,58.9572785,5.732765,22/04/2023,,Eier (Selveier),4011,Stavanger
Roald Amundsens vei 24,4000000,120,,1949.0,Rekkehus,https://www.finn.no/realestate/homes/ad.html?finnkode=299907549,33333,58.9451945,5.7401242,22/04/2023,3.0,Eier (Selveier),4016,Stavanger
Elisestien 51,3190000,79,2.0,1986.0,Leilighet,https://www.finn.no/realestate/homes/ad.html?finnkode=299958974,40379,69.6075908,18.9367675,22/04/2023,2.0,Andel,9020,Tromsdalen
Fredensborgveien 25 A,5250000,54,2.0,1896.0,Leilighet,https://www.finn.no/realestate/homes/ad.html?finnkode=299537228,97222,59.919072,10.748932,22/04/2023,2.0,Andel,177,Oslo
Hamang terrasse 55,4900000,64,3.0,1986.0,Leilighet,https://www.finn.no/realestate/homes/ad.html?finnkode=299943659,76562,59.896127,10.502343,22/04/2023,1.0,Eier (Selveier),1336,Sandvika
Selma Ellefsens vei 3J,5050000,129,4.0,2021.0,Leilighet,https://www.finn.no/realestate/homes/ad.html?finnkode=299958298,39147,59.92535,10.811555,22/04/2023,6.0,Andel,581,Oslo
Storgata 71,3750000,92,4.0,1946.0,Leilighet,https://www.finn.no/realestate/homes/ad.html?finnkode=299916518,40760,67.286236,14.400771,22/04/2023,1.0,Eier (Selveier),8006,Bodø
Geitmyrsveien 31 C,5000000,50,,1970.0,Leilighet,https://www.finn.no/realestate/homes/ad.html?finnkode=299957428,100000,59.928575,10.744816,22/04/2023,1.0,Eier (Selveier),171,Oslo
Vikebakkvegen 2,8990000,247,,2020.0,Enebolig,https://www.finn.no/realestate/homes/ad.html?finnkode=295247576,36396,62.346267,5.8517,22/04/2023,2.0,Eier (Selveier),6065,Ulsteinvik
Solbergfossveien 48,1200000,107,4.0,1965.0,Enebolig,https://www.finn.no/realestate/homes/ad.html?finnkode=299535292,11214,59.6041575,11.1812679,22/04/2023,1.0,Eier (Selveier),1814,Askim
Sørumsgata 9,3990000,45,,2023.0,Leilighet,https://www.finn.no/realestate/homes/ad.html?finnkode=299956007,88666,59.955193,11.051903,22/04/2023,4.0,Eier (Selveier),2000,Lillestrøm
Lundåsen 63,6290000,149,,2016.0,Enebolig,https://www.finn.no/realestate/homes/ad.html?finnkode=299955334,42214,63.3538773,10.3212238,22/04/2023,,Eier (Selveier),7089,Heimdal
Nedreskodjevegen 49,2900000,89,3.0,2014.0,Leilighet,https://www.finn.no/realestate/homes/ad.html?finnkode=299949258,32584,62.50376,6.694533,22/04/2023,1.0,Eier (Selveier),6260,Skodje
Trostveien 3B,2050000,112,,1981.0,Rekkehus,https://www.finn.no/realestate/homes/ad.html?finnkode=299951771,18303,67.2662481,15.3788068,22/04/2023,3.0,Andel,8207,Fauske
Fjordgata 36A,3750000,57,,1894.0,Leilighet,https://www.finn.no/realestate/homes/ad.html?finnkode=299953789,65789,63.434808,10.3996,22/04/2023,2.0,Eier (Selveier),7010,Trondheim
Skytten 12,3990000,85,,1971.0,Leilighet,https://www.finn.no/realestate/homes/ad.html?finnkode=299953654,46941,59.928169,10.483863,22/04/2023,1.0,Eier (Selveier),1348,Rykkinn
Wilhelms gate 2B,2950000,22,1.0,1933.0,Leilighet,https://www.finn.no/realestate/homes/ad.html?finnkode=299679095,134090,59.927206,10.732863,22/04/2023,5.0,Aksje,168,Oslo
Hesteskoen 2,3590000,42,1.0,1961.0,Leilighet,https://www.finn.no/realestate/homes/ad.html?finnkode=299670463,85476,59.961464,10.775537,22/04/2023,2.0,Eier (Selveier),493,Oslo
Sverre Granlunds vei 6,5250000,144,5.0,1943.0,Enebolig,https://www.finn.no/realestate/homes/ad.html?finnkode=299950770,36458,67.2780971,14.3742235,22/04/2023,,Eier (Selveier),8003,Bodø
Skonhovdvegen 245,2300000,139,5.0,1965.0,Enebolig,https://www.finn.no/realestate/homes/ad.html?finnkode=299914292,16546,60.7808552,10.5716613,22/04/2023,2.0,Eier (Selveier),2827,Hunndalen
Lensbygdavegen 32,1800000,216,,1959.0,Enebolig,https://www.finn.no/realestate/homes/ad.html?finnkode=299677624,8333,60.6622028,10.8131731,22/04/2023,,Eier (Selveier),2850,Lena
Bassengvegen 19B,5500000,239,5.0,1984.0,Enebolig,https://www.finn.no/realestate/homes/ad.html?finnkode=299763607,23012,60.7976064,10.6789726,22/04/2023,3.0,Eier (Selveier),2821,Gjøvik
Johannes Bruns gate 12C,4200000,39,2.0,2002.0,Leilighet,https://www.finn.no/realestate/homes/ad.html?finnkode=299702720,107692,59.928936,10.733794,22/04/2023,1.0,Eier (Selveier),452,Oslo
Prinsens gate 1B,4550000,108,,1987.0,Leilighet,https://www.finn.no/realestate/homes/ad.html?finnkode=279708170,42129,59.1305668,10.2200567,22/04/2023,3.0,Eier (Selveier),3211,Sandefjord
Trøffelveien 24,2550000,74,,2009.0,Leilighet,https://www.finn.no/realestate/homes/ad.html?finnkode=299944636,34459,58.441427,8.7132227,22/04/2023,,Eier (Selveier),4824,Bjorbekk
Bølgeveien 14B Sande i,4590000,84,,2014.0,Leilighet,https://www.finn.no/realestate/homes/ad.html?finnkode=299909429,54642,59.560689,10.270121,22/04/2023,3.0,Eier (Selveier),3077,Vestfold
,3595000,110,,2023.0,Leilighet,https://www.finn.no/realestate/homes/ad.html?finnkode=296710469,32681,58.9699675,5.7318101,22/04/2023,7.0,Eier (Selveier),4016,Stavanger
Søråshøgda 350,2290000,82,2.0,1982.0,Leilighet,https://www.finn.no/realestate/homes/ad.html?finnkode=299943441,27926,60.3016998,5.3220083,22/04/2023,1.0,Andel,5235,Rådal
Hommeren 22,5750000,239,,2001.0,Enebolig,https://www.finn.no/realestate/homes/ad.html?finnkode=299940804,24058,58.2073401,7.929335,22/04/2023,,Eier (Selveier),4618,Kristiansand S
Moksheimsjøen 5,1280000,108,4.0,2008.0,Leilighet,https://www.finn.no/realestate/homes/ad.html?finnkode=299592108,11851,59.3675261,5.301935,22/04/2023,2.0,Andel,5542,Karmsund
Mandalls gate 16,3690000,29,2.0,2007.0,Leilighet,https://www.finn.no/realestate/homes/ad.html?finnkode=299289861,127241,59.910723,10.762783,22/04/2023,7.0,Eier (Selveier),190,Oslo
Pilestredet 55E,13500000,150,4.0,1893.0,Leilighet,https://www.finn.no/realestate/homes/ad.html?finnkode=295566672,90000,59.922875,10.731827,22/04/2023,4.0,Eier (Selveier),350,Oslo
Øvre Ullern terrasse 72,16000000,247,6.0,1963.0,Leilighet,https://www.finn.no/realestate/homes/ad.html?finnkode=299939572,64777,59.934651,10.656026,22/04/2023,3.0,Eier (Selveier),380,Oslo
Malerhaugveien 34A,5500000,64,3.0,2013.0,Leilighet,https://www.finn.no/realestate/homes/ad.html?finnkode=299939418,85937,59.917135,10.794779,22/04/2023,2.0,Eier (Selveier),661,Oslo
Marie Føreids vei 6B,3650000,127,,1954.0,Rekkehus,https://www.finn.no/realestate/homes/ad.html?finnkode=299855448,28740,58.9542187,5.7283056,22/04/2023,,Eier (Selveier),4011,Stavanger
Damstredet 12C,14000000,148,5.0,1847.0,Enebolig,https://www.finn.no/realestate/homes/ad.html?finnkode=299650601,94594,59.919861,10.74765,22/04/2023,,Eier (Selveier),177,Oslo
Anders Skjolds vei 28,3450000,68,,2018.0,Leilighet,https://www.finn.no/realestate/homes/ad.html?finnkode=299936711,50735,59.278271,10.45578,22/04/2023,1.0,Eier (Selveier),3150,Tolvsrød
Professor Hansteens gate 27,2950000,93,3.0,1975.0,Leilighet,https://www.finn.no/realestate/homes/ad.html?finnkode=299936017,31720,58.9480853,5.7047976,22/04/2023,4.0,Andel,4021,Stavanger
Havnehagen 60,3300000,39,,2022.0,Leilighet,https://www.finn.no/realestate/homes/ad.html?finnkode=299935554,84615,59.95792,11.00065,22/04/2023,3.0,Eier (Selveier),1465,Strømmen
Gulaksveien 2,2517500,79,3.0,1972.0,Leilighet,https://www.finn.no/realestate/homes/ad.html?finnkode=294105612,31867,58.938205,5.7429106,22/04/2023,1.0,Andel,4017,Stavanger
Liveien 14,2650000,147,4.0,1984.0,Rekkehus,https://www.finn.no/realestate/homes/ad.html?finnkode=299908676,18027,68.7754411,16.5668524,22/04/2023,2.0,Andel,9411,Harstad
Tagtvedtveien 30C,2550000,112,4.0,1984.0,Rekkehus,https://www.finn.no/realestate/homes/ad.html?finnkode=299916698,22767,59.0575973,10.0590389,22/04/2023,2.0,Andel,3259,Larvik
Hunsrødskogen 28C,2175000,131,4.0,2011.0,Rekkehus,https://www.finn.no/realestate/homes/ad.html?finnkode=277863156,16603,59.169857,10.216122,22/04/2023,,Andel,3241,Sandefjord
Sjølystveien 48,3490000,46,2.0,2019.0,Leilighet,https://www.finn.no/realestate/homes/ad.html?finnkode=299931491,75869,58.137732,7.997589,22/04/2023,2.0,Eier (Selveier),4610,Kristiansand S
Elvebredden 13,3000000,43,2.0,2018.0,Leilighet,https://www.finn.no/realestate/homes/ad.html?finnkode=299931422,69767,59.440892,10.671808,22/04/2023,1.0,Eier (Selveier),1534,Moss
Lassofjellveien 25,3600000,125,6.0,1996.0,Enebolig,https://www.finn.no/realestate/homes/ad.html?finnkode=299931094,28800,69.891187,20.182461,22/04/2023,,Eier (Selveier),9068,Nord-Lenangen
Drømtorpveien 29,8150000,184,4.0,1980.0,Enebolig,https://www.finn.no/realestate/homes/ad.html?finnkode=299714139,44293,59.721724,10.859049,22/04/2023,1.0,Eier (Selveier),1400,Ski
Snølia 5,4940000,67,3.0,2021.0,Leilighet,https://www.finn.no/realestate/homes/ad.html?finnkode=295327474,73731,59.946703,10.952525,22/04/2023,5.0,Eier (Selveier),1470,Lørenskog
Eftasåsen 53,6990000,131,4.0,1964.0,Rekkehus,https://www.finn.no/realestate/homes/ad.html?finnkode=299930806,53358,59.893525,10.85493,22/04/2023,1.0,Andel,687,Oslo
Lindbäckveien 13 F,11500000,105,5.0,2021.0,Rekkehus,https://www.finn.no/realestate/homes/ad.html?finnkode=296905985,109523,59.868361,10.802343,22/04/2023,,Eier (Selveier),1163,Oslo
Heimdals gate 7,2500000,67,2.0,1972.0,Leilighet,https://www.finn.no/realestate/homes/ad.html?finnkode=299768925,37313,60.792104,10.684514,22/04/2023,4.0,Andel,2821,Gjøvik
Kalfarveien 80,2890000,42,,1860.0,Leilighet,https://www.finn.no/realestate/homes/ad.html?finnkode=299929732,68809,60.3860414,5.3492616,22/04/2023,3.0,Andel,5022,Bergen
Ladebekken 6,3750000,44,3.0,2021.0,Leilighet,https://www.finn.no/realestate/homes/ad.html?finnkode=299870976,85227,63.443395,10.428396,22/04/2023,1.0,Eier (Selveier),7041,Trondheim
Stovnerbakken 49,5190000,133,4.0,1969.0,Rekkehus,https://www.finn.no/realestate/homes/ad.html?finnkode=294927859,39022,59.952682,10.931109,22/04/2023,3.0,Andel,981,Oslo
Henckels gate 2,2200000,67,,1958.0,Leilighet,https://www.finn.no/realestate/homes/ad.html?finnkode=293498002,32835,59.6698387,9.6641701,22/04/2023,2.0,Andel,3613,Kongsberg
Nyheimsvegen 19C,2750000,80,,1962.0,Leilighet,https://www.finn.no/realestate/homes/ad.html?finnkode=299928497,34375,63.422619,10.492101,22/04/2023,1.0,Andel,7058,Jakobsli
Sæls vei 35B,4000000,130,5.0,1982.0,Tomannsbolig,https://www.finn.no/realestate/homes/ad.html?finnkode=299784710,30769,60.3497729,5.2297919,22/04/2023,2.0,Eier (Selveier),5173,Loddefjord
Evald Theies vei 3 B,8990000,167,6.0,2023.0,Enebolig,https://www.finn.no/realestate/homes/ad.html?finnkode=277897452,53832,59.75175,10.149233,22/04/2023,,Eier (Selveier),3024,Drammen
Hillerenveien 164,3200000,110,4.0,1920.0,Enebolig,https://www.finn.no/realestate/homes/ad.html?finnkode=299922682,29090,60.3346019,5.2019066,22/04/2023,2.0,Eier (Selveier),5174,Mathopen
Josefinegata 6D,2100000,69,,1988.0,Leilighet,https://www.finn.no/realestate/homes/ad.html?finnkode=294228920,30434,59.0524663,10.0303782,22/04/2023,2.0,Andel,3256,Larvik
Rugdeveien 44,2990000,58,,1958.0,Leilighet,https://www.finn.no/realestate/homes/ad.html?finnkode=299928071,51551,60.3607855,5.3689827,22/04/2023,3.0,Andel,5097,Bergen
Platous gate 27B,5500000,85,4.0,1892.0,Leilighet,https://www.finn.no/realestate/homes/ad.html?finnkode=299927902,64705,59.910967,10.764709,22/04/2023,1.0,Andel,190,Oslo
Resmålveien 12,2400000,105,3.0,1988.0,Leilighet,https://www.finn.no/realestate/homes/ad.html?finnkode=287287901,22857,68.7777277,16.5669638,22/04/2023,,Andel,9411,Harstad
Gudrun Kolderups veg 1 Ytre,1500000,36,1.0,1946.0,Leilighet,https://www.finn.no/realestate/homes/ad.html?finnkode=299837697,41666,60.4595792,5.4364385,22/04/2023,3.0,Eier (Selveier),5265,Arna
Odins vei 6,4890000,163,,1948.0,Enebolig,https://www.finn.no/realestate/homes/ad.html?finnkode=299925917,30000,59.1454697,10.2211646,22/04/2023,,Eier (Selveier),3216,Sandefjord
Manglerudveien 14,4100000,63,3.0,1947.0,Leilighet,https://www.finn.no/realestate/homes/ad.html?finnkode=299924541,65079,59.900727,10.806575,22/04/2023,1.0,Andel,678,Oslo
Sildreveien 3F,3990000,104,,1976.0,Rekkehus,https://www.finn.no/realestate/homes/ad.html?finnkode=299325750,38365,59.3021565,10.419361,22/04/2023,,Eier (Selveier),3123,Tønsberg
Eilert Sundts gate 18b,6400000,60,,1892.0,Leilighet,https://www.finn.no/realestate/homes/ad.html?finnkode=299924529,106666,59.921374,10.716565,22/04/2023,2.0,Eier (Selveier),259,Oslo
Havreveien 11,3600000,58,3.0,1960.0,Leilighet,https://www.finn.no/realestate/homes/ad.html?finnkode=299924524,62068,59.892482,10.811079,22/04/2023,3.0,Andel,680,Oslo
Langvikveien 3,6750000,183,,1947.0,Enebolig,https://www.finn.no/realestate/homes/ad.html?finnkode=299605659,36885,59.1160004,10.3871477,22/04/2023,2.0,Eier (Selveier),3145,Tjøme
Bekkestien 4B,7990000,164,6.0,2019.0,Enebolig,https://www.finn.no/realestate/homes/ad.html?finnkode=299650432,48719,60.149771,11.167367,22/04/2023,3.0,Eier (Selveier),2068,Jessheim
Skorkeberg alle 7E,4250000,65,3.0,1991.0,Leilighet,https://www.finn.no/realestate/homes/ad.html?finnkode=299919251,65384,59.660686,10.645485,22/04/2023,1.0,Eier (Selveier),1447,Drøbak
Storhaugen 5A,4300000,73,4.0,1923.0,Leilighet,https://www.finn.no/realestate/homes/ad.html?finnkode=299788482,58904,60.3812431,5.3611109,22/04/2023,3.0,Eier (Selveier),5009,Bergen
Skoginspektør Nilsens vei 16 Mo i,2500000,49,8.0,1954.0,Leilighet,https://www.finn.no/realestate/homes/ad.html?finnkode=299923624,51020,66.3138376,14.1448011,22/04/2023,1.0,Andel,8622,Rana
Christian Krohgs gate 30,9700000,98,5.0,1903.0,Leilighet,https://www.finn.no/realestate/homes/ad.html?finnkode=299549318,98979,59.915724,10.759578,22/04/2023,6.0,Andel,186,Oslo
Haraholveien 10,4850000,151,,1994.0,Enebolig,https://www.finn.no/realestate/homes/ad.html?finnkode=299676758,32119,59.273485,11.0663038,22/04/2023,,Eier (Selveier),1715,Yven
Neuberggata 22,10300000,129,4.0,1910.0,Leilighet,https://www.finn.no/realestate/homes/ad.html?finnkode=299651562,79844,59.927704,10.716749,22/04/2023,1.0,Eier (Selveier),367,Oslo
Hordagaten 1,3990000,73,4.0,1923.0,Leilighet,https://www.finn.no/realestate/homes/ad.html?finnkode=299855534,54657,60.3743189,5.333838,22/04/2023,2.0,Eier (Selveier),5055,Bergen
Randi Kjærems veg 3A,6970000,262,,1953.0,Tomannsbolig,https://www.finn.no/realestate/homes/ad.html?finnkode=299661700,26603,63.4297475,10.5393806,22/04/2023,,Eier (Selveier),7055,Ranheim
Skeisstøa 49 B,2890000,79,,2007.0,Tomannsbolig,https://www.finn.no/realestate/homes/ad.html?finnkode=299922017,36582,60.1690775,5.4114331,22/04/2023,,Eier (Selveier),5217,Hagavik
Badstustredet 6B,6990000,140,,1890.0,Enebolig,https://www.finn.no/realestate/homes/ad.html?finnkode=299920394,49928,60.3915005,5.3304334,22/04/2023,,Eier (Selveier),5016,Bergen
Kirkeveien 70,8600000,80,3.0,1911.0,Leilighet,https://www.finn.no/realestate/homes/ad.html?finnkode=293331215,107500,59.929883,10.717721,22/04/2023,5.0,Eier (Selveier),364,Oslo
Sørbygdveien 174,1100000,121,,1975.0,Enebolig,https://www.finn.no/realestate/homes/ad.html?finnkode=299906847,9090,65.610793,11.879141,22/04/2023,,Eier (Selveier),8986,Vega
Øverliveien 89 A,7950000,152,5.0,2013.0,Enebolig,https://www.finn.no/realestate/homes/ad.html?finnkode=256269511,52302,59.833756,10.852722,22/04/2023,,Eier (Selveier),1290,Oslo
Schouterrassen 30,3090000,31,1.0,1937.0,Leilighet,https://www.finn.no/realestate/homes/ad.html?finnkode=299818095,99677,59.931723,10.782777,22/04/2023,2.0,Andel,573,Oslo
Gamle Ringeriksvei 21C,4750000,52,,1936.0,Leilighet,https://www.finn.no/realestate/homes/ad.html?finnkode=299774722,91346,59.9165461,10.5951333,22/04/2023,4.0,Eier (Selveier),1356,Bekkestua
Bureiservegen 14,2600000,233,4.0,1964.0,Enebolig,https://www.finn.no/realestate/homes/ad.html?finnkode=299813958,11158,60.71596,10.6226731,22/04/2023,2.0,Eier (Selveier),2835,Raufoss
Schultz' gate 12A,14000000,122,5.0,1899.0,Leilighet,https://www.finn.no/realestate/homes/ad.html?finnkode=288973861,114754,59.928371,10.72208,22/04/2023,2.0,Eier (Selveier),365,Oslo
Kolstadflata 49B,2690000,106,4.0,1971.0,Leilighet,https://www.finn.no/realestate/homes/ad.html?finnkode=299813286,25377,63.369747,10.360021,22/04/2023,3.0,Andel,7098,Saupstad
Sommerveien 6,5300000,182,6.0,1966.0,Enebolig,https://www.finn.no/realestate/homes/ad.html?finnkode=299840144,29120,60.1787082,10.2632337,22/04/2023,,Eier (Selveier),3515,Hønefoss
Langsetveien 46,13500000,121,5.0,2018.0,Rekkehus,https://www.finn.no/realestate/homes/ad.html?finnkode=299913543,111570,59.967774,10.794247,22/04/2023,,Eier (Selveier),495,Oslo
Ullevålsveien 7,5670000,58,2.0,1991.0,Leilighet,https://www.finn.no/realestate/homes/ad.html?finnkode=299860793,97758,59.919186,10.74342,22/04/2023,3.0,Eier (Selveier),165,Oslo
Bjørnsons gate 5,2100000,47,,2013.0,Leilighet,https://www.finn.no/realestate/homes/ad.html?finnkode=299912944,44680,60.373499,5.34238,22/04/2023,3.0,Andel,5059,Bergen
Sigrid Undsets vei 3D,6890000,143,,1965.0,Rekkehus,https://www.finn.no/realestate/homes/ad.html?finnkode=299057505,48181,59.797276,10.812419,22/04/2023,,Eier (Selveier),1412,Sofiemyr
Sannergata 24,3700000,26,2.0,1961.0,Leilighet,https://www.finn.no/realestate/homes/ad.html?finnkode=299911962,142307,59.92875,10.764079,22/04/2023,6.0,Eier (Selveier),557,Oslo
Steenstrups gate 19,4450000,50,2.0,1985.0,Leilighet,https://www.finn.no/realestate/homes/ad.html?finnkode=299912003,89000,59.926458,10.756138,22/04/2023,,Eier (Selveier),554,Oslo
Øvre Kalfarlien 40,6990000,91,3.0,1911.0,Leilighet,https://www.finn.no/realestate/homes/ad.html?finnkode=299910927,76813,60.3882874,5.3475947,22/04/2023,1.0,Eier (Selveier),5022,Bergen
Blålyngstien 6,2700000,191,,1983.0,Enebolig,https://www.finn.no/realestate/homes/ad.html?finnkode=299910634,14136,60.225403,10.36483,22/04/2023,,Eier (Selveier),3520,Jevnaker
Hjortefaret 69,3150000,81,3.0,2017.0,Leilighet,https://www.finn.no/realestate/homes/ad.html?finnkode=299679369,38888,59.3612033,10.3705004,22/04/2023,1.0,Eier (Selveier),3176,Undrumsdal
Maria Dehlis vei 19 B,4000000,93,4.0,1976.0,Leilighet,https://www.finn.no/realestate/homes/ad.html?finnkode=299907725,43010,59.950542,10.900304,22/04/2023,4.0,Andel,1084,Oslo
Marmorstien 8,5900000,214,,1973.0,Enebolig,https://www.finn.no/realestate/homes/ad.html?finnkode=299906811,27570,58.9879265,5.6960859,22/04/2023,2.0,Eier (Selveier),4027,Stavanger
Østmarkveien 6 H,2290000,40,2.0,2005.0,Leilighet,https://www.finn.no/realestate/homes/ad.html?finnkode=299537039,57250,63.4487551,10.4468043,22/04/2023,1.0,Andel,7040,Trondheim
Greverudåsen 62,6900000,167,4.0,1989.0,Tomannsbolig,https://www.finn.no/realestate/homes/ad.html?finnkode=299872339,41317,59.7736555,10.7998814,22/04/2023,3.0,Eier (Selveier),1415,Oppegård
Isbjørnveien 9,7600000,251,8.0,1988.0,Enebolig,https://www.finn.no/realestate/homes/ad.html?finnkode=299655025,30278,67.2948015,14.5923026,22/04/2023,,Eier (Selveier),8029,Bodø
Olderveien 20,4985000,271,,1983.0,Enebolig,https://www.finn.no/realestate/homes/ad.html?finnkode=296119241,18394,68.780768,16.561963,22/04/2023,,Eier (Selveier),9408,Harstad
Stordgata 8C,1590000,86,3.0,1960.0,Leilighet,https://www.finn.no/realestate/homes/ad.html?finnkode=299903648,18488,59.4250202,5.2748537,22/04/2023,1.0,Andel,5522,Haugesund
Breimyra 54,2300000,83,,1981.0,Leilighet,https://www.finn.no/realestate/homes/ad.html?finnkode=299902330,27710,60.4602236,5.3694641,22/04/2023,4.0,Andel,5134,Flaktveit
Kilsundveien 157 B,3975000,67,3.0,2022.0,Leilighet,https://www.finn.no/realestate/homes/ad.html?finnkode=297283486,59328,58.551013,8.973539,22/04/2023,1.0,Eier (Selveier),4920,Staubø
Trondenesveien 102,3340000,95,3.0,2022.0,Leilighet,https://www.finn.no/realestate/homes/ad.html?finnkode=299901871,35157,68.817313,16.553989,22/04/2023,5.0,Andel,9404,Harstad
Odvar Solbergs vei 90,2600000,67,2.0,1973.0,Leilighet,https://www.finn.no/realestate/homes/ad.html?finnkode=299662893,38805,59.966097,10.896017,22/04/2023,1.0,Andel,970,Oslo
Semsbyveien 27B,3000000,70,4.0,2003.0,Leilighet,https://www.finn.no/realestate/homes/ad.html?finnkode=299891751,42857,59.2748277,10.3227961,22/04/2023,1.0,Eier (Selveier),3170,Sem
Holtermanns veg 19A,3490000,58,,1932.0,Leilighet,https://www.finn.no/realestate/homes/ad.html?finnkode=297415689,60172,63.41225,10.398126,22/04/2023,2.0,Eier (Selveier),7031,Trondheim
Masfjordvegen 70,1990000,170,7.0,1976.0,Enebolig,https://www.finn.no/realestate/homes/ad.html?finnkode=299899663,11705,60.8348926,5.3148972,22/04/2023,2.0,Eier (Selveier),5986,Hosteland
Stedjeflaten 7,7200000,221,6.0,2000.0,Enebolig,https://www.finn.no/realestate/homes/ad.html?finnkode=299828777,32579,61.2285049,7.0913754,22/04/2023,3.0,Eier (Selveier),6856,Sogndal
Hovseterveien 68J,4600000,74,3.0,1975.0,Leilighet,https://www.finn.no/realestate/homes/ad.html?finnkode=299542189,62162,59.949408,10.652666,22/04/2023,1.0,Andel,768,Oslo
Farmannvegen 11,2990000,126,10.0,1961.0,Enebolig,https://www.finn.no/realestate/homes/ad.html?finnkode=299889912,23730,59.126193,9.6446043,22/04/2023,2.0,Eier (Selveier),3925,Porsgrunn
Tokerudberget 23,4350000,122,5.0,1971.0,Leilighet,https://www.finn.no/realestate/homes/ad.html?finnkode=299650275,35655,59.964774,10.92473,22/04/2023,2.0,Eier (Selveier),986,Oslo
Skiveien 9,20000000,359,,1967.0,Enebolig,https://www.finn.no/realestate/homes/ad.html?finnkode=299759232,55710,59.2006776,10.9331486,22/04/2023,,Eier (Selveier),1672,Kråkerøy
Hovinbakken 23,4750000,121,,1985.0,Rekkehus,https://www.finn.no/realestate/homes/ad.html?finnkode=299898032,39256,59.931333,11.1376622,22/04/2023,,Eier (Selveier),1900,Fetsund
Lierbakkene 2B,6690000,142,4.0,2021.0,Enebolig,https://www.finn.no/realestate/homes/ad.html?finnkode=299850544,47112,59.766111,10.281428,22/04/2023,2.0,Eier (Selveier),3414,Lierstranda
Lillogata 14,5400000,49,2.0,2012.0,Leilighet,https://www.finn.no/realestate/homes/ad.html?finnkode=299816105,110204,59.942,10.767515,22/04/2023,5.0,Eier (Selveier),484,Oslo
Ofotveien 6,1500000,44,2.0,1954.0,Leilighet,https://www.finn.no/realestate/homes/ad.html?finnkode=299815592,34090,68.441107,17.42175,22/04/2023,,Andel,8517,Narvik
Rødtvetveien 11,3350000,45,1.0,1962.0,Leilighet,https://www.finn.no/realestate/homes/ad.html?finnkode=299485942,74444,59.952085,10.86071,22/04/2023,2.0,Andel,955,Oslo
Vedlegjerdsvegen 24,3600000,58,3.0,2022.0,Leilighet,https://www.finn.no/realestate/homes/ad.html?finnkode=299696197,62068,61.210326,7.131555,22/04/2023,1.0,Eier (Selveier),6856,Sogndal
Iver Holters gate 40,3990000,260,7.0,1929.0,Enebolig,https://www.finn.no/realestate/homes/ad.html?finnkode=299894645,15346,59.72869,10.221447,22/04/2023,,Eier (Selveier),3041,Drammen
Øvrevegen 6,4350000,196,5.0,1967.0,Enebolig,https://www.finn.no/realestate/homes/ad.html?finnkode=294697993,22193,60.783214,11.11813,22/04/2023,2.0,Eier (Selveier),2312,Ottestad
Hårstad Mindes veg 13,1450000,43,,2021.0,Leilighet,https://www.finn.no/realestate/homes/ad.html?finnkode=299894336,33720,63.355478,10.402267,22/04/2023,3.0,Andel,7091,Tiller
Grønåsen 7,9500000,249,7.0,1965.0,Enebolig,https://www.finn.no/realestate/homes/ad.html?finnkode=299805479,38152,59.13475,10.197649,22/04/2023,2.0,Eier (Selveier),3214,Sandefjord
Spireaveien 12B,4250000,48,2.0,2013.0,Leilighet,https://www.finn.no/realestate/homes/ad.html?finnkode=299764531,88541,59.933334,10.801077,22/04/2023,5.0,Eier (Selveier),585,Oslo
Tokerudberget 31,4450000,116,7.0,1972.0,Leilighet,https://www.finn.no/realestate/homes/ad.html?finnkode=299436715,38362,59.963868,10.924659,22/04/2023,4.0,Eier (Selveier),986,Oslo
Monrads gate 21D,4500000,45,3.0,1941.0,Leilighet,https://www.finn.no/realestate/homes/ad.html?finnkode=299548211,100000,59.922398,10.773582,22/04/2023,1.0,Andel,564,Oslo
Schouterrassen 1,5600000,65,3.0,1937.0,Leilighet,https://www.finn.no/realestate/homes/ad.html?finnkode=299890945,86153,59.930196,10.7801,22/04/2023,5.0,Andel,573,Oslo
Syver Andersens gate 2,5900000,235,,1951.0,Enebolig,https://www.finn.no/realestate/homes/ad.html?finnkode=293492046,25106,60.798866,11.0798323,22/04/2023,,Eier (Selveier),2318,Hamar
Heggveien 16,2250000,155,,1979.0,Enebolig,https://www.finn.no/realestate/homes/ad.html?finnkode=299838517,14516,67.3430581,15.5982783,22/04/2023,2.0,Eier (Selveier),8226,Straumen
Ankerveien 66A,5550000,67,1.0,1989.0,Leilighet,https://www.finn.no/realestate/homes/ad.html?finnkode=299797304,82835,59.956571,10.653413,22/04/2023,2.0,Eier (Selveier),767,Oslo
Knattstien 4A,2090000,58,,1977.0,Leilighet,https://www.finn.no/realestate/homes/ad.html?finnkode=299889373,36034,58.7828002,5.7287774,22/04/2023,1.0,Andel,4355,Kvernaland
Libakkfaret 8B,4150000,74,3.0,1955.0,Leilighet,https://www.finn.no/realestate/homes/ad.html?finnkode=299782073,56081,59.890263,10.802629,22/04/2023,1.0,Eier (Selveier),1184,Oslo
Tord Pedersens gate 95A,4490000,78,,1978.0,Leilighet,https://www.finn.no/realestate/homes/ad.html?finnkode=299889376,57564,59.752858,10.219467,22/04/2023,3.0,Eier (Selveier),3014,Drammen
Tanemsmovegen 2B,2690000,78,,2006.0,Leilighet,https://www.finn.no/realestate/homes/ad.html?finnkode=299802104,34487,63.3071991,10.4315854,22/04/2023,1.0,Eier (Selveier),7549,Tanem
Båhus gate 14B,3270000,57,,1901.0,Leilighet,https://www.finn.no/realestate/homes/ad.html?finnkode=299565363,57368,63.4312034,10.4167502,22/04/2023,2.0,Andel,7014,Trondheim
Finnshaugen 4A,4350000,126,3.0,1951.0,Tomannsbolig,https://www.finn.no/realestate/homes/ad.html?finnkode=299668547,34523,67.2995257,14.404433,22/04/2023,3.0,Eier (Selveier),8012,Bodø
Erling Skjalgssons gate 22A,4000000,31,2.0,1940.0,Leilighet,https://www.finn.no/realestate/homes/ad.html?finnkode=299808849,129032,59.919645,10.701682,22/04/2023,6.0,Eier (Selveier),267,Oslo
Tomasjordnes 35,2900000,45,2.0,2016.0,Leilighet,https://www.finn.no/realestate/homes/ad.html?finnkode=297463324,64444,69.667549,19.020066,22/04/2023,,Eier (Selveier),9024,Tomasjord
Prost Christies vei 15B,3890000,49,2.0,1960.0,Leilighet,https://www.finn.no/realestate/homes/ad.html?finnkode=299803099,79387,59.932949,10.590103,22/04/2023,2.0,Eier (Selveier),1362,Hosle
Eidesåsen 10,2990000,155,,1982.0,Enebolig,https://www.finn.no/realestate/homes/ad.html?finnkode=299885304,19290,60.049469,6.540541,22/04/2023,,Eier (Selveier),5750,Odda
Drammensveien 116C,8890000,86,,1934.0,Leilighet,https://www.finn.no/realestate/homes/ad.html?finnkode=292542607,103372,59.920184,10.690511,22/04/2023,4.0,Eier (Selveier),273,Oslo
Kulturhusgata 30,4700000,71,3.0,2015.0,Leilighet,https://www.finn.no/realestate/homes/ad.html?finnkode=299885158,66197,59.9255206,10.9592595,22/04/2023,5.0,Eier (Selveier),1473,Lørenskog
Olderselva 3,1590000,65,2.0,1920.0,Enebolig,https://www.finn.no/realestate/homes/ad.html?finnkode=299792816,24461,60.2805208,5.1147544,22/04/2023,2.0,Eier (Selveier),5357,Fjell
Nordgarden 12,3560000,173,7.0,1947.0,Enebolig,https://www.finn.no/realestate/homes/ad.html?finnkode=279721793,20578,58.527231,8.34997,22/04/2023,,Eier (Selveier),4766,Herefoss
Gamle Riksvei 113E,4990000,203,4.0,1972.0,Enebolig,https://www.finn.no/realestate/homes/ad.html?finnkode=299883708,24581,59.762078,10.063566,22/04/2023,2.0,Eier (Selveier),3057,Solbergelva
LIAGARDVEGEN 437,4000000,200,10.0,1850.0,Gårdsbruk/Småbruk,https://www.finn.no/realestate/homes/ad.html?finnkode=299873827,20000,61.4454748,10.1302389,22/04/2023,2.0,Eier (Selveier),2634,Fåvang
Maries gate 6,8290000,68,3.0,1967.0,Leilighet,https://www.finn.no/realestate/homes/ad.html?finnkode=299798924,121911,59.927022,10.715301,22/04/2023,4.0,Eier (Selveier),368,Oslo
Sandstuveien 16,4200000,62,2.0,1962.0,Leilighet,https://www.finn.no/realestate/homes/ad.html?finnkode=299773383,67741,59.885982,10.78612,22/04/2023,1.0,Eier (Selveier),1178,Oslo
Trulsrudskogen 90,10950000,250,,2007.0,Enebolig,https://www.finn.no/realestate/homes/ad.html?finnkode=299883371,43800,59.9559949,10.4641878,22/04/2023,,Eier (Selveier),1350,Lommedalen
Fossumveien 20,4200000,128,5.0,1995.0,Enebolig,https://www.finn.no/realestate/homes/ad.html?finnkode=299627312,32812,59.2233258,10.9390219,22/04/2023,2.0,Eier (Selveier),1605,Fredrikstad
Elmholt allé 3 A,7500000,83,,1996.0,Leilighet,https://www.finn.no/realestate/homes/ad.html?finnkode=299882433,90361,59.924355,10.66911,22/04/2023,2.0,Eier (Selveier),275,Oslo
Riperbakken 2B,2400000,113,2.0,1971.0,Enebolig,https://www.finn.no/realestate/homes/ad.html?finnkode=298583404,21238,60.1669766,10.2525938,22/04/2023,,Eier (Selveier),3517,Hønefoss
Ravnkollbakken 5,2990000,54,2.0,1972.0,Leilighet,https://www.finn.no/realestate/homes/ad.html?finnkode=299880451,55370,59.961221,10.892192,22/04/2023,,Andel,971,Oslo
Henrik Wergelands gate 17A,3500000,87,3.0,1939.0,Leilighet,https://www.finn.no/realestate/homes/ad.html?finnkode=299880291,40229,58.1471773,7.9914903,22/04/2023,4.0,Eier (Selveier),4612,Kristiansand S
Solheimsgata 2B,7500000,98,,2006.0,Leilighet,https://www.finn.no/realestate/homes/ad.html?finnkode=299880143,76530,59.9544431,11.0483655,22/04/2023,,Eier (Selveier),2000,Lillestrøm
Skjærgårdsveien 3,3590000,179,6.0,1973.0,Tomannsbolig,https://www.finn.no/realestate/homes/ad.html?finnkode=299864013,20055,58.0819167,8.0010162,22/04/2023,,Eier (Selveier),4625,Flekkerøy
Berg terrasse 92,4350000,227,6.0,1996.0,Enebolig,https://www.finn.no/realestate/homes/ad.html?finnkode=287167037,19162,60.8142009,10.64934,22/04/2023,3.0,Eier (Selveier),2819,Gjøvik
Dommerens vei 5,4700000,112,4.0,1976.0,Enebolig,https://www.finn.no/realestate/homes/ad.html?finnkode=299872839,41964,59.593565,10.709672,22/04/2023,1.0,Eier (Selveier),1542,Vestby
Lågerødtoppen 15,3950000,85,,2019.0,Leilighet,https://www.finn.no/realestate/homes/ad.html?finnkode=299879045,46470,59.235861,10.308719,22/04/2023,2.0,Eier (Selveier),3160,Stokke
Grim Saxeviks veg 22,4500000,149,5.0,1971.0,Rekkehus,https://www.finn.no/realestate/homes/ad.html?finnkode=299849712,30201,63.4352462,10.589902,22/04/2023,,Eier (Selveier),7562,Saksvik
Almveien 26,5690000,121,4.0,2011.0,Rekkehus,https://www.finn.no/realestate/homes/ad.html?finnkode=299877719,47024,59.652276,10.796098,22/04/2023,,Eier (Selveier),1430,Ås
Fyrstikkbakken 9,4350000,72,3.0,1964.0,Leilighet,https://www.finn.no/realestate/homes/ad.html?finnkode=299843860,60416,59.911318,10.827307,22/04/2023,1.0,Andel,667,Oslo
Grindstuveien 1,8000000,115,,1959.0,Tomannsbolig,https://www.finn.no/realestate/homes/ad.html?finnkode=299875363,69565,59.921528,10.476912,22/04/2023,,Eier (Selveier),1349,Rykkinn
Smørblomstvegen 9,4590000,147,5.0,1991.0,Enebolig,https://www.finn.no/realestate/homes/ad.html?finnkode=299873520,31224,63.7259189,11.2866494,22/04/2023,,Eier (Selveier),7606,Levanger
Vollenlia 101C,4190000,61,3.0,2004.0,Leilighet,https://www.finn.no/realestate/homes/ad.html?finnkode=299843239,68688,59.804909,10.483477,22/04/2023,2.0,Eier (Selveier),1390,Vollen
Otto Sverdrups gate 7A,2500000,39,2.0,1839.0,Leilighet,https://www.finn.no/realestate/homes/ad.html?finnkode=299453284,64102,69.6560007,18.965212,22/04/2023,2.0,Eier (Selveier),9008,Tromsø
Måltrostveien 1B,17500000,233,6.0,2016.0,Enebolig,https://www.finn.no/realestate/homes/ad.html?finnkode=299813522,75107,59.95698,10.662921,22/04/2023,,Eier (Selveier),786,Oslo
Fjordgata 33,10900000,290,,1800.0,Enebolig,https://www.finn.no/realestate/homes/ad.html?finnkode=273278309,37586,63.43434,10.396377,22/04/2023,,Eier (Selveier),7010,Trondheim
Midtheilia 36A,2990000,115,5.0,2019.0,Tomannsbolig,https://www.finn.no/realestate/homes/ad.html?finnkode=294327914,26000,58.162371,7.841691,22/04/2023,,Eier (Selveier),4645,Nodeland
Gina Krogs vei 11A,3900000,69,,1960.0,Leilighet,https://www.finn.no/realestate/homes/ad.html?finnkode=294440198,56521,59.876388,10.815634,22/04/2023,3.0,Aksje,1153,Oslo
Johan Bojers veg 15 B,6290000,86,4.0,1953.0,Leilighet,https://www.finn.no/realestate/homes/ad.html?finnkode=299871099,73139,60.783821,10.702891,22/04/2023,1.0,Eier (Selveier),2816,Gjøvik
Johan Bojers veg 15 C,6290000,72,3.0,1953.0,Leilighet,https://www.finn.no/realestate/homes/ad.html?finnkode=299871096,87361,60.783848,10.703093,22/04/2023,1.0,Eier (Selveier),2816,Gjøvik
Kjørkjevegen 88/90 Nordre,6250000,216,8.0,2020.0,Tomannsbolig,https://www.finn.no/realestate/homes/ad.html?finnkode=299871078,28935,60.743569,10.769149,22/04/2023,,Eier (Selveier),2820,Toten
Johan Bojers veg 15 C,6290000,78,3.0,1953.0,Leilighet,https://www.finn.no/realestate/homes/ad.html?finnkode=299871093,80641,60.783848,10.703093,22/04/2023,1.0,Eier (Selveier),2816,Gjøvik
Carl Lundgrens vei 28,5100000,44,2.0,2019.0,Leilighet,https://www.finn.no/realestate/homes/ad.html?finnkode=299665676,115909,59.920901,10.632541,22/04/2023,3.0,Eier (Selveier),284,Oslo
Radarveien 10,4290000,64,3.0,1962.0,Leilighet,https://www.finn.no/realestate/homes/ad.html?finnkode=295292065,67031,59.879194,10.805531,22/04/2023,,Aksje,1152,Oslo
Lusetjernveien 18C,4990000,112,5.0,1983.0,Rekkehus,https://www.finn.no/realestate/homes/ad.html?finnkode=299701296,44553,59.831236,10.785485,22/04/2023,2.0,Andel,1253,Oslo
Rødtvetveien 33,3600000,65,3.0,1962.0,Leilighet,https://www.finn.no/realestate/homes/ad.html?finnkode=299869861,55384,59.953317,10.861907,22/04/2023,11.0,Andel,955,Oslo
Husabøåkeren 6,2290000,88,3.0,1983.0,Leilighet,https://www.finn.no/realestate/homes/ad.html?finnkode=299869018,26022,58.9993945,5.7209856,22/04/2023,1.0,Andel,4083,Hundvåg
Munkerudkleiva 10,2690000,34,,1969.0,Leilighet,https://www.finn.no/realestate/homes/ad.html?finnkode=290495128,79117,59.858704,10.816842,22/04/2023,2.0,Eier (Selveier),1164,Oslo
Prost Hallings vei 44a,3900000,48,2.0,1959.0,Leilighet,https://www.finn.no/realestate/homes/ad.html?finnkode=299869056,81250,59.918246,10.825076,22/04/2023,2.0,Aksje,666,Oslo
Lachmanns vei 26,13900000,150,4.0,2005.0,Leilighet,https://www.finn.no/realestate/homes/ad.html?finnkode=289238619,92666,59.964106,10.795677,22/04/2023,2.0,Eier (Selveier),495,Oslo
Brannfjellveien 2B,12800000,178,,1987.0,Enebolig,https://www.finn.no/realestate/homes/ad.html?finnkode=289885852,71910,59.900167,10.774345,22/04/2023,,Eier (Selveier),1181,Oslo
Hoffsveien 10B,5990000,57,3.0,2016.0,Leilighet,https://www.finn.no/realestate/homes/ad.html?finnkode=299867569,105087,59.9257218,10.6739152,22/04/2023,3.0,Eier (Selveier),275,Oslo
Sørligata 10C,4500000,50,2.0,1932.0,Leilighet,https://www.finn.no/realestate/homes/ad.html?finnkode=296917197,90000,59.914206,10.770283,22/04/2023,3.0,Andel,577,Oslo
Skottegaten 22D,3490000,46,3.0,1890.0,Leilighet,https://www.finn.no/realestate/homes/ad.html?finnkode=299658457,75869,60.394336,5.3137124,22/04/2023,1.0,Eier (Selveier),5011,Bergen
Dukenveien 27D,14750000,225,6.0,2022.0,Enebolig,https://www.finn.no/realestate/homes/ad.html?finnkode=299496327,65555,59.212423,10.454348,22/04/2023,3.0,Eier (Selveier),3133,Duken
Lørenvangen 19,3800000,62,3.0,2019.0,Leilighet,https://www.finn.no/realestate/homes/ad.html?finnkode=298955441,61290,59.9302785,10.7966862,22/04/2023,4.0,Andel,585,Oslo
Rosselandsvegen 2E,3890000,179,,1993.0,Tomannsbolig,https://www.finn.no/realestate/homes/ad.html?finnkode=299804434,21731,58.734928,5.661054,22/04/2023,,Eier (Selveier),4344,Bryne
Skogvegen 18K,6600000,141,3.0,2000.0,Leilighet,https://www.finn.no/realestate/homes/ad.html?finnkode=299795106,46808,60.7968738,11.0930093,22/04/2023,3.0,Eier (Selveier),2318,Hamar
Abraham Pihls veg 3,4600000,198,6.0,1987.0,Enebolig,https://www.finn.no/realestate/homes/ad.html?finnkode=299802815,23232,60.8025006,11.1258741,22/04/2023,,Eier (Selveier),2322,Ridabu
Stafsbergvegen 141,4950000,207,4.0,1990.0,Enebolig,https://www.finn.no/realestate/homes/ad.html?finnkode=299787889,23913,60.8167005,11.0750297,22/04/2023,1.0,Eier (Selveier),2319,Hamar
Salhusvegen 76,4500000,192,6.0,1956.0,Enebolig,https://www.finn.no/realestate/homes/ad.html?finnkode=299774673,23437,60.4886231,5.2707589,22/04/2023,3.0,Eier (Selveier),5137,Mjølkeråen
Sverres gate 13,3690000,75,3.0,1951.0,Leilighet,https://www.finn.no/realestate/homes/ad.html?finnkode=299806030,49200,60.7939951,11.0721315,22/04/2023,4.0,Eier (Selveier),2317,Hamar
Gamle Enebakkvei 59,5200000,97,4.0,1989.0,Leilighet,https://www.finn.no/realestate/homes/ad.html?finnkode=299781265,53608,59.865916,10.835657,22/04/2023,3.0,Eier (Selveier),1188,Oslo
Djupmyra 34,3960000,115,5.0,1994.0,Enebolig,https://www.finn.no/realestate/homes/ad.html?finnkode=299754894,34434,62.4303445,6.4178253,22/04/2023,2.0,Eier (Selveier),6013,Ålesund
Meiseveien 20B,5490000,122,,1959.0,Tomannsbolig,https://www.finn.no/realestate/homes/ad.html?finnkode=299773968,45000,60.3613669,5.3728193,22/04/2023,,Eier (Selveier),5097,Bergen
Torborg Nedreaas' gate 10,2400000,71,3.0,1950.0,Leilighet,https://www.finn.no/realestate/homes/ad.html?finnkode=299797122,33802,60.388609,5.314689,22/04/2023,3.0,Andel,5006,Bergen
Gullstølslien 24,5500000,128,4.0,1992.0,Tomannsbolig,https://www.finn.no/realestate/homes/ad.html?finnkode=299778501,42968,60.3387124,5.3145378,22/04/2023,,Eier (Selveier),5153,Bønes
Lille Øvregaten 36B,3200000,45,3.0,1901.0,Leilighet,https://www.finn.no/realestate/homes/ad.html?finnkode=299804722,71111,60.3945754,5.3307961,22/04/2023,4.0,Eier (Selveier),5018,Bergen
Tipphaugen 32,4500000,95,3.0,2004.0,Leilighet,https://www.finn.no/realestate/homes/ad.html?finnkode=299808741,47368,60.3095537,5.2703976,22/04/2023,4.0,Eier (Selveier),5252,Søreidgrend
Mellom Bøkeligate 12,4400000,217,,1902.0,Enebolig,https://www.finn.no/realestate/homes/ad.html?finnkode=299841950,20276,59.054093,10.021352,22/04/2023,3.0,Eier (Selveier),3256,Larvik
Kjelsåsveien 63A,10700000,193,7.0,1931.0,Tomannsbolig,https://www.finn.no/realestate/homes/ad.html?finnkode=299609937,55440,59.951724,10.792733,22/04/2023,2.0,Eier (Selveier),488,Oslo
Salendammen 6A,3450000,122,4.0,2011.0,Tomannsbolig,https://www.finn.no/realestate/homes/ad.html?finnkode=299793838,28278,59.017293,9.739881,22/04/2023,2.0,Eier (Selveier),3970,Langesund
Runarveien 23A,3200000,141,,1968.0,Rekkehus,https://www.finn.no/realestate/homes/ad.html?finnkode=299790539,22695,59.145881,10.183944,22/04/2023,2.0,Andel,3242,Sandefjord
Søster Mathildes gate 31,4100000,54,2.0,2021.0,Leilighet,https://www.finn.no/realestate/homes/ad.html?finnkode=299662208,75925,59.921431,10.948449,22/04/2023,1.0,Eier (Selveier),1473,Lørenskog
Jotunveien 3E,4900000,53,,2023.0,Tomannsbolig,https://www.finn.no/realestate/homes/ad.html?finnkode=299777704,92452,59.882662,10.801088,22/04/2023,1.0,Eier (Selveier),1185,Oslo
Lervigbrygga 1,3090000,50,2.0,2019.0,Leilighet,https://www.finn.no/realestate/homes/ad.html?finnkode=299788437,61800,58.965883,5.762224,22/04/2023,4.0,Eier (Selveier),4014,Stavanger
Djupmyrvegen 7B,2990000,102,4.0,2012.0,Tomannsbolig,https://www.finn.no/realestate/homes/ad.html?finnkode=286533653,29313,60.897579,11.5177,22/04/2023,2.0,Eier (Selveier),2406,Elverum
Konows gate 29,3200000,30,2.0,1889.0,Leilighet,https://www.finn.no/realestate/homes/ad.html?finnkode=299799103,106666,59.90232,10.775229,22/04/2023,2.0,Eier (Selveier),196,Oslo
Beiteveien 15C,2990000,135,,1969.0,Rekkehus,https://www.finn.no/realestate/homes/ad.html?finnkode=299806163,22148,59.1555722,10.2208423,22/04/2023,3.0,Eier (Selveier),3225,Sandefjord
Stemvegen 21,7490000,250,8.0,1965.0,Enebolig,https://www.finn.no/realestate/homes/ad.html?finnkode=299796740,29960,58.8902479,5.6582152,22/04/2023,2.0,Eier (Selveier),4050,Sola
Hagalia 14,3890000,99,4.0,2002.0,Enebolig,https://www.finn.no/realestate/homes/ad.html?finnkode=299826134,39292,59.1187948,10.2462414,22/04/2023,2.0,Eier (Selveier),3219,Sandefjord
Øvre Storgate 76A,3850000,63,2.0,1986.0,Leilighet,https://www.finn.no/realestate/homes/ad.html?finnkode=299769973,61111,59.7475647,10.1845357,22/04/2023,1.0,Andel,3018,Drammen
Botaniker Resvolls gate 82,16900000,440,10.0,1989.0,Enebolig,https://www.finn.no/realestate/homes/ad.html?finnkode=299754313,38409,58.9602605,5.6828778,22/04/2023,,Eier (Selveier),4022,Stavanger
Storgaten 71B,3950000,107,3.0,1960.0,Leilighet,https://www.finn.no/realestate/homes/ad.html?finnkode=299820277,36915,59.612083,10.408405,22/04/2023,2.0,Eier (Selveier),3060,Svelvik
Sukkersletta 17,13500000,230,10.0,1956.0,Enebolig,https://www.finn.no/realestate/homes/ad.html?finnkode=299785892,58695,59.032444,10.059336,22/04/2023,2.0,Eier (Selveier),3260,Larvik
Lilleruts vei 43,8950000,82,3.0,2014.0,Leilighet,https://www.finn.no/realestate/homes/ad.html?finnkode=299788317,109146,59.889252,10.61757,22/04/2023,3.0,Eier (Selveier),1364,Fornebu
Fredlisletta 5,6500000,162,6.0,2007.0,Enebolig,https://www.finn.no/realestate/homes/ad.html?finnkode=299794418,40123,59.7240999,10.130306,22/04/2023,2.0,Eier (Selveier),3031,Drammen
Balders vei 18,3490000,166,5.0,1985.0,Enebolig,https://www.finn.no/realestate/homes/ad.html?finnkode=293875266,21024,59.132945,11.371013,22/04/2023,2.0,Eier (Selveier),1781,Halden
Holbergs gate 54,8990000,199,7.0,1960.0,Enebolig,https://www.finn.no/realestate/homes/ad.html?finnkode=299865645,45175,58.9637269,5.7137443,22/04/2023,,Eier (Selveier),4009,Stavanger
Røahellinga 13,17950000,298,,1953.0,Enebolig,https://www.finn.no/realestate/homes/ad.html?finnkode=299864615,60234,59.953679,10.641182,22/04/2023,,Eier (Selveier),755,Oslo
Landboden 67,1790000,36,,1974.0,Leilighet,https://www.finn.no/realestate/homes/ad.html?finnkode=299862514,49722,60.1890944,5.4718966,22/04/2023,2.0,Eier (Selveier),5200,Os
Fagerlia 1B,5100000,155,,2016.0,Tomannsbolig,https://www.finn.no/realestate/homes/ad.html?finnkode=287136892,32903,61.5965297,5.0749796,22/04/2023,,Eier (Selveier),6908,Florø
Drammensveien 214,1750000,68,3.0,2020.0,Andre,https://www.finn.no/realestate/homes/ad.html?finnkode=298844578,25735,59.917053,10.660533,22/04/2023,,Annet,212,Oslo
Tante Ulrikkes vei 20A,3500000,73,3.0,1970.0,Leilighet,https://www.finn.no/realestate/homes/ad.html?finnkode=299854750,47945,59.959363,10.918219,22/04/2023,3.0,Andel,984,Oslo
Ertsgårds gate 21,3650000,101,4.0,1950.0,Enebolig,https://www.finn.no/realestate/homes/ad.html?finnkode=299854290,36138,63.468487,10.938523,22/04/2023,,Eier (Selveier),7500,Stjørdal
Malerhaugveien 34E,4790000,59,2.0,2012.0,Leilighet,https://www.finn.no/realestate/homes/ad.html?finnkode=299853959,81186,59.917404,10.795511,22/04/2023,1.0,Eier (Selveier),661,Oslo
Bankløkka 14,5825000,144,4.0,,Leilighet,https://www.finn.no/realestate/homes/ad.html?finnkode=299852885,40451,59.4224242,10.4787288,22/04/2023,4.0,Andel,3183,Horten
Garvika 29,3690000,231,9.0,1905.0,Enebolig,https://www.finn.no/realestate/homes/ad.html?finnkode=260786708,15974,59.5922959,5.1566145,22/04/2023,,Eier (Selveier),5444,Espevær
Moveien 113B,2750000,91,3.0,2021.0,Leilighet,https://www.finn.no/realestate/homes/ad.html?finnkode=299395706,30219,59.148427,10.192511,22/04/2023,1.0,Andel,3221,Sandefjord
Nebbeveien 39,4990000,104,3.0,2016.0,Leilighet,https://www.finn.no/realestate/homes/ad.html?finnkode=299851908,47980,60.3510365,5.2960417,22/04/2023,2.0,Eier (Selveier),5144,Fyllingsdalen
Bankløkka 14,4375000,112,4.0,,Leilighet,https://www.finn.no/realestate/homes/ad.html?finnkode=299851894,39062,59.4224242,10.4787288,22/04/2023,1.0,Andel,3183,Horten
Ospedalhaugen 18B,3490000,117,,1998.0,Tomannsbolig,https://www.finn.no/realestate/homes/ad.html?finnkode=299851796,29829,60.4296152,5.1842422,22/04/2023,,Eier (Selveier),5308,Kleppestø
Leiavegen 12,3950000,121,5.0,2020.0,Enebolig,https://www.finn.no/realestate/homes/ad.html?finnkode=299851171,32644,64.863964,11.287611,22/04/2023,1.0,Eier (Selveier),7940,Ottersøy
Trollkleiva 8,2450000,69,,1983.0,Leilighet,https://www.finn.no/realestate/homes/ad.html?finnkode=299850797,35507,58.1446548,8.0660045,22/04/2023,1.0,Eier (Selveier),4638,Kristiansand S
Bankløkka 14,1450000,41,2.0,,Leilighet,https://www.finn.no/realestate/homes/ad.html?finnkode=299850226,35365,59.4224242,10.4787288,22/04/2023,1.0,Andel,3183,Horten
Vattindvegen 6,3150000,135,4.0,2017.0,Tomannsbolig,https://www.finn.no/realestate/homes/ad.html?finnkode=299850066,23333,64.856875,11.5971735,22/04/2023,2.0,Eier (Selveier),7970,Kolvereid
Ole Brumms vei 4,2500000,32,,1968.0,Leilighet,https://www.finn.no/realestate/homes/ad.html?finnkode=299849824,78125,59.951167,10.912373,22/04/2023,4.0,Andel,979,Oslo
Thorvald Meyers gate 85A,4650000,54,2.0,1892.0,Leilighet,https://www.finn.no/realestate/homes/ad.html?finnkode=299849806,86111,59.919647,10.759052,22/04/2023,3.0,Eier (Selveier),550,Oslo
Heimtrøa 7B,3390000,58,3.0,2015.0,Leilighet,https://www.finn.no/realestate/homes/ad.html?finnkode=299849645,58448,63.419378,10.541942,22/04/2023,1.0,Eier (Selveier),7054,Ranheim
Helsetdammen 25 Bærums,8950000,213,6.0,1986.0,Enebolig,https://www.finn.no/realestate/homes/ad.html?finnkode=282762713,42018,59.942279,10.515527,22/04/2023,3.0,Eier (Selveier),1353,Verk
Kristofer Jansons vei 51,3490000,71,3.0,1956.0,Leilighet,https://www.finn.no/realestate/homes/ad.html?finnkode=299805141,49154,60.3571599,5.3632722,22/04/2023,2.0,Aksje,5089,Bergen
Bankløkka 14,2825000,78,3.0,,Leilighet,https://www.finn.no/realestate/homes/ad.html?finnkode=299848557,36217,59.4224242,10.4787288,22/04/2023,2.0,Andel,3183,Horten
Høgåsen 8,3790000,146,5.0,2012.0,Tomannsbolig,https://www.finn.no/realestate/homes/ad.html?finnkode=299848614,25958,60.029516,11.360728,22/04/2023,2.0,Eier (Selveier),1929,Auli
Flakk 24,2490000,48,5.0,1972.0,Enebolig,https://www.finn.no/realestate/homes/ad.html?finnkode=299839685,51875,58.34093,8.223784,22/04/2023,2.0,Eier (Selveier),4760,Birkeland
Løkkevegen 13,2350000,117,4.0,2016.0,Tomannsbolig,https://www.finn.no/realestate/homes/ad.html?finnkode=299848443,20085,59.7206245,5.2255644,22/04/2023,,Eier (Selveier),5437,Finnås
Ole Aasveds veg 41,5950000,181,5.0,1962.0,Tomannsbolig,https://www.finn.no/realestate/homes/ad.html?finnkode=299848010,32872,63.4091795,10.4512274,22/04/2023,,Eier (Selveier),7049,Trondheim
Henrik Wergelands gate 28,5290000,82,3.0,1985.0,Leilighet,https://www.finn.no/realestate/homes/ad.html?finnkode=299684309,64512,60.3996997,5.3269472,22/04/2023,2.0,Eier (Selveier),5031,Bergen
Fjordveien 82C,5790000,76,,1962.0,Leilighet,https://www.finn.no/realestate/homes/ad.html?finnkode=299847581,76184,59.894336,10.57214,22/04/2023,3.0,Eier (Selveier),1363,Høvik
Fagerlivegen 4C,1800000,33,2.0,1971.0,Leilighet,https://www.finn.no/realestate/homes/ad.html?finnkode=299828694,54545,62.4726659,6.2220548,22/04/2023,1.0,Eier (Selveier),6008,Ålesund
Taugata 2B,3290000,84,4.0,1910.0,Leilighet,https://www.finn.no/realestate/homes/ad.html?finnkode=299847161,39166,58.965231,5.7478886,22/04/2023,1.0,Eier (Selveier),4014,Stavanger
Stongafjellsvegen 226,5790000,170,4.0,2014.0,Rekkehus,https://www.finn.no/realestate/homes/ad.html?finnkode=299847150,34058,60.407631,5.202391,22/04/2023,,Eier (Selveier),5301,Kleppestø
Vallerveien 122B,13950000,307,,1922.0,Enebolig,https://www.finn.no/realestate/homes/ad.html?finnkode=299846896,45439,59.907803,10.535512,22/04/2023,,Eier (Selveier),1346,Gjettum
Heltnevollen 4 A,2750000,80,3.0,2014.0,Leilighet,https://www.finn.no/realestate/homes/ad.html?finnkode=299802672,34375,62.1488245,6.1082987,22/04/2023,1.0,Eier (Selveier),6104,Volda
Kantarellveien 75,6500000,128,5.0,1988.0,Rekkehus,https://www.finn.no/realestate/homes/ad.html?finnkode=295525351,50781,59.9151003,10.9397585,22/04/2023,,Andel,1476,Rasta
Ole Thingsruds veg 6,7590000,291,5.0,1962.0,Enebolig,https://www.finn.no/realestate/homes/ad.html?finnkode=299846129,26082,59.9498288,11.0301918,22/04/2023,3.0,Eier (Selveier),2005,Rælingen
Vollen 49C,2350000,64,,1979.0,Leilighet,https://www.finn.no/realestate/homes/ad.html?finnkode=299845480,36718,68.7892778,16.5567282,22/04/2023,1.0,Andel,9408,Harstad
Juliane Fuhrs gate 5,5900000,124,5.0,2018.0,Leilighet,https://www.finn.no/realestate/homes/ad.html?finnkode=299843040,47580,58.345118,8.585337,22/04/2023,2.0,Eier (Selveier),4877,Grimstad
Gloppeskogen 45,3490000,225,,1939.0,Enebolig,https://www.finn.no/realestate/homes/ad.html?finnkode=299845024,15511,59.0388875,10.0701407,22/04/2023,,Eier (Selveier),3260,Larvik
Bivegen 5D,3900000,108,,2004.0,Tomannsbolig,https://www.finn.no/realestate/homes/ad.html?finnkode=299844921,36111,60.77863,11.118911,22/04/2023,2.0,Eier (Selveier),2312,Ottestad
Kolbulinna 936,3500000,319,,1967.0,Enebolig,https://www.finn.no/realestate/homes/ad.html?finnkode=299844692,10971,60.6012117,10.7369821,22/04/2023,,Eier (Selveier),2847,Kolbu
Kirkeveien 42,3950000,54,3.0,2022.0,Leilighet,https://www.finn.no/realestate/homes/ad.html?finnkode=299401717,73148,59.766679,9.910014,22/04/2023,4.0,Eier (Selveier),3300,Hokksund
Hjalmar Johansens gate 130,2890000,81,,2008.0,Leilighet,https://www.finn.no/realestate/homes/ad.html?finnkode=299843649,35679,69.6407352,18.9425988,22/04/2023,3.0,Andel,9007,Tromsø
Tennfjordneset 60,3200000,105,3.0,2009.0,Rekkehus,https://www.finn.no/realestate/homes/ad.html?finnkode=299833780,30476,62.5364886,6.5809963,22/04/2023,2.0,Eier (Selveier),6264,Tennfjord
Peter Egges gate 10,2990000,283,,1941.0,Enebolig,https://www.finn.no/realestate/homes/ad.html?finnkode=282781343,10565,64.0154823,11.5019884,22/04/2023,,Eier (Selveier),7713,Steinkjer
Kongens gate 7 B,2890000,36,1.0,2023.0,Leilighet,https://www.finn.no/realestate/homes/ad.html?finnkode=299371417,80277,67.28246,14.378602,22/04/2023,4.0,Eier (Selveier),8006,Bodø
Skarveien 8B,4490000,251,,1988.0,Enebolig,https://www.finn.no/realestate/homes/ad.html?finnkode=285677569,17888,58.0826642,7.8071941,22/04/2023,,Eier (Selveier),4640,Søgne
Losjeplassen 6,6490000,64,3.0,2022.0,Leilighet,https://www.finn.no/realestate/homes/ad.html?finnkode=299841529,101406,59.740914,10.214316,22/04/2023,4.0,Eier (Selveier),3015,Drammen
Fossveien 10,2590000,69,3.0,2018.0,Leilighet,https://www.finn.no/realestate/homes/ad.html?finnkode=299841485,37536,59.793669,10.257004,22/04/2023,3.0,Andel,3403,Lier
Harald Sæveruds veg 168,7450000,140,6.0,2005.0,Enebolig,https://www.finn.no/realestate/homes/ad.html?finnkode=299784013,53214,60.2956282,5.3124596,22/04/2023,2.0,Eier (Selveier),5237,Rådal
Ospelia 25A,2900000,69,3.0,1983.0,Leilighet,https://www.finn.no/realestate/homes/ad.html?finnkode=299827177,42028,59.9813949,10.9312338,22/04/2023,3.0,Andel,1481,Hagan
Maskinistvegen 9C,3990000,73,3.0,1999.0,Tomannsbolig,https://www.finn.no/realestate/homes/ad.html?finnkode=299840940,54657,69.685167,18.9442696,22/04/2023,,Eier (Selveier),9014,Tromsø
Lyngveien 14B,2600000,35,2.0,1963.0,Leilighet,https://www.finn.no/realestate/homes/ad.html?finnkode=299839638,74285,59.668081,10.7855891,22/04/2023,3.0,Andel,1433,Ås
Thv Bugges gate 20,3650000,175,4.0,1962.0,Enebolig,https://www.finn.no/realestate/homes/ad.html?finnkode=299809922,20857,59.4121422,10.4617705,22/04/2023,1.0,Eier (Selveier),3188,Horten
Jervestien 9,6000000,257,,1982.0,Enebolig,https://www.finn.no/realestate/homes/ad.html?finnkode=299747227,23346,58.8954693,5.7227318,22/04/2023,,Eier (Selveier),4034,Stavanger
Dokkeveien 13,6190000,85,,1928.0,Leilighet,https://www.finn.no/realestate/homes/ad.html?finnkode=299839319,72823,60.3888304,5.3161327,22/04/2023,1.0,Eier (Selveier),5007,Bergen
Mulevegen 74,2190000,102,,1900.0,Enebolig,https://www.finn.no/realestate/homes/ad.html?finnkode=299672337,21470,60.7780039,4.7097235,22/04/2023,2.0,Eier (Selveier),5947,Fedje
Ilevollen 9,3000000,50,,1931.0,Leilighet,https://www.finn.no/realestate/homes/ad.html?finnkode=299839178,60000,63.428274,10.368306,22/04/2023,2.0,Andel,7017,Trondheim
Lillovegen 9,3350000,164,4.0,1969.0,Enebolig,https://www.finn.no/realestate/homes/ad.html?finnkode=299662371,20426,60.2945025,11.1944557,22/04/2023,2.0,Eier (Selveier),2073,Bøn
Ruskebakkan 21B,5750000,233,,2015.0,Enebolig,https://www.finn.no/realestate/homes/ad.html?finnkode=299765032,24678,58.4803695,5.8859664,22/04/2023,,Eier (Selveier),4375,Hellvik
Hatlen 41,3700000,116,,1981.0,Rekkehus,https://www.finn.no/realestate/homes/ad.html?finnkode=299838350,31896,62.4591279,6.2761119,22/04/2023,,Eier (Selveier),6016,Ålesund
Østre Tromøyvei 670,6500000,359,,1959.0,Enebolig,https://www.finn.no/realestate/homes/ad.html?finnkode=299838356,18105,58.4977471,8.8928054,22/04/2023,,Eier (Selveier),4812,Kongshavn
Kirkegata 53,3000000,113,,1903.0,Leilighet,https://www.finn.no/realestate/homes/ad.html?finnkode=299838311,26548,62.4711415,6.1393767,22/04/2023,2.0,Eier (Selveier),6005,Ålesund
Nordahl Rolfsens vei 28A,2290000,76,2.0,1958.0,Leilighet,https://www.finn.no/realestate/homes/ad.html?finnkode=299838098,30131,60.356114,5.366745,22/04/2023,4.0,Aksje,5094,Bergen
Kruses gate 1A,16900000,200,9.0,1893.0,Leilighet,https://www.finn.no/realestate/homes/ad.html?finnkode=299837642,84500,59.917637,10.712902,22/04/2023,2.0,Andel,263,Oslo
Indre Kulen 24,2100000,240,6.0,1970.0,Enebolig,https://www.finn.no/realestate/homes/ad.html?finnkode=299837700,8750,61.92703,5.136306,22/04/2023,,Eier (Selveier),6718,Deknepollen
Parkveien 13,4990000,44,3.0,1931.0,Leilighet,https://www.finn.no/realestate/homes/ad.html?finnkode=299510433,113409,59.921778,10.730362,22/04/2023,4.0,Eier (Selveier),350,Oslo
Steinliveien 13A,14390000,277,6.0,2010.0,Enebolig,https://www.finn.no/realestate/homes/ad.html?finnkode=299837237,51949,59.883065,10.807493,22/04/2023,,Eier (Selveier),1185,Oslo
St Halvards vei 15,5900000,165,5.0,1961.0,Enebolig,https://www.finn.no/realestate/homes/ad.html?finnkode=299688473,35757,59.399786,10.479442,22/04/2023,,Eier (Selveier),3186,Horten
Sandakerveien 46C,3500000,32,1.0,1950.0,Leilighet,https://www.finn.no/realestate/homes/ad.html?finnkode=299795032,109375,59.936127,10.763147,22/04/2023,4.0,Eier (Selveier),477,Oslo
Billingstadlia 5,3950000,55,2.0,2006.0,Leilighet,https://www.finn.no/realestate/homes/ad.html?finnkode=299776943,71818,59.875821,10.4923699,22/04/2023,1.0,Eier (Selveier),1396,Billingstad
Tåsen terrasse 1B,11950000,146,,2005.0,Tomannsbolig,https://www.finn.no/realestate/homes/ad.html?finnkode=299640064,81849,59.953617,10.756823,22/04/2023,,Eier (Selveier),873,Oslo
Framnesveien 35D,6990000,161,,2022.0,Leilighet,https://www.finn.no/realestate/homes/ad.html?finnkode=261467601,43416,59.113198,10.232586,22/04/2023,,Eier (Selveier),3222,Sandefjord
1. Bera terrasse 13B,4990000,115,,1981.0,Leilighet,https://www.finn.no/realestate/homes/ad.html?finnkode=299835830,43391,59.7621948,10.1366125,22/04/2023,1.0,Eier (Selveier),3026,Drammen
Barlindveien 19,4750000,163,,1969.0,Enebolig,https://www.finn.no/realestate/homes/ad.html?finnkode=299785163,29141,59.4355043,10.4487439,22/04/2023,1.0,Eier (Selveier),3189,Horten
Hølbekken 116,6490000,366,9.0,1983.0,Enebolig,https://www.finn.no/realestate/homes/ad.html?finnkode=299773240,17732,60.412707,5.478244,22/04/2023,2.0,Eier (Selveier),5262,Arnatveit
Størens vei 10C,3100000,78,3.0,2005.0,Leilighet,https://www.finn.no/realestate/homes/ad.html?finnkode=299815575,39743,59.6432488,9.6694453,22/04/2023,,Eier (Selveier),3610,Kongsberg
Kong Jacobs vei 8A,3290000,115,,1994.0,Tomannsbolig,https://www.finn.no/realestate/homes/ad.html?finnkode=299834984,28608,59.0293826,9.7176322,22/04/2023,,Eier (Selveier),3961,Stathelle
Kirkeveien 217,2950000,199,,1710.0,Enebolig,https://www.finn.no/realestate/homes/ad.html?finnkode=295200785,14824,58.1510461,7.0909721,22/04/2023,,Eier (Selveier),4580,Lyngdal
Vestre Spindsvei 695,1490000,180,,1964.0,Enebolig,https://www.finn.no/realestate/homes/ad.html?finnkode=299834258,8277,58.099418,6.891717,22/04/2023,,Eier (Selveier),4550,Farsund
Stensberggata 15A,10450000,100,,1914.0,Leilighet,https://www.finn.no/realestate/homes/ad.html?finnkode=299834245,104500,59.922109,10.740022,22/04/2023,2.0,Eier (Selveier),170,Oslo
Gyldenløves gate 24,11900000,98,2.0,1932.0,Leilighet,https://www.finn.no/realestate/homes/ad.html?finnkode=299769879,121428,59.920754,10.713134,22/04/2023,3.0,Eier (Selveier),260,Oslo
Suhms gate 26,10000000,86,3.0,2004.0,Leilighet,https://www.finn.no/realestate/homes/ad.html?finnkode=299790565,116279,59.933991,10.717432,22/04/2023,5.0,Eier (Selveier),362,Oslo
Krokvollveien 2,2050000,56,,1953.0,Leilighet,https://www.finn.no/realestate/homes/ad.html?finnkode=299784776,36607,67.261479,15.4275806,22/04/2023,2.0,Andel,8200,Fauske
Harald Hårfagres gate 20,3390000,42,,1900.0,Leilighet,https://www.finn.no/realestate/homes/ad.html?finnkode=299834048,80714,60.3870117,5.3247647,22/04/2023,1.0,Eier (Selveier),5007,Bergen
Drengsroa 17,9900000,257,,1974.0,Enebolig,https://www.finn.no/realestate/homes/ad.html?finnkode=299834105,38521,59.0304521,10.0769512,22/04/2023,,Eier (Selveier),3260,Larvik
Balders veg 1D,2190000,31,,,Leilighet,https://www.finn.no/realestate/homes/ad.html?finnkode=299814796,70645,63.4039841,10.4290659,22/04/2023,,Andel,7033,Trondheim
Fagernes 15,2650000,52,2.0,1952.0,Leilighet,https://www.finn.no/realestate/homes/ad.html?finnkode=299702027,50961,60.4224826,5.2976696,22/04/2023,6.0,Aksje,5043,Bergen
Sigurds gate 17,4330000,55,2.0,1987.0,Leilighet,https://www.finn.no/realestate/homes/ad.html?finnkode=299798833,78727,60.3908081,5.3200324,22/04/2023,3.0,Andel,5015,Bergen
Plassen 37,3550000,134,4.0,2022.0,Rekkehus,https://www.finn.no/realestate/homes/ad.html?finnkode=299788841,26492,59.145971,9.650096,22/04/2023,,Andel,3919,Porsgrunn
Trondheimsveien 9,1490000,104,5.0,1930.0,Enebolig,https://www.finn.no/realestate/homes/ad.html?finnkode=299625318,14326,63.2924174,9.0845937,22/04/2023,,Eier (Selveier),7200,Kyrksæterøra
Postvegen 114,2950000,191,5.0,1970.0,Enebolig,https://www.finn.no/realestate/homes/ad.html?finnkode=299736470,15445,59.154399,5.245471,22/04/2023,2.0,Eier (Selveier),4280,Skudeneshavn
Gamle Riksvei 11,4790000,189,,1978.0,Enebolig,https://www.finn.no/realestate/homes/ad.html?finnkode=299666327,25343,59.7614448,10.0969254,22/04/2023,,Eier (Selveier),3057,Solbergelva
Lunderhaugen 32,4990000,166,4.0,1970.0,Enebolig,https://www.finn.no/realestate/homes/ad.html?finnkode=295584506,30060,63.3645274,10.3991731,22/04/2023,1.0,Eier (Selveier),7081,Sjetnemarka
Ternevegen 9,4950000,103,4.0,1981.0,Tomannsbolig,https://www.finn.no/realestate/homes/ad.html?finnkode=299763477,48058,59.9353466,11.0696696,22/04/2023,2.0,Eier (Selveier),2008,Fjerdingby
Rudningvegen 1,3850000,247,8.0,1987.0,Enebolig,https://www.finn.no/realestate/homes/ad.html?finnkode=299783018,15587,60.621408,8.511714,22/04/2023,3.0,Eier (Selveier),3570,Ål
Bernmarka 1,2990000,63,2.0,2008.0,Leilighet,https://www.finn.no/realestate/homes/ad.html?finnkode=299831177,47460,62.4613915,6.2779623,22/04/2023,1.0,Eier (Selveier),6016,Ålesund
Grevlingstien 23,4490000,182,,1981.0,Tomannsbolig,https://www.finn.no/realestate/homes/ad.html?finnkode=299648765,24670,58.8953987,5.7213664,22/04/2023,,Eier (Selveier),4034,Stavanger
Voieåsen 16,3990000,132,4.0,1959.0,Enebolig,https://www.finn.no/realestate/homes/ad.html?finnkode=299830977,30227,58.108899,7.9616168,22/04/2023,2.0,Eier (Selveier),4623,Kristiansand S
Brynhilds veg 5,1590000,51,,1953.0,Leilighet,https://www.finn.no/realestate/homes/ad.html?finnkode=299831515,31176,59.149847,9.674069,22/04/2023,1.0,Andel,3913,Porsgrunn
Sentrumsveien 32G,2490000,69,,1997.0,Rekkehus,https://www.finn.no/realestate/homes/ad.html?finnkode=299831313,36086,59.482654,10.009766,22/04/2023,,Eier (Selveier),3647,Hvittingfoss
Folkestads gate 53,6950000,242,6.0,1958.0,Enebolig,https://www.finn.no/realestate/homes/ad.html?finnkode=299676311,28719,60.798187,11.067821,22/04/2023,,Eier (Selveier),2317,Hamar
Steinseidevegen 10,4100000,187,4.0,2007.0,Enebolig,https://www.finn.no/realestate/homes/ad.html?finnkode=299829400,21925,60.4575845,5.0975415,22/04/2023,2.0,Eier (Selveier),5310,Hauglandshella
Svarttjønnheia 156,4390000,167,,2006.0,Enebolig,https://www.finn.no/realestate/homes/ad.html?finnkode=299831117,26287,58.1736807,7.8578698,22/04/2023,,Eier (Selveier),4645,Nodeland
Myrsletta 151,2990000,46,,2017.0,Leilighet,https://www.finn.no/realestate/homes/ad.html?finnkode=299830971,65000,60.1427667,11.1943374,22/04/2023,2.0,Eier (Selveier),2052,Jessheim
Utveien 18B,13190000,248,8.0,2022.0,Enebolig,https://www.finn.no/realestate/homes/ad.html?finnkode=287384680,53185,59.667879,10.780044,22/04/2023,,Eier (Selveier),1433,Ås
Valløveien 87,5100000,218,,1973.0,Enebolig,https://www.finn.no/realestate/homes/ad.html?finnkode=299830690,23394,59.271324,10.475624,22/04/2023,,Eier (Selveier),3154,Tolvsrød
Buråket 57,3850000,244,8.0,1977.0,Enebolig,https://www.finn.no/realestate/homes/ad.html?finnkode=299830892,15778,62.913946,7.4351707,22/04/2023,,Eier (Selveier),6490,Eide
Smørsoppen 8c,2450000,105,4.0,1994.0,Rekkehus,https://www.finn.no/realestate/homes/ad.html?finnkode=299668087,23333,63.1250085,7.8060096,22/04/2023,,Eier (Selveier),6518,Kristiansund N
Falsens vei 64A,3190000,63,,1953.0,Leilighet,https://www.finn.no/realestate/homes/ad.html?finnkode=299830160,50634,60.3629443,5.3509958,22/04/2023,2.0,Aksje,5063,Bergen
Heimdals gate 10,3990000,164,,1951.0,Tomannsbolig,https://www.finn.no/realestate/homes/ad.html?finnkode=299830074,24329,58.1544128,8.0187863,22/04/2023,1.0,Eier (Selveier),4631,Kristiansand S
Åsvangvegen 16,8490000,232,,2004.0,Enebolig,https://www.finn.no/realestate/homes/ad.html?finnkode=299782626,36594,63.412728,10.449264,22/04/2023,,Eier (Selveier),7049,Trondheim
Løfallstrand 89,3200000,672,,1957.0,Gårdsbruk/Småbruk,https://www.finn.no/realestate/homes/ad.html?finnkode=299806770,4761,60.0142776,5.9990084,22/04/2023,4.0,Eier (Selveier),5474,Løfallstrand
Uenesveien 62,2590000,183,5.0,1957.0,Enebolig,https://www.finn.no/realestate/homes/ad.html?finnkode=299804954,14153,58.300781,6.671311,22/04/2023,,Eier (Selveier),4405,Flekkefjord
Damveien 24,1850000,57,,1987.0,Leilighet,https://www.finn.no/realestate/homes/ad.html?finnkode=299829548,32456,58.4592331,6.0073984,22/04/2023,,Eier (Selveier),4370,Egersund
Konghellegata 10,12490000,124,4.0,2019.0,Leilighet,https://www.finn.no/realestate/homes/ad.html?finnkode=299686351,100725,59.929586,10.779388,22/04/2023,6.0,Eier (Selveier),568,Oslo
Sølvstien 22 Gamle,5750000,181,,1961.0,Enebolig,https://www.finn.no/realestate/homes/ad.html?finnkode=299809861,31767,59.212551,10.996574,22/04/2023,2.0,Eier (Selveier),1639,Fredrikstad
Freyasdalsveien 21,4800000,93,4.0,2018.0,Leilighet,https://www.finn.no/realestate/homes/ad.html?finnkode=299519921,51612,58.151227,8.018788,22/04/2023,2.0,Eier (Selveier),4631,Kristiansand S
Svingen 3,2650000,156,3.0,1989.0,Enebolig,https://www.finn.no/realestate/homes/ad.html?finnkode=298370385,16987,69.2375859,19.2200881,22/04/2023,1.0,Eier (Selveier),9050,Storsteinnes
Thoresens gate 11B,2750000,67,3.0,1960.0,Leilighet,https://www.finn.no/realestate/homes/ad.html?finnkode=299674105,41044,59.4124097,10.4731306,22/04/2023,1.0,Andel,3188,Horten
Bjørnebærstien 26,4500000,93,4.0,1971.0,Leilighet,https://www.finn.no/realestate/homes/ad.html?finnkode=299828986,48387,59.926697,10.481257,22/04/2023,4.0,Andel,1348,Rykkinn
Svehøgda 158,4950000,131,4.0,1999.0,Enebolig,https://www.finn.no/realestate/homes/ad.html?finnkode=299828564,37786,63.4219444,10.7509762,22/04/2023,,Eier (Selveier),7550,Hommelvik
Johan Alexandersens vei 7,3650000,120,5.0,2004.0,Enebolig,https://www.finn.no/realestate/homes/ad.html?finnkode=299828565,30416,70.6840449,23.7004335,22/04/2023,,Eier (Selveier),9602,Hammerfest
Søster Mathildes gate 31,4400000,59,3.0,2021.0,Leilighet,https://www.finn.no/realestate/homes/ad.html?finnkode=299641598,74576,59.921431,10.948449,22/04/2023,4.0,Eier (Selveier),1473,Lørenskog
Rabben 23,3090000,76,3.0,2022.0,Leilighet,https://www.finn.no/realestate/homes/ad.html?finnkode=299828204,40657,63.078553,7.875871,22/04/2023,2.0,Eier (Selveier),6522,Frei
Løddesølveien 456,4990000,430,7.0,1988.0,Enebolig,https://www.finn.no/realestate/homes/ad.html?finnkode=299819730,11604,58.4400623,8.6420819,22/04/2023,3.0,Eier (Selveier),4821,Rykene
Galeioddveien 11B,8500000,193,6.0,2003.0,Tomannsbolig,https://www.finn.no/realestate/homes/ad.html?finnkode=299827941,44041,58.8672902,9.4177178,22/04/2023,,Eier (Selveier),3770,Kragerø
Ellefsveien 9,4290000,115,4.0,1946.0,Enebolig,https://www.finn.no/realestate/homes/ad.html?finnkode=271254867,37304,59.5974485,10.4024301,22/04/2023,,Eier (Selveier),3060,Svelvik
Brattbakken 6,11500000,172,5.0,1978.0,Rekkehus,https://www.finn.no/realestate/homes/ad.html?finnkode=299827669,66860,59.883138,10.772365,22/04/2023,,Eier (Selveier),1177,Oslo
Svartdalsveien 10A,6250000,74,3.0,1981.0,Leilighet,https://www.finn.no/realestate/homes/ad.html?finnkode=299827591,84459,59.903539,10.801782,22/04/2023,,Andel,678,Oslo
Adolph Bergs vei 53,2650000,46,2.0,1959.0,Leilighet,https://www.finn.no/realestate/homes/ad.html?finnkode=299827262,57608,60.3557753,5.3606139,22/04/2023,1.0,Eier (Selveier),5089,Bergen
Råstadveien 24A,3290000,99,,1998.0,Tomannsbolig,https://www.finn.no/realestate/homes/ad.html?finnkode=299826815,33232,59.1439894,10.2484013,22/04/2023,,Eier (Selveier),3228,Sandefjord
Fearnleys gate 4A,15850000,142,,1932.0,Leilighet,https://www.finn.no/realestate/homes/ad.html?finnkode=299826779,111619,59.924804,10.715258,22/04/2023,2.0,Aksje,353,Oslo
Torstadskogen 33A,5000000,82,3.0,1996.0,Leilighet,https://www.finn.no/realestate/homes/ad.html?finnkode=299690071,60975,59.8610511,10.4805085,22/04/2023,1.0,Eier (Selveier),1395,Hvalstad
Aslaugs gate 9,3690000,199,,1949.0,Enebolig,https://www.finn.no/realestate/homes/ad.html?finnkode=299826340,18542,59.1958412,9.6086109,22/04/2023,,Eier (Selveier),3730,Skien
Trudvangveien 13,7490000,77,3.0,1922.0,Leilighet,https://www.finn.no/realestate/homes/ad.html?finnkode=299825994,97272,59.930906,10.71803,22/04/2023,,Aksje,363,Oslo
Krokvollveien 4,1650000,56,,1953.0,Leilighet,https://www.finn.no/realestate/homes/ad.html?finnkode=299762715,29464,67.2615489,15.4282542,22/04/2023,1.0,Andel,8200,Fauske
Amundrødveien 69B,14390000,326,,1965.0,Enebolig,https://www.finn.no/realestate/homes/ad.html?finnkode=293771183,44141,59.2382303,10.387288,22/04/2023,,Eier (Selveier),3142,Vestskogen
Lyngveien 9 B,12500000,275,,2019.0,Enebolig,https://www.finn.no/realestate/homes/ad.html?finnkode=299825422,45454,59.023795,10.075266,22/04/2023,,Eier (Selveier),3260,Larvik
Måkeveien 17a,4190000,91,3.0,2016.0,Leilighet,https://www.finn.no/realestate/homes/ad.html?finnkode=299825257,46043,68.5664305,14.9351538,22/04/2023,,Eier (Selveier),8450,Stokmarknes
Nøtteskogen 50,2990000,64,3.0,2013.0,Leilighet,https://www.finn.no/realestate/homes/ad.html?finnkode=299761596,46718,60.366109,5.157429,22/04/2023,1.0,Eier (Selveier),5355,Knarrevik
Torpesvingen 48,4700000,146,,2013.0,Tomannsbolig,https://www.finn.no/realestate/homes/ad.html?finnkode=299825111,32191,58.998006,9.867273,22/04/2023,,Eier (Selveier),3295,Helgeroa
Åsleet 61,6150000,196,6.0,2012.0,Enebolig,https://www.finn.no/realestate/homes/ad.html?finnkode=299712993,31377,62.6962919,7.4100921,22/04/2023,,Eier (Selveier),6456,Skåla
Markveien 22B,2900000,25,1.0,1892.0,Leilighet,https://www.finn.no/realestate/homes/ad.html?finnkode=299818063,116000,59.924901,10.757666,22/04/2023,1.0,Andel,554,Oslo
Trondheimsveien 95,4100000,53,2.0,1940.0,Leilighet,https://www.finn.no/realestate/homes/ad.html?finnkode=299753762,77358,59.92424,10.774324,22/04/2023,4.0,Andel,565,Oslo
Hovseterveien 40A,4490000,54,2.0,1972.0,Leilighet,https://www.finn.no/realestate/homes/ad.html?finnkode=299776957,83148,59.948081,10.649982,22/04/2023,3.0,Andel,768,Oslo
Gartveien 350,2200000,133,,1958.0,Enebolig,https://www.finn.no/realestate/homes/ad.html?finnkode=299824377,16541,63.6418069,9.5156918,22/04/2023,,Eier (Selveier),7153,Garten
Huitfeldts gate 16C,6200000,61,3.0,1891.0,Leilighet,https://www.finn.no/realestate/homes/ad.html?finnkode=299757706,101639,59.913468,10.724699,22/04/2023,3.0,Andel,253,Oslo
Riseveien 329,2490000,229,,1943.0,Enebolig,https://www.finn.no/realestate/homes/ad.html?finnkode=299824117,10873,58.474765,8.670665,22/04/2023,,Eier (Selveier),4848,Arendal
Nyheimsvegen 54,6850000,128,5.0,1960.0,Tomannsbolig,https://www.finn.no/realestate/homes/ad.html?finnkode=299722632,53515,63.4184107,10.4936285,22/04/2023,3.0,Eier (Selveier),7058,Jakobsli
Ullevålsalléen 30,8500000,52,,1918.0,Leilighet,https://www.finn.no/realestate/homes/ad.html?finnkode=299823906,163461,59.941542,10.735419,22/04/2023,2.0,Andel,852,Oslo
Harald Posts vei 27A,4075000,134,4.0,2013.0,Tomannsbolig,https://www.finn.no/realestate/homes/ad.html?finnkode=293509539,30410,59.9298375,11.4321958,22/04/2023,,Eier (Selveier),1930,Aurskog
Øvrefoss 6G,4290000,33,2.0,1939.0,Leilighet,https://www.finn.no/realestate/homes/ad.html?finnkode=299794180,130000,59.927717,10.75735,22/04/2023,4.0,Aksje,555,Oslo
Sjøstrand 8,750000,75,3.0,1973.0,Leilighet,https://www.finn.no/realestate/homes/ad.html?finnkode=299823652,10000,59.1139619,10.2171439,22/04/2023,7.0,Obligasjon,3209,Sandefjord
Haakon Tveters vei 86,2850000,32,1.0,1963.0,Leilighet,https://www.finn.no/realestate/homes/ad.html?finnkode=299670093,89062,59.894166,10.83995,22/04/2023,9.0,Andel,686,Oslo
Stongafjellsbakken 51B,4990000,127,5.0,2015.0,Tomannsbolig,https://www.finn.no/realestate/homes/ad.html?finnkode=299823269,39291,60.4061993,5.1996573,22/04/2023,,Eier (Selveier),5301,Kleppestø
Bråtenveien 17,2950000,162,,1958.0,Tomannsbolig,https://www.finn.no/realestate/homes/ad.html?finnkode=299751883,18209,60.056829,10.062247,22/04/2023,,Eier (Selveier),3533,Tyristrand
Hebekkveien 20A,9500000,150,,2022.0,Tomannsbolig,https://www.finn.no/realestate/homes/ad.html?finnkode=299809302,63333,59.725583,10.821881,22/04/2023,,Eier (Selveier),1406,Ski
Sole allé 3,3300000,58,2.0,2008.0,Leilighet,https://www.finn.no/realestate/homes/ad.html?finnkode=299804167,56896,59.599458,10.7571236,22/04/2023,2.0,Eier (Selveier),1540,Vestby
Karl Reinsnes vei 9,3400000,174,,1957.0,Enebolig,https://www.finn.no/realestate/homes/ad.html?finnkode=265470492,19540,68.6798169,15.3894754,22/04/2023,,Eier (Selveier),8403,Sortland
Øvre Stadionveien 104,2490000,60,3.0,1951.0,Leilighet,https://www.finn.no/realestate/homes/ad.html?finnkode=299777931,41500,60.3836286,5.2958214,22/04/2023,2.0,Andel,5161,Laksevåg
Spikkelia 2C,2190000,62,,2021.0,Rekkehus,https://www.finn.no/realestate/homes/ad.html?finnkode=299822365,35322,58.417324,8.642552,22/04/2023,1.0,Eier (Selveier),4821,Rykene
Frydenlundsveien 20B,2790000,82,3.0,1957.0,Leilighet,https://www.finn.no/realestate/homes/ad.html?finnkode=299717396,34024,58.1544789,8.0113065,22/04/2023,1.0,Andel,4631,Kristiansand S
Smiuvegen 29,4950000,120,5.0,1971.0,Rekkehus,https://www.finn.no/realestate/homes/ad.html?finnkode=299661764,41250,59.953317,10.925086,22/04/2023,2.0,Andel,981,Oslo
Kvernhusveien 8A,2800000,61,3.0,1956.0,Leilighet,https://www.finn.no/realestate/homes/ad.html?finnkode=299753967,45901,60.3752719,5.2669812,22/04/2023,2.0,Eier (Selveier),5164,Laksevåg
Bakkesvingen 21,5000000,189,,1971.0,Enebolig,https://www.finn.no/realestate/homes/ad.html?finnkode=299377032,26455,60.0670262,11.137343,22/04/2023,,Eier (Selveier),2040,Kløfta
Elmholt Allé 18,7250000,81,3.0,1995.0,Leilighet,https://www.finn.no/realestate/homes/ad.html?finnkode=299821837,89506,59.922865,10.668302,22/04/2023,2.0,Eier (Selveier),275,Oslo
Trondheimsveien 32C,2490000,59,2.0,1996.0,Leilighet,https://www.finn.no/realestate/homes/ad.html?finnkode=299517463,42203,63.3090968,9.8561688,22/04/2023,2.0,Eier (Selveier),7300,Orkanger
Breivikveien 12,13700000,235,,1978.0,Enebolig,https://www.finn.no/realestate/homes/ad.html?finnkode=299821322,58297,59.8667835,10.4949831,22/04/2023,,Eier (Selveier),1394,Nesbru
Steenbergs gate 14A,3950000,224,6.0,1965.0,Tomannsbolig,https://www.finn.no/realestate/homes/ad.html?finnkode=299775857,17633,59.410591,10.459995,22/04/2023,2.0,Eier (Selveier),3188,Horten
Torvmyra 113,4090000,123,,1979.0,Enebolig,https://www.finn.no/realestate/homes/ad.html?finnkode=299781698,33252,63.3627697,10.3923643,22/04/2023,,Andel,7091,Tiller
Tømteveien 118,7390000,211,,1986.0,Enebolig,https://www.finn.no/realestate/homes/ad.html?finnkode=295239504,35023,59.9620173,10.9817131,22/04/2023,,Eier (Selveier),2013,Skjetten
Kveldetunet 27,1890000,62,,2017.0,Leilighet,https://www.finn.no/realestate/homes/ad.html?finnkode=299820802,30483,59.1912799,9.9702575,22/04/2023,2.0,Eier (Selveier),3282,Kvelde
Nordbyringen 9E,3600000,130,4.0,1969.0,Rekkehus,https://www.finn.no/realestate/homes/ad.html?finnkode=295872547,27692,60.1518472,11.1780645,22/04/2023,,Andel,2069,Jessheim
Sigurds gate 12,4980000,179,,1886.0,Enebolig,https://www.finn.no/realestate/homes/ad.html?finnkode=299820645,27821,59.0554531,10.0301659,22/04/2023,,Eier (Selveier),3256,Larvik
Stensgata 35A,5250000,54,2.0,1902.0,Leilighet,https://www.finn.no/realestate/homes/ad.html?finnkode=299820467,97222,59.932647,10.733004,22/04/2023,,Eier (Selveier),358,Oslo
Tøsdalsvegen 5,4350000,168,,1952.0,Enebolig,https://www.finn.no/realestate/homes/ad.html?finnkode=299820482,25892,60.206233,5.451041,22/04/2023,,Eier (Selveier),5210,Os
Engerjordet 32,8700000,121,,1958.0,Rekkehus,https://www.finn.no/realestate/homes/ad.html?finnkode=292662191,71900,59.900774,10.54572,22/04/2023,,Eier (Selveier),1365,Blommenholm
Søndre Rød 1B,2075000,61,3.0,1983.0,Leilighet,https://www.finn.no/realestate/homes/ad.html?finnkode=299820213,34016,59.94283,10.645443,22/04/2023,2.0,Andel,752,Oslo
Olav Duuns vei 18b,9500000,209,7.0,1928.0,Enebolig,https://www.finn.no/realestate/homes/ad.html?finnkode=282111224,45454,59.503511,10.295555,22/04/2023,,Eier (Selveier),3085,Holmestrand
Stenmalveien 6,4390000,348,,1913.0,Tomannsbolig,https://www.finn.no/realestate/homes/ad.html?finnkode=299762217,12614,59.2737522,10.4114753,22/04/2023,2.0,Eier (Selveier),3111,Tønsberg
Gonveien 1C,3090000,84,,2022.0,Leilighet,https://www.finn.no/realestate/homes/ad.html?finnkode=282660248,36785,59.038211,10.071944,22/04/2023,1.0,Andel,3261,Larvik
Mellombølgen 2,3850000,58,2.0,1958.0,Leilighet,https://www.finn.no/realestate/homes/ad.html?finnkode=299783566,66379,59.869369,10.815234,22/04/2023,3.0,Andel,1157,Oslo
Skytterveien 17,5650000,136,,1960.0,Tomannsbolig,https://www.finn.no/realestate/homes/ad.html?finnkode=297802032,41544,59.8240461,10.4635481,22/04/2023,,Eier (Selveier),1392,Vettre
Julianus Holms veg 28,4190000,67,3.0,2019.0,Leilighet,https://www.finn.no/realestate/homes/ad.html?finnkode=299511282,62537,63.443169,10.459632,22/04/2023,1.0,Eier (Selveier),7041,Trondheim
Sandalsloen 30,5800000,161,,1983.0,Rekkehus,https://www.finn.no/realestate/homes/ad.html?finnkode=299819290,36024,58.9550231,5.6861297,22/04/2023,,Eier (Selveier),4022,Stavanger
Høyenhallveien 36A,7500000,90,4.0,1966.0,Rekkehus,https://www.finn.no/realestate/homes/ad.html?finnkode=299760067,83333,59.902254,10.815062,22/04/2023,,Eier (Selveier),678,Oslo
Plogveien 33,4500000,67,3.0,1956.0,Leilighet,https://www.finn.no/realestate/homes/ad.html?finnkode=299416353,67164,59.896316,10.814452,22/04/2023,1.0,Andel,679,Oslo
Breivikdalen 61,2750000,99,4.0,2022.0,Leilighet,https://www.finn.no/realestate/homes/ad.html?finnkode=299275324,27777,60.377279,5.188329,22/04/2023,6.0,Andel,5179,Godvik
Håkons gate 70,11150000,370,,1955.0,Enebolig,https://www.finn.no/realestate/homes/ad.html?finnkode=295870116,30135,59.054942,10.048058,22/04/2023,,Eier (Selveier),3258,Larvik
Halvdan Svartes gate 38A,24500000,317,7.0,1916.0,Tomannsbolig,https://www.finn.no/realestate/homes/ad.html?finnkode=293663495,77287,59.922233,10.696127,22/04/2023,,Eier (Selveier),268,Oslo
Lundbyvegen 4,1550000,146,,1957.0,Enebolig,https://www.finn.no/realestate/homes/ad.html?finnkode=299790627,10616,60.2853353,12.1090477,22/04/2023,,Eier (Selveier),2217,Hokkåsen
Skytterveien 17C,3750000,135,,1975.0,Rekkehus,https://www.finn.no/realestate/homes/ad.html?finnkode=299818663,27777,58.9955046,10.0159187,22/04/2023,,Andel,3290,Stavern
Blystadringen 6C,4490000,93,4.0,1978.0,Leilighet,https://www.finn.no/realestate/homes/ad.html?finnkode=299665412,48279,59.9302635,11.0378907,22/04/2023,1.0,Andel,2014,Blystadlia
Libakkfaret 10 B,4000000,73,3.0,1955.0,Leilighet,https://www.finn.no/realestate/homes/ad.html?finnkode=299818235,54794,59.890148,10.803195,22/04/2023,1.0,Eier (Selveier),1184,Oslo
Skårerveien 14,6300000,110,4.0,2018.0,Leilighet,https://www.finn.no/realestate/homes/ad.html?finnkode=299242463,57272,59.941207,10.948152,22/04/2023,1.0,Eier (Selveier),1470,Lørenskog
Tyrkrisveita 3,3490000,60,3.0,1842.0,Leilighet,https://www.finn.no/realestate/homes/ad.html?finnkode=299817995,58166,63.4317414,10.3879529,22/04/2023,1.0,Eier (Selveier),7012,Trondheim
Steingata 12,3650000,126,3.0,1886.0,Enebolig,https://www.finn.no/realestate/homes/ad.html?finnkode=295868289,28968,59.051618,10.033959,22/04/2023,,Eier (Selveier),3257,Larvik
Plommeveien 3A,1890000,122,,1981.0,Leilighet,https://www.finn.no/realestate/homes/ad.html?finnkode=299817570,15491,58.1708115,8.0965509,22/04/2023,4.0,Andel,4635,Kristiansand S
Johan Sverdrups gate 4A,1690000,60,3.0,1959.0,Leilighet,https://www.finn.no/realestate/homes/ad.html?finnkode=299556177,28166,59.0531354,10.0229536,22/04/2023,3.0,Andel,3256,Larvik
Marklandsveien 1,1990000,112,4.0,1965.0,Enebolig,https://www.finn.no/realestate/homes/ad.html?finnkode=299817650,17767,66.908367,13.640557,22/04/2023,,Eier (Selveier),8146,Reipå
Kongegata 30,3980000,97,3.0,2011.0,Leilighet,https://www.finn.no/realestate/homes/ad.html?finnkode=299769432,41030,59.0548838,10.0278522,22/04/2023,2.0,Andel,3256,Larvik
Nordbyen 13,6890000,115,,1880.0,Enebolig,https://www.finn.no/realestate/homes/ad.html?finnkode=299817323,59913,59.270814,10.4016855,22/04/2023,,Eier (Selveier),3111,Tønsberg
Sevikveien 36,23900000,421,,1972.0,Enebolig,https://www.finn.no/realestate/homes/ad.html?finnkode=299817310,56769,59.176002,10.3926588,22/04/2023,,Eier (Selveier),3143,Kjøpmannskjær
Munkerekkveien 62,7990000,179,,1912.0,Enebolig,https://www.finn.no/realestate/homes/ad.html?finnkode=299817288,44636,59.2544986,10.3895815,22/04/2023,,Eier (Selveier),3128,Nøtterøy
Kristian IVs gate 32,1890000,38,,1988.0,Leilighet,https://www.finn.no/realestate/homes/ad.html?finnkode=299817206,49736,58.1482574,7.9922826,22/04/2023,1.0,Eier (Selveier),4612,Kristiansand S
Tokenesveien 1,6390000,128,,1915.0,Enebolig,https://www.finn.no/realestate/homes/ad.html?finnkode=299817270,49921,59.172345,10.373352,22/04/2023,,Eier (Selveier),3143,Kjøpmannskjær
Trudvangveien 24A,2190000,65,,1959.0,Leilighet,https://www.finn.no/realestate/homes/ad.html?finnkode=299817223,33692,59.2782132,10.4257875,22/04/2023,1.0,Andel,3117,Tønsberg
Jernbanegaten 1B,3390000,63,,2007.0,Leilighet,https://www.finn.no/realestate/homes/ad.html?finnkode=299817221,53809,59.269649,10.412235,22/04/2023,5.0,Andel,3110,Tønsberg
Kantarellen terrasse 12,3390000,75,4.0,1990.0,Leilighet,https://www.finn.no/realestate/homes/ad.html?finnkode=294112941,45200,59.848074,10.81323,22/04/2023,2.0,Andel,1286,Oslo
Gyldenløves gate 27B,3500000,103,,1955.0,Rekkehus,https://www.finn.no/realestate/homes/ad.html?finnkode=299817214,33980,59.2762343,10.4227918,22/04/2023,,Andel,3117,Tønsberg
Havørnveien 1D,4790000,100,,2016.0,Tomannsbolig,https://www.finn.no/realestate/homes/ad.html?finnkode=299817212,47900,59.254169,10.454972,22/04/2023,,Eier (Selveier),3124,Tønsberg
Sanden 8,4150000,70,3.0,2016.0,Leilighet,https://www.finn.no/realestate/homes/ad.html?finnkode=299545470,59285,59.0501393,10.024341,22/04/2023,3.0,Eier (Selveier),3264,Larvik
Konggata 53B,1550000,32,,1935.0,Leilighet,https://www.finn.no/realestate/homes/ad.html?finnkode=299816686,48437,59.7497112,10.1963383,22/04/2023,3.0,Andel,3019,Drammen
Sanden 20,2050000,77,2.0,2019.0,Leilighet,https://www.finn.no/realestate/homes/ad.html?finnkode=299786166,26623,59.049936,10.025594,22/04/2023,1.0,Andel,3264,Larvik
Kløfterhagen 13 E,5000000,75,4.0,1977.0,Rekkehus,https://www.finn.no/realestate/homes/ad.html?finnkode=298756972,66666,59.934483,10.890901,22/04/2023,,Andel,1067,Oslo
Kløversvingen 4,3500000,70,2.0,1991.0,Leilighet,https://www.finn.no/realestate/homes/ad.html?finnkode=299709922,50000,59.7615614,10.8455586,22/04/2023,2.0,Eier (Selveier),1405,Langhus
Høyåsveien 23,5190000,135,5.0,1989.0,Enebolig,https://www.finn.no/realestate/homes/ad.html?finnkode=299572808,38444,59.759118,10.814871,22/04/2023,,Eier (Selveier),1405,Langhus
Myratoppen 36,9490000,282,,2000.0,Enebolig,https://www.finn.no/realestate/homes/ad.html?finnkode=293837900,33652,59.2274178,10.9362403,22/04/2023,,Eier (Selveier),1613,Fredrikstad
Kometveien 23,6490000,205,,1971.0,Enebolig,https://www.finn.no/realestate/homes/ad.html?finnkode=249552621,31658,59.2624496,10.4454252,22/04/2023,,Eier (Selveier),3113,Tønsberg
Robert Scotts gate 78,4290000,146,5.0,1956.0,Rekkehus,https://www.finn.no/realestate/homes/ad.html?finnkode=299668206,29383,58.9482239,5.7321714,22/04/2023,,Eier (Selveier),4019,Stavanger
Askelandsvegen 73,3790000,144,5.0,2012.0,Enebolig,https://www.finn.no/realestate/homes/ad.html?finnkode=299815429,26319,60.6409947,5.1269143,22/04/2023,2.0,Eier (Selveier),5938,Sæbøvågen
Doktor Krafts gate 11B,1690000,56,2.0,2001.0,Leilighet,https://www.finn.no/realestate/homes/ad.html?finnkode=295709987,30178,58.2982971,6.6614321,22/04/2023,4.0,Eier (Selveier),4400,Flekkefjord
Høievegen 577,4150000,302,,1978.0,Enebolig,https://www.finn.no/realestate/homes/ad.html?finnkode=299764001,13741,59.4221297,5.3899295,22/04/2023,,Eier (Selveier),5563,Førresfjorden
Fredbos vei 59,3950000,81,4.0,1973.0,Leilighet,https://www.finn.no/realestate/homes/ad.html?finnkode=299631862,48765,59.8313386,10.4250829,22/04/2023,8.0,Eier (Selveier),1383,Asker
Malmvegen 19,3790000,153,5.0,1981.0,Enebolig,https://www.finn.no/realestate/homes/ad.html?finnkode=299757835,24771,58.732262,5.7294823,22/04/2023,,Eier (Selveier),4347,Lye
Veimester Kroghs gate 4A,5990000,118,,1983.0,Leilighet,https://www.finn.no/realestate/homes/ad.html?finnkode=299814776,50762,63.4313424,10.4306212,22/04/2023,3.0,Eier (Selveier),7043,Trondheim
Kalamyrveien 65A,1750000,66,3.0,2004.0,Tomannsbolig,https://www.finn.no/realestate/homes/ad.html?finnkode=299778361,26515,58.9215749,5.8439084,22/04/2023,1.0,Andel,4310,Hommersåk
Vågshaugen 65,7200000,281,,1987.0,Enebolig,https://www.finn.no/realestate/homes/ad.html?finnkode=299814830,25622,60.1725128,5.4508714,22/04/2023,,Eier (Selveier),5209,Os
Viksveien 15,3490000,163,,1959.0,Enebolig,https://www.finn.no/realestate/homes/ad.html?finnkode=299814634,21411,59.2776337,10.3329433,22/04/2023,,Eier (Selveier),3170,Sem
Øvre Smestadvei 51D,13200000,171,6.0,1987.0,Enebolig,https://www.finn.no/realestate/homes/ad.html?finnkode=299172675,77192,59.9463798,10.661768,22/04/2023,,Eier (Selveier),378,Oslo
Kristian IVs gate 21,3990000,60,,2021.0,Leilighet,https://www.finn.no/realestate/homes/ad.html?finnkode=299814517,66500,58.147661,7.990633,22/04/2023,3.0,Eier (Selveier),4612,Kristiansand S
Manesjen 3,6800000,100,3.0,2004.0,Leilighet,https://www.finn.no/realestate/homes/ad.html?finnkode=299792599,68000,60.1446807,11.1681421,22/04/2023,6.0,Eier (Selveier),2050,Jessheim
Høievegen 599,6500000,348,7.0,2003.0,Enebolig,https://www.finn.no/realestate/homes/ad.html?finnkode=299723835,18678,59.4221297,5.3899295,22/04/2023,,Eier (Selveier),5563,Førresfjorden
Snølia 5,3490000,39,2.0,2021.0,Leilighet,https://www.finn.no/realestate/homes/ad.html?finnkode=299721248,89487,59.946703,10.952525,22/04/2023,5.0,Eier (Selveier),1470,Lørenskog
Nye Stenklevvei 19,2790000,187,,1966.0,Enebolig,https://www.finn.no/realestate/homes/ad.html?finnkode=299814232,14919,58.4796806,8.7621597,22/04/2023,,Eier (Selveier),4846,Arendal
Bentsegata 8,5600000,62,3.0,1952.0,Leilighet,https://www.finn.no/realestate/homes/ad.html?finnkode=299788386,90322,59.937968,10.758813,22/04/2023,4.0,Eier (Selveier),465,Oslo
Friisebrygga 11,3390000,76,3.0,2019.0,Leilighet,https://www.finn.no/realestate/homes/ad.html?finnkode=299814243,44605,59.139739,9.649153,22/04/2023,1.0,Andel,3921,Porsgrunn
Rogalandgata 183,1490000,69,3.0,1947.0,Leilighet,https://www.finn.no/realestate/homes/ad.html?finnkode=299814153,21594,59.4213195,5.2740084,22/04/2023,1.0,Andel,5522,Haugesund
Solsletta 36,4190000,197,,1969.0,Enebolig,https://www.finn.no/realestate/homes/ad.html?finnkode=299814143,21269,58.2368111,8.1238761,22/04/2023,,Eier (Selveier),4658,Tveit
Høievegen 575,3490000,240,7.0,1979.0,Enebolig,https://www.finn.no/realestate/homes/ad.html?finnkode=299783350,14541,59.4221297,5.3899295,22/04/2023,,Eier (Selveier),5563,Førresfjorden
Blakstad hageby 31B,4250000,108,5.0,1953.0,Rekkehus,https://www.finn.no/realestate/homes/ad.html?finnkode=299801763,39351,59.8166494,10.4712841,22/04/2023,3.0,Eier (Selveier),1392,Vettre
Krohnåsvegen 53,2290000,55,3.0,1957.0,Enebolig,https://www.finn.no/realestate/homes/ad.html?finnkode=299666684,41636,60.292995,5.334848,22/04/2023,1.0,Eier (Selveier),5239,Rådal
Skiftesvikvegen 19E,2490000,51,2.0,2017.0,Leilighet,https://www.finn.no/realestate/homes/ad.html?finnkode=299683823,48823,60.406232,5.178081,22/04/2023,2.0,Eier (Selveier),5303,Follese
Myrsletta 209,3200000,46,2.0,2019.0,Leilighet,https://www.finn.no/realestate/homes/ad.html?finnkode=299731757,69565,60.142854,11.195298,22/04/2023,1.0,Eier (Selveier),2052,Jessheim
Cathinka Guldbergs veg 48,5500000,258,5.0,1997.0,Enebolig,https://www.finn.no/realestate/homes/ad.html?finnkode=299634345,21317,60.1342489,11.0165716,22/04/2023,2.0,Eier (Selveier),2034,Holter
Ytregarden 1,2450000,79,3.0,2012.0,Leilighet,https://www.finn.no/realestate/homes/ad.html?finnkode=299755639,31012,58.666224,6.715618,22/04/2023,3.0,Eier (Selveier),4440,Tonstad
Eskerhagen 39,4290000,98,,2021.0,Rekkehus,https://www.finn.no/realestate/homes/ad.html?finnkode=299813579,43775,58.740129,5.63359,22/04/2023,,Eier (Selveier),4341,Bryne
Severin Steffensens vei 14,2150000,207,6.0,1969.0,Enebolig,https://www.finn.no/realestate/homes/ad.html?finnkode=299813648,10386,70.0302513,20.9633285,22/04/2023,,Eier (Selveier),9180,Skjervøy
Naustanvegen 10,7000000,209,6.0,1977.0,Enebolig,https://www.finn.no/realestate/homes/ad.html?finnkode=299813712,33492,63.4394031,10.6474319,22/04/2023,,Eier (Selveier),7560,Vikhammer
Sandslihovden 25,6990000,196,5.0,1985.0,Enebolig,https://www.finn.no/realestate/homes/ad.html?finnkode=299666387,35663,60.2996009,5.2760969,22/04/2023,2.0,Eier (Selveier),5254,Sandsli
Belsetveien 66,5900000,95,,1974.0,Rekkehus,https://www.finn.no/realestate/homes/ad.html?finnkode=299813514,62105,59.927464,10.487936,22/04/2023,,Eier (Selveier),1348,Rykkinn
Valdersnesvegen 24,2000000,191,,1957.0,Enebolig,https://www.finn.no/realestate/homes/ad.html?finnkode=299776310,10471,60.6926398,5.0386542,22/04/2023,2.0,Eier (Selveier),5939,Sletta
Hunstadsvingen 7,3490000,60,,1900.0,Leilighet,https://www.finn.no/realestate/homes/ad.html?finnkode=271542767,58166,60.3747995,5.3477076,22/04/2023,2.0,Eier (Selveier),5053,Bergen
Spireavegen 21,3100000,133,3.0,2001.0,Rekkehus,https://www.finn.no/realestate/homes/ad.html?finnkode=299547887,23308,59.402455,5.3076392,22/04/2023,,Eier (Selveier),5535,Haugesund
Edvard Myhres veg 3G,1590000,81,3.0,1966.0,Leilighet,https://www.finn.no/realestate/homes/ad.html?finnkode=299813072,19629,59.149081,9.613882,22/04/2023,2.0,Andel,3738,Skien
Bakkavegen 3B,4490000,177,2.0,1984.0,Enebolig,https://www.finn.no/realestate/homes/ad.html?finnkode=299795588,25367,58.7705929,5.6275884,22/04/2023,3.0,Eier (Selveier),4352,Kleppe
Tristilhøgda 9,7250000,153,,2015.0,Tomannsbolig,https://www.finn.no/realestate/homes/ad.html?finnkode=299521571,47385,59.9051719,11.0847228,22/04/2023,,Eier (Selveier),2008,Fjerdingby
Eventyrveien 1A,2390000,124,,1960.0,Rekkehus,https://www.finn.no/realestate/homes/ad.html?finnkode=299812958,19274,58.1441204,7.9665292,22/04/2023,,Eier (Selveier),4629,Kristiansand S
Ortugrenden 4,4650000,121,6.0,1962.0,Tomannsbolig,https://www.finn.no/realestate/homes/ad.html?finnkode=293997506,38429,60.3405845,5.2926566,22/04/2023,3.0,Eier (Selveier),5143,Fyllingsdalen
Hans Holmboes gate 17,16500000,468,,1880.0,Andre,https://www.finn.no/realestate/homes/ad.html?finnkode=299812706,35256,60.3875012,5.3255812,22/04/2023,,Eier (Selveier),5007,Bergen
Austegardsvegen 55,4600000,210,6.0,1985.0,Enebolig,https://www.finn.no/realestate/homes/ad.html?finnkode=299766778,21904,60.3254263,5.0153809,22/04/2023,2.0,Eier (Selveier),5357,Fjell
Brochmanns gate 3,4600000,53,,1967.0,Leilighet,https://www.finn.no/realestate/homes/ad.html?finnkode=299812677,86792,59.940225,10.763003,22/04/2023,1.0,Eier (Selveier),470,Oslo
Volkedalsveien 36,3290000,205,,1973.0,Enebolig,https://www.finn.no/realestate/homes/ad.html?finnkode=299812615,16048,58.0360799,7.4131124,22/04/2023,,Eier (Selveier),4513,Mandal
Stensgata 12,3250000,29,1.0,1940.0,Leilighet,https://www.finn.no/realestate/homes/ad.html?finnkode=299797584,112068,59.929903,10.731984,22/04/2023,1.0,Eier (Selveier),358,Oslo
Søndre Rød 1A,1640000,34,2.0,1983.0,Leilighet,https://www.finn.no/realestate/homes/ad.html?finnkode=299807928,48235,59.942815,10.645192,22/04/2023,2.0,Andel,752,Oslo
Søndre Rød 1 A,2235000,76,4.0,1983.0,Leilighet,https://www.finn.no/realestate/homes/ad.html?finnkode=287500316,29407,59.942815,10.645192,22/04/2023,1.0,Andel,752,Oslo
Mjøsvegen 50,2350000,215,4.0,1964.0,Enebolig,https://www.finn.no/realestate/homes/ad.html?finnkode=299794179,10930,60.8591221,10.955277,22/04/2023,2.0,Eier (Selveier),2380,Brumunddal
Karl Halls veg 21B,6250000,180,5.0,1954.0,Tomannsbolig,https://www.finn.no/realestate/homes/ad.html?finnkode=299524218,34722,69.647135,18.930186,22/04/2023,,Eier (Selveier),9012,Tromsø
Fantoftvegen 63B,2790000,40,2.0,2023.0,Leilighet,https://www.finn.no/realestate/homes/ad.html?finnkode=299806739,69750,60.34283,5.352075,22/04/2023,2.0,Eier (Selveier),5072,Bergen
Kvednadalen 59 Klepp,2850000,81,3.0,2008.0,Leilighet,https://www.finn.no/realestate/homes/ad.html?finnkode=299712663,35185,58.7748554,5.6844771,22/04/2023,2.0,Eier (Selveier),4353,stasjon
Meljane 70,890000,110,,1962.0,Enebolig,https://www.finn.no/realestate/homes/ad.html?finnkode=256276448,8090,61.539168,7.617725,22/04/2023,,Eier (Selveier),6876,Skjolden
Rækøyveien 34,5200000,212,,1985.0,Enebolig,https://www.finn.no/realestate/homes/ad.html?finnkode=263104476,24528,68.2092323,14.4689619,22/04/2023,,Eier (Selveier),8310,Kabelvåg
Nedre Gokstadvei 26,1990000,63,3.0,1900.0,Leilighet,https://www.finn.no/realestate/homes/ad.html?finnkode=299711887,31587,59.1393113,10.2419123,22/04/2023,2.0,Eier (Selveier),3228,Sandefjord
Dronningens gate 9 B,3790000,50,2.0,1999.0,Leilighet,https://www.finn.no/realestate/homes/ad.html?finnkode=299600540,75800,67.2833671,14.3799804,22/04/2023,5.0,Eier (Selveier),8006,Bodø
Vårstien 27,4000000,145,,2012.0,Enebolig,https://www.finn.no/realestate/homes/ad.html?finnkode=299808925,27586,59.114045,11.421037,22/04/2023,1.0,Eier (Selveier),1793,Tistedal
Schanches gate 8,2650000,63,,2004.0,Leilighet,https://www.finn.no/realestate/homes/ad.html?finnkode=295873593,42063,59.1338582,10.217691,22/04/2023,1.0,Eier (Selveier),3211,Sandefjord
K.M. Nordangers vei 28,10700000,176,,1985.0,Enebolig,https://www.finn.no/realestate/homes/ad.html?finnkode=296094614,60795,59.9596301,11.0306491,22/04/2023,2.0,Eier (Selveier),2003,Lillestrøm
Kristian Bogneruds vei 2,3490000,62,2.0,1962.0,Leilighet,https://www.finn.no/realestate/homes/ad.html?finnkode=299550799,56290,59.95437,10.864276,22/04/2023,2.0,Andel,956,Oslo
Gjøvikgata 4A,4690000,54,,1996.0,Leilighet,https://www.finn.no/realestate/homes/ad.html?finnkode=299648550,86851,59.93946,10.760214,22/04/2023,6.0,Andel,470,Oslo
Kongsvegen 14,2800000,89,3.0,2008.0,Leilighet,https://www.finn.no/realestate/homes/ad.html?finnkode=299659895,31460,61.2440313,10.4375256,22/04/2023,2.0,Eier (Selveier),2636,Øyer
Klokkarsteinveien 1,6500000,189,5.0,1970.0,Enebolig,https://www.finn.no/realestate/homes/ad.html?finnkode=299767485,34391,58.9808391,5.6120063,22/04/2023,,Eier (Selveier),4073,Randaberg
Løvlia 1,5500000,177,6.0,2007.0,Enebolig,https://www.finn.no/realestate/homes/ad.html?finnkode=299563791,31073,59.6150156,11.0604411,22/04/2023,2.0,Eier (Selveier),1820,Spydeberg
Baglerfaret 4,4250000,186,5.0,1967.0,Enebolig,https://www.finn.no/realestate/homes/ad.html?finnkode=293878873,22849,59.5868365,11.1485542,22/04/2023,2.0,Eier (Selveier),1831,Askim
Tampereveien 2B,2550000,48,2.0,1962.0,Leilighet,https://www.finn.no/realestate/homes/ad.html?finnkode=299754045,53125,63.4138555,10.3508213,22/04/2023,9.0,Andel,7020,Trondheim
Østre Randøy 14,7950000,200,,2003.0,Enebolig,https://www.finn.no/realestate/homes/ad.html?finnkode=299810032,39750,58.104994,8.119675,22/04/2023,,Eier (Selveier),4639,Kristiansand S
Elgefaret 55B,13500000,163,,1979.0,Enebolig,https://www.finn.no/realestate/homes/ad.html?finnkode=299374512,82822,59.936211,10.59706,22/04/2023,2.0,Eier (Selveier),1362,Hosle
Karsrudvegen 10,1950000,97,,1976.0,Enebolig,https://www.finn.no/realestate/homes/ad.html?finnkode=299553544,20103,60.7214577,10.6438673,22/04/2023,,Eier (Selveier),2834,Raufoss
Bertha Skjolds vei 15A,5290000,90,4.0,2022.0,Leilighet,https://www.finn.no/realestate/homes/ad.html?finnkode=299809780,58777,59.279664,10.453117,22/04/2023,2.0,Eier (Selveier),3150,Tolvsrød
Dronningens gate 11,2420000,98,2.0,1930.0,Leilighet,https://www.finn.no/realestate/homes/ad.html?finnkode=278677795,24693,59.1316017,10.220775,22/04/2023,2.0,Eier (Selveier),3211,Sandefjord
Solbakkeveien 7,4500000,268,8.0,1940.0,Enebolig,https://www.finn.no/realestate/homes/ad.html?finnkode=299798066,16791,59.136457,10.2048895,22/04/2023,,Eier (Selveier),3238,Sandefjord
Holbergs gate 40,4550000,107,,1933.0,Leilighet,https://www.finn.no/realestate/homes/ad.html?finnkode=299809448,42523,58.148773,7.997449,22/04/2023,2.0,Eier (Selveier),4614,Kristiansand S
Øvre Bakklandet 4B,3690000,57,3.0,1911.0,Leilighet,https://www.finn.no/realestate/homes/ad.html?finnkode=299528393,64736,63.4244937,10.4018864,22/04/2023,1.0,Eier (Selveier),7016,Trondheim
Einar Skjæraasens vei 4,10700000,146,,1968.0,Rekkehus,https://www.finn.no/realestate/homes/ad.html?finnkode=299809017,73287,59.960203,10.685009,22/04/2023,,Eier (Selveier),782,Oslo
Thuegata 2B,2650000,83,,1984.0,Leilighet,https://www.finn.no/realestate/homes/ad.html?finnkode=299809012,31927,59.4165107,10.4804856,22/04/2023,1.0,Eier (Selveier),3181,Horten
Hasselbakken 2A,3290000,166,5.0,1960.0,Enebolig,https://www.finn.no/realestate/homes/ad.html?finnkode=299809009,19819,58.1264746,7.9407239,22/04/2023,,Eier (Selveier),4620,Kristiansand S
Sandveien 7B,4650000,238,,1955.0,Enebolig,https://www.finn.no/realestate/homes/ad.html?finnkode=267944370,19537,59.2229787,10.9279094,22/04/2023,,Eier (Selveier),1613,Fredrikstad
Hovlivegen 19,2890000,82,,2009.0,Leilighet,https://www.finn.no/realestate/homes/ad.html?finnkode=299809001,35243,62.4979675,6.2146009,22/04/2023,1.0,Eier (Selveier),6057,Ellingsøy
Brattlandsmarka 30,2890000,86,4.0,2007.0,Rekkehus,https://www.finn.no/realestate/homes/ad.html?finnkode=299805350,33604,58.619973,5.6386238,22/04/2023,2.0,Eier (Selveier),4360,Varhaug
Motlandshagen 78,4290000,145,5.0,2016.0,Enebolig,https://www.finn.no/realestate/homes/ad.html?finnkode=299787073,29586,58.655755,5.645619,22/04/2023,2.0,Eier (Selveier),4365,Nærbø
Skytterveien 5B,1800000,58,3.0,2004.0,Leilighet,https://www.finn.no/realestate/homes/ad.html?finnkode=299751724,31034,58.1067845,7.7611645,22/04/2023,,Eier (Selveier),4642,Søgne
Spångbergveien 15A,7490000,71,2.0,1920.0,Leilighet,https://www.finn.no/realestate/homes/ad.html?finnkode=298850325,105492,59.941326,10.743932,22/04/2023,1.0,Andel,853,Oslo
Bjørnebærstien 33,2590000,26,1.0,1972.0,Leilighet,https://www.finn.no/realestate/homes/ad.html?finnkode=299806233,99615,59.926723,10.481976,22/04/2023,1.0,Andel,1348,Rykkinn
Lervigbrygga 207,6100000,138,6.0,2013.0,Rekkehus,https://www.finn.no/realestate/homes/ad.html?finnkode=299777145,44202,58.9662463,5.7650871,22/04/2023,,Eier (Selveier),4014,Stavanger
Victor Ronanders veg 4 D,8490000,259,9.0,2018.0,Enebolig,https://www.finn.no/realestate/homes/ad.html?finnkode=299668276,32779,63.35295,10.344949,22/04/2023,,Eier (Selveier),7088,Heimdal
Granheimveien 6,4490000,237,,1977.0,Enebolig,https://www.finn.no/realestate/homes/ad.html?finnkode=299808272,18945,59.3050272,10.1841465,22/04/2023,,Eier (Selveier),3158,Andebu
Holmsildgata 16,4690000,173,5.0,2000.0,Leilighet,https://www.finn.no/realestate/homes/ad.html?finnkode=299763655,27109,62.3425186,5.6328698,22/04/2023,3.0,Eier (Selveier),6090,Fosnavåg
Pelvikveien 29,22000000,227,6.0,1966.0,Enebolig,https://www.finn.no/realestate/homes/ad.html?finnkode=296078385,96916,59.888652,10.62794,22/04/2023,2.0,Eier (Selveier),1367,Snarøya
Fruktveien 12A,3190000,115,,1979.0,Rekkehus,https://www.finn.no/realestate/homes/ad.html?finnkode=299807935,27739,58.1713628,8.0942606,22/04/2023,,Eier (Selveier),4635,Kristiansand S
Sageneset 52,7990000,277,,1964.0,Enebolig,https://www.finn.no/realestate/homes/ad.html?finnkode=295610035,28844,60.2527295,5.3297343,22/04/2023,,Eier (Selveier),5244,Fana
Breivikhagan 22,5490000,181,5.0,2004.0,Enebolig,https://www.finn.no/realestate/homes/ad.html?finnkode=299777925,30331,59.9050248,9.9089444,22/04/2023,2.0,Eier (Selveier),3340,Åmot
Budstikken 4,3990000,182,,1961.0,Enebolig,https://www.finn.no/realestate/homes/ad.html?finnkode=299500501,21923,58.8567672,5.769743,22/04/2023,,Eier (Selveier),4328,Sandnes
Langbryggen 23,2790000,39,,1956.0,Leilighet,https://www.finn.no/realestate/homes/ad.html?finnkode=289147405,71538,58.4586981,8.7713508,22/04/2023,3.0,Eier (Selveier),4841,Arendal
Kindsethvegen 2,6500000,220,6.0,1997.0,Enebolig,https://www.finn.no/realestate/homes/ad.html?finnkode=299712255,29545,63.4250529,10.7460802,22/04/2023,,Eier (Selveier),7550,Hommelvik
Fregattveien 1C,2090000,90,3.0,2006.0,Leilighet,https://www.finn.no/realestate/homes/ad.html?finnkode=299791768,23222,58.1013088,7.9628813,22/04/2023,2.0,Eier (Selveier),4624,Kristiansand S
Torridalsveien 18,5990000,169,4.0,1820.0,Enebolig,https://www.finn.no/realestate/homes/ad.html?finnkode=299389503,35443,58.1535758,8.0053815,22/04/2023,,Eier (Selveier),4630,Kristiansand S
Fiolveien 6,2890000,63,3.0,2016.0,Tomannsbolig,https://www.finn.no/realestate/homes/ad.html?finnkode=299636420,45873,58.1883915,8.0372615,22/04/2023,1.0,Eier (Selveier),4634,Kristiansand S
Revemyrveien 50,1990000,141,4.0,1939.0,Enebolig,https://www.finn.no/realestate/homes/ad.html?finnkode=299785469,14113,58.0841622,8.0111741,22/04/2023,,Eier (Selveier),4625,Flekkerøy
Hofsbrovegen 7,3350000,232,,1963.0,Enebolig,https://www.finn.no/realestate/homes/ad.html?finnkode=299410963,14439,60.3634637,10.5639965,22/04/2023,,Eier (Selveier),2750,Gran
Torggata 9,1090000,66,,2012.0,Leilighet,https://www.finn.no/realestate/homes/ad.html?finnkode=299807235,16515,58.7369662,5.6483507,22/04/2023,1.0,Andel,4340,Bryne
Nordre Toppe 11,1990000,56,,1973.0,Leilighet,https://www.finn.no/realestate/homes/ad.html?finnkode=299264556,35535,60.4847754,5.2720214,22/04/2023,7.0,Andel,5136,Mjølkeråen
Kornvegen 40,4690000,125,5.0,2013.0,Enebolig,https://www.finn.no/realestate/homes/ad.html?finnkode=299773361,37520,58.767612,5.629935,22/04/2023,,Eier (Selveier),4350,Kleppe
Borgundvegen 225A,4275000,142,5.0,1936.0,Leilighet,https://www.finn.no/realestate/homes/ad.html?finnkode=295868613,30105,62.4725163,6.2091242,22/04/2023,1.0,Eier (Selveier),6008,Ålesund
Motlandsmarka 138,6790000,276,,2008.0,Enebolig,https://www.finn.no/realestate/homes/ad.html?finnkode=283159470,24601,58.6563481,5.6521854,22/04/2023,,Eier (Selveier),4365,Nærbø
Markveien 22A,4790000,54,,1892.0,Leilighet,https://www.finn.no/realestate/homes/ad.html?finnkode=299806758,88703,59.924896,10.757398,22/04/2023,4.0,Andel,554,Oslo
Hagen 3,2400000,141,4.0,1961.0,Enebolig,https://www.finn.no/realestate/homes/ad.html?finnkode=299806769,17021,68.6402505,15.5438095,22/04/2023,,Eier (Selveier),8406,Sortland
Dynekilgata 15,3990000,54,2.0,1976.0,Leilighet,https://www.finn.no/realestate/homes/ad.html?finnkode=299806777,73888,59.930952,10.776633,22/04/2023,10.0,Andel,560,Oslo
Elveveien 26,3280000,62,,2013.0,Leilighet,https://www.finn.no/realestate/homes/ad.html?finnkode=299806763,52903,59.67805,10.888019,22/04/2023,1.0,Eier (Selveier),1408,Kråkstad
Fredrikke Qvams gate 19,6090000,70,,1952.0,Leilighet,https://www.finn.no/realestate/homes/ad.html?finnkode=299806760,87000,59.924904,10.747008,22/04/2023,4.0,Andel,172,Oslo
Røbergenga 24A,970000,69,,2008.0,Tomannsbolig,https://www.finn.no/realestate/homes/ad.html?finnkode=285252386,14057,60.6905055,10.3636229,22/04/2023,,Andel,2860,Hov
