address,price,area,rooms,year,type,url,price_per_m2,lat,lon,date,floor,ownership,postal_code,city
Kong Carls gate 33,7500000,259,12.0,1912.0,Tomannsbolig,https://www.finn.no/realestate/homes/ad.html?finnkode=300927950,28957,58.9620887,5.7296735,03/05/2023,,Eier (Selveier),4010,Stavanger
Nebbeveien 35,2890000,92,3.0,1973.0,Leilighet,https://www.finn.no/realestate/homes/ad.html?finnkode=301692946,31413,60.351731,5.295253,03/05/2023,2.0,Andel,5144,Fyllingsdalen
Ustedalen 171,3350000,193,5.0,1963.0,Enebolig,https://www.finn.no/realestate/homes/ad.html?finnkode=301692647,17357,60.5304412,8.1770435,03/05/2023,,Eier (Selveier),3580,Geilo
Blåklokkesvingen 47,2790000,54,,2020.0,Leilighet,https://www.finn.no/realestate/homes/ad.html?finnkode=301692312,51666,63.478352,10.944734,03/05/2023,2.0,Eier (Selveier),7507,Stjørdal
Rødstokken 8,6300000,257,,1965.0,Enebolig,https://www.finn.no/realestate/homes/ad.html?finnkode=300900830,24513,61.2251604,7.0987861,03/05/2023,2.0,Eier (Selveier),6856,Sogndal
Strandvegen 102A,3250000,45,2.0,2015.0,Leilighet,https://www.finn.no/realestate/homes/ad.html?finnkode=301542751,72222,69.6374284,18.9348034,03/05/2023,4.0,Eier (Selveier),9006,Tromsø
Nesbukta 6C,5700000,162,5.0,2019.0,Rekkehus,https://www.finn.no/realestate/homes/ad.html?finnkode=301691838,35185,59.86172,10.503177,03/05/2023,3.0,Andel,1394,Nesbru
Havreslettskogen 93,4690000,154,,2019.0,Tomannsbolig,https://www.finn.no/realestate/homes/ad.html?finnkode=293328348,30454,60.190163,10.266734,03/05/2023,,Eier (Selveier),3516,Hønefoss
Sandslimarka 33A,2950000,45,2.0,2021.0,Leilighet,https://www.finn.no/realestate/homes/ad.html?finnkode=301639269,65555,60.292303,5.281956,03/05/2023,4.0,Eier (Selveier),5254,Sandsli
Hoffsveien 90,6350000,94,3.0,1998.0,Leilighet,https://www.finn.no/realestate/homes/ad.html?finnkode=271008000,67553,59.936916,10.682807,03/05/2023,1.0,Eier (Selveier),377,Oslo
Bergveien 1B,8190000,133,,2023.0,Tomannsbolig,https://www.finn.no/realestate/homes/ad.html?finnkode=301690217,61578,60.338514,5.323095,03/05/2023,,Eier (Selveier),5152,Bønes
Dronningens gate 33,2900000,98,4.0,1956.0,Leilighet,https://www.finn.no/realestate/homes/ad.html?finnkode=301557368,29591,68.436245,17.427599,03/05/2023,4.0,Eier (Selveier),8514,Narvik
Blomstervegen 35A,3490000,71,3.0,1972.0,Leilighet,https://www.finn.no/realestate/homes/ad.html?finnkode=301573204,49154,59.9370757,11.0595736,03/05/2023,4.0,Andel,2005,Rælingen
Øvre Eikervei 6,3400000,107,4.0,1870.0,Leilighet,https://www.finn.no/realestate/homes/ad.html?finnkode=262051336,31775,59.7465708,10.1620092,03/05/2023,3.0,Eier (Selveier),3048,Drammen
Stokkedalslien 89,4990000,133,,1982.0,Rekkehus,https://www.finn.no/realestate/homes/ad.html?finnkode=301689446,37518,60.3290001,5.2869202,03/05/2023,,Andel,5155,Bønes
Stadionveien 9,2190000,71,3.0,1990.0,Leilighet,https://www.finn.no/realestate/homes/ad.html?finnkode=301667825,30845,60.3841634,5.2995368,03/05/2023,2.0,Andel,5162,Laksevåg
Hernesvegen 408,27000000,535,,1756.0,Gårdsbruk/Småbruk,https://www.finn.no/realestate/homes/ad.html?finnkode=300211393,50467,60.9280667,11.6518745,03/05/2023,,Eier (Selveier),2410,Hernes
Nordregata 2,1995000,53,3.0,2021.0,Leilighet,https://www.finn.no/realestate/homes/ad.html?finnkode=293445458,37641,63.470692,10.917953,03/05/2023,1.0,Andel,7504,Stjørdal
Plogveien 33,4500000,75,3.0,1956.0,Leilighet,https://www.finn.no/realestate/homes/ad.html?finnkode=301534432,60000,59.896316,10.814452,03/05/2023,2.0,Andel,679,Oslo
Wernersholmvegen 43,6490000,208,8.0,1929.0,Enebolig,https://www.finn.no/realestate/homes/ad.html?finnkode=297899828,31201,60.3313732,5.3426177,03/05/2023,3.0,Eier (Selveier),5232,Paradis
Ole Aasveds veg 6,2550000,80,4.0,2003.0,Leilighet,https://www.finn.no/realestate/homes/ad.html?finnkode=301687949,31875,63.4089492,10.4530293,03/05/2023,3.0,Andel,7049,Trondheim
Midthågen 25,4950000,208,5.0,2019.0,Enebolig,https://www.finn.no/realestate/homes/ad.html?finnkode=301688035,23798,68.3757277,17.6029715,03/05/2023,2.0,Eier (Selveier),8522,Beisfjord
Malmvegen 86,2235000,59,2.0,1974.0,Leilighet,https://www.finn.no/realestate/homes/ad.html?finnkode=301664717,37881,69.6796825,19.0812119,03/05/2023,2.0,Andel,9022,Krokelvdalen
Håkons gate 12,5500000,83,,1912.0,Leilighet,https://www.finn.no/realestate/homes/ad.html?finnkode=301687324,66265,60.793603,11.072824,03/05/2023,4.0,Eier (Selveier),2317,Hamar
Drivhusvegen 5,3450000,52,3.0,2017.0,Leilighet,https://www.finn.no/realestate/homes/ad.html?finnkode=301646613,66346,63.397197,10.341678,03/05/2023,1.0,Eier (Selveier),7024,Trondheim
Platous gate 31,490000,15,,2010.0,Garasje/Parkering,https://www.finn.no/realestate/homes/ad.html?finnkode=301533552,32666,59.910485,10.764505,03/05/2023,,Eier (Selveier),190,Oslo
Presteheia 97,2590000,51,,2006.0,Leilighet,https://www.finn.no/realestate/homes/ad.html?finnkode=294282618,50784,58.1643432,8.011733,03/05/2023,1.0,Andel,4633,Kristiansand S
Osebergveien 13,2390000,52,2.0,1990.0,Leilighet,https://www.finn.no/realestate/homes/ad.html?finnkode=301663880,45961,58.9893937,5.6770789,03/05/2023,3.0,Eier (Selveier),4028,Stavanger
Glesnesvegen 136,1750000,177,5.0,1987.0,Enebolig,https://www.finn.no/realestate/homes/ad.html?finnkode=301650827,9887,60.2044563,5.0396734,03/05/2023,2.0,Eier (Selveier),5381,Glesvær
Jernbanegata 6 B,2150000,80,3.0,2004.0,Leilighet,https://www.finn.no/realestate/homes/ad.html?finnkode=301504899,26875,67.2625093,15.3929603,03/05/2023,2.0,Andel,8200,Fauske
Skolegata 2,1290000,51,2.0,2011.0,Leilighet,https://www.finn.no/realestate/homes/ad.html?finnkode=288788557,25294,59.0448171,9.6968822,03/05/2023,1.0,Andel,3960,Stathelle
Emmausveien 27,3190000,135,,1959.0,Tomannsbolig,https://www.finn.no/realestate/homes/ad.html?finnkode=301678099,23629,58.9631929,5.7597915,03/05/2023,4.0,Eier (Selveier),4015,Stavanger
Vøyensvingen 16D,3500000,28,1.0,1950.0,Leilighet,https://www.finn.no/realestate/homes/ad.html?finnkode=301655031,125000,59.93183,10.753479,03/05/2023,2.0,Andel,458,Oslo
Lønnåskollen 30,27500000,389,6.0,1990.0,Enebolig,https://www.finn.no/realestate/homes/ad.html?finnkode=301685078,70694,59.942639,10.59477,03/05/2023,,Eier (Selveier),1362,Hosle
Balsnesvegen 3,3390000,65,3.0,1952.0,Leilighet,https://www.finn.no/realestate/homes/ad.html?finnkode=271364264,52153,69.6333039,18.9178528,03/05/2023,1.0,Eier (Selveier),9006,Tromsø
Sandvedøygarden 50,5690000,204,5.0,2014.0,Rekkehus,https://www.finn.no/realestate/homes/ad.html?finnkode=301684758,27892,58.8398643,5.7204316,03/05/2023,3.0,Eier (Selveier),4318,Sandnes
Langbergan 61 Mo i,7800000,208,,2015.0,Enebolig,https://www.finn.no/realestate/homes/ad.html?finnkode=295837766,37500,66.2848138,14.0854582,03/05/2023,,Eier (Selveier),8618,Rana
Stokkelandlia 15,6800000,204,6.0,2006.0,Enebolig,https://www.finn.no/realestate/homes/ad.html?finnkode=301684329,33333,58.8154159,5.7458018,03/05/2023,3.0,Eier (Selveier),4324,Sandnes
Kastellbakken 11B,12500000,165,6.0,1991.0,Enebolig,https://www.finn.no/realestate/homes/ad.html?finnkode=301029634,75757,59.868415,10.790461,03/05/2023,,Eier (Selveier),1162,Oslo
Håvundvegen 90A,1740000,59,,1928.0,Leilighet,https://www.finn.no/realestate/homes/ad.html?finnkode=287929214,29491,59.2120021,9.6170776,03/05/2023,1.0,Eier (Selveier),3715,Skien
Prestegårdsjordet 5,6200000,318,,1955.0,Enebolig,https://www.finn.no/realestate/homes/ad.html?finnkode=301684244,19496,59.7446089,10.3840205,03/05/2023,,Eier (Selveier),3440,Røyken
Flatåsen 26,16990000,215,5.0,2005.0,Enebolig,https://www.finn.no/realestate/homes/ad.html?finnkode=293477360,79023,59.6598959,10.6330617,03/05/2023,2.0,Eier (Selveier),1440,Drøbak
Nansenveien 22,1750000,73,3.0,1963.0,Leilighet,https://www.finn.no/realestate/homes/ad.html?finnkode=301540769,23972,60.1697065,10.2720076,03/05/2023,4.0,Andel,3513,Hønefoss
Lilandsvegen 9,4190000,78,3.0,2006.0,Leilighet,https://www.finn.no/realestate/homes/ad.html?finnkode=301593716,53717,60.2845491,5.2525918,03/05/2023,2.0,Andel,5258,Blomsterdalen
Stangelandsvegen 367,7990000,311,3.0,1997.0,Gårdsbruk/Småbruk,https://www.finn.no/realestate/homes/ad.html?finnkode=300875004,25691,58.808035,5.608824,03/05/2023,,Eier (Selveier),4354,Voll
Breivikveien 15,2250000,52,,2007.0,Leilighet,https://www.finn.no/realestate/homes/ad.html?finnkode=301683472,43269,58.9655645,5.7598576,03/05/2023,2.0,Andel,4014,Stavanger
Reinsholm 4G,1090000,68,,2012.0,Leilighet,https://www.finn.no/realestate/homes/ad.html?finnkode=288057689,16029,63.7928573,11.4913618,03/05/2023,2.0,Andel,7654,Verdal
Molovegen 48,1790000,234,4.0,1965.0,Enebolig,https://www.finn.no/realestate/homes/ad.html?finnkode=295851179,7649,59.6643832,5.6589157,03/05/2023,,Eier (Selveier),5584,Bjoa
Sandslibakken 115,8290000,208,8.0,1998.0,Enebolig,https://www.finn.no/realestate/homes/ad.html?finnkode=301682761,39855,60.3073017,5.2759981,03/05/2023,,Eier (Selveier),5253,Sandsli
Apalvikvegen 82,2990000,212,6.0,1968.0,Enebolig,https://www.finn.no/realestate/homes/ad.html?finnkode=271252601,14103,59.6648052,5.6687673,03/05/2023,,Eier (Selveier),5584,Bjoa
Nedre Nøttveit 6,4450000,140,,1955.0,Enebolig,https://www.finn.no/realestate/homes/ad.html?finnkode=301682628,31785,60.2984868,5.3446459,03/05/2023,,Eier (Selveier),5238,Rådal
Nedreskodjevegen 1,2900000,117,,2003.0,Leilighet,https://www.finn.no/realestate/homes/ad.html?finnkode=301642920,24786,62.5050713,6.6849155,03/05/2023,1.0,Eier (Selveier),6260,Skodje
Carl Johans gate 6,4190000,66,,1986.0,Leilighet,https://www.finn.no/realestate/homes/ad.html?finnkode=301682426,63484,63.434004,10.3987124,03/05/2023,3.0,Eier (Selveier),7010,Trondheim
Øyaveien 34,3950000,198,5.0,1970.0,Enebolig,https://www.finn.no/realestate/homes/ad.html?finnkode=292112882,19949,59.959518,9.9967689,03/05/2023,3.0,Eier (Selveier),3370,Vikersund
Stasjonsvegen 26,4500000,95,4.0,2014.0,Leilighet,https://www.finn.no/realestate/homes/ad.html?finnkode=301681562,47368,58.617221,5.6460721,03/05/2023,5.0,Eier (Selveier),4360,Varhaug
Bakkalykkja 51,4650000,176,4.0,1986.0,Tomannsbolig,https://www.finn.no/realestate/homes/ad.html?finnkode=300921430,26420,61.1034467,10.4884884,03/05/2023,3.0,Eier (Selveier),2614,Lillehammer
Borgavegen 50,9990000,476,8.0,1895.0,Gårdsbruk/Småbruk,https://www.finn.no/realestate/homes/ad.html?finnkode=237701868,20987,60.1964991,5.4733359,03/05/2023,,Eier (Selveier),5211,Os
Julusdalsvegen 420,2380000,380,3.0,1950.0,Gårdsbruk/Småbruk,https://www.finn.no/realestate/homes/ad.html?finnkode=301681029,6263,61.025587,11.731942,03/05/2023,2.0,Eier (Selveier),2410,Hernes
Bølgeveien 16 Sande i,8890000,105,4.0,2014.0,Leilighet,https://www.finn.no/realestate/homes/ad.html?finnkode=300472222,84666,59.5605759,10.2702904,03/05/2023,6.0,Eier (Selveier),3077,Vestfold
Hanaveien 15,2490000,66,2.0,1991.0,Leilighet,https://www.finn.no/realestate/homes/ad.html?finnkode=301607487,37727,58.85364,5.750798,03/05/2023,1.0,Eier (Selveier),4327,Sandnes
Batteriveien 80,6390000,213,6.0,2021.0,Enebolig,https://www.finn.no/realestate/homes/ad.html?finnkode=301680563,30000,64.849516,11.207553,03/05/2023,2.0,Eier (Selveier),7900,Rørvik
Sundts veg 50B,3200000,55,2.0,2011.0,Leilighet,https://www.finn.no/realestate/homes/ad.html?finnkode=301680293,58181,60.3152658,5.3404727,03/05/2023,2.0,Eier (Selveier),5221,Nesttun
Brulia 21,5690000,299,,1958.0,Enebolig,https://www.finn.no/realestate/homes/ad.html?finnkode=295595224,19030,60.1561389,11.4188592,03/05/2023,2.0,Eier (Selveier),2160,Vormsund
Fiolveien 17B,1890000,52,2.0,1978.0,Leilighet,https://www.finn.no/realestate/homes/ad.html?finnkode=301672400,36346,59.0111036,9.7262021,03/05/2023,2.0,Andel,3970,Langesund
Abelværvegen 223,1680000,173,4.0,1968.0,Enebolig,https://www.finn.no/realestate/homes/ad.html?finnkode=285534037,9710,64.793734,11.42201,03/05/2023,,Eier (Selveier),7970,Kolvereid
Setra vei 9 A,16900000,189,7.0,1979.0,Enebolig,https://www.finn.no/realestate/homes/ad.html?finnkode=278357683,89417,59.958787,10.665702,03/05/2023,,Eier (Selveier),786,Oslo
Årvollveien 10,15590000,344,9.0,1972.0,Enebolig,https://www.finn.no/realestate/homes/ad.html?finnkode=301679858,45319,59.944691,10.807929,03/05/2023,,Eier (Selveier),590,Oslo
Styrmannsveien 1,6750000,238,,1954.0,Tomannsbolig,https://www.finn.no/realestate/homes/ad.html?finnkode=301678758,28361,58.9885787,5.7336641,03/05/2023,,Eier (Selveier),4077,Hundvåg
Krokstien 5D,2390000,87,,1971.0,Leilighet,https://www.finn.no/realestate/homes/ad.html?finnkode=301679786,27471,59.2804816,11.0487879,03/05/2023,1.0,Andel,1718,Greåker
Nordåsbrotet 12,2950000,98,4.0,1984.0,Leilighet,https://www.finn.no/realestate/homes/ad.html?finnkode=294852759,30102,60.3052261,5.307247,03/05/2023,2.0,Andel,5235,Rådal
Fururingen 29,6200000,196,5.0,2014.0,Enebolig,https://www.finn.no/realestate/homes/ad.html?finnkode=301671408,31632,60.1677571,10.9896204,03/05/2023,2.0,Eier (Selveier),2033,Åsgreina
Bøkkerveien 30,5990000,64,3.0,2016.0,Leilighet,https://www.finn.no/realestate/homes/ad.html?finnkode=294238360,93593,59.9281653,10.7926945,03/05/2023,2.0,Eier (Selveier),579,Oslo
Gamle Trondheimsvei 19B,5980000,240,6.0,1981.0,Tomannsbolig,https://www.finn.no/realestate/homes/ad.html?finnkode=296493707,24916,59.976164,10.9320757,03/05/2023,2.0,Eier (Selveier),1481,Hagan
Nedre Borgvin 23 Bø i,3800000,205,,1987.0,Tomannsbolig,https://www.finn.no/realestate/homes/ad.html?finnkode=301678373,18536,59.4024413,9.0764521,03/05/2023,,Eier (Selveier),3801,Telemark
Gneisvegen 129,2450000,62,2.0,1973.0,Leilighet,https://www.finn.no/realestate/homes/ad.html?finnkode=301603744,39516,69.6835204,19.0730305,03/05/2023,2.0,Andel,9022,Krokelvdalen
Lille Skjolddalen 17,6990000,158,,1958.0,Enebolig,https://www.finn.no/realestate/homes/ad.html?finnkode=301678044,44240,60.3079916,5.3487093,03/05/2023,,Eier (Selveier),5222,Nesttun
Sørhaugveien 21,4490000,144,,2015.0,Rekkehus,https://www.finn.no/realestate/homes/ad.html?finnkode=300732513,31180,58.8250217,5.7569302,03/05/2023,,Eier (Selveier),4336,Sandnes
Erkleivvegen 15,5290000,198,,1964.0,Enebolig,https://www.finn.no/realestate/homes/ad.html?finnkode=301677980,26717,58.2683295,7.9753169,03/05/2023,,Eier (Selveier),4700,Vennesla
Klæbuveien 145 D,3990000,67,,1955.0,Leilighet,https://www.finn.no/realestate/homes/ad.html?finnkode=301677169,59552,63.4218048,10.3990155,03/05/2023,2.0,Aksje,7030,Trondheim
Skauveiåsen 2,2990000,163,,1959.0,Enebolig,https://www.finn.no/realestate/homes/ad.html?finnkode=301676632,18343,58.4517573,8.7482995,03/05/2023,2.0,Eier (Selveier),4839,Arendal
Gislemyrveien 2C,1690000,74,3.0,1962.0,Leilighet,https://www.finn.no/realestate/homes/ad.html?finnkode=301676721,22837,58.1301124,7.9589968,03/05/2023,6.0,Andel,4621,Kristiansand S
Osloveien 715 Ytre,7500000,272,10.0,1982.0,Enebolig,https://www.finn.no/realestate/homes/ad.html?finnkode=301656485,27573,59.7702805,10.9850108,03/05/2023,,Eier (Selveier),1914,Enebakk
Lukas Skogsås gate 4,2690000,121,3.0,1949.0,Tomannsbolig,https://www.finn.no/realestate/homes/ad.html?finnkode=301667075,22231,65.837477,13.200206,03/05/2023,1.0,Eier (Selveier),8657,Mosjøen
Barkåkerveien 13G,1990000,68,,1990.0,Leilighet,https://www.finn.no/realestate/homes/ad.html?finnkode=301656371,29264,59.321574,10.395549,03/05/2023,2.0,Eier (Selveier),3157,Barkåker
Vestengaten 38,3850000,153,,1961.0,Enebolig,https://www.finn.no/realestate/homes/ad.html?finnkode=299541806,25163,59.2646037,11.0644141,03/05/2023,2.0,Eier (Selveier),1659,Torp
Kalbakkveien 21,3600000,73,3.0,1961.0,Leilighet,https://www.finn.no/realestate/homes/ad.html?finnkode=301675833,49315,59.9534,10.876909,03/05/2023,2.0,Andel,953,Oslo
Bjørndalsgrend 3,5490000,154,7.0,1967.0,Enebolig,https://www.finn.no/realestate/homes/ad.html?finnkode=301675708,35649,60.3537599,5.24205,03/05/2023,,Eier (Selveier),5170,Bjørndalstræ
Fredrikke Qvams veg 17B,3490000,65,3.0,1962.0,Leilighet,https://www.finn.no/realestate/homes/ad.html?finnkode=301578363,53692,63.4294378,10.444456,03/05/2023,3.0,Andel,7046,Trondheim
Kristofer Jansons vei 27,3490000,64,3.0,1955.0,Leilighet,https://www.finn.no/realestate/homes/ad.html?finnkode=301406449,54531,60.358822,5.3635767,03/05/2023,3.0,Aksje,5089,Bergen
Vardekroken 2,6300000,144,5.0,1994.0,Enebolig,https://www.finn.no/realestate/homes/ad.html?finnkode=301675310,43750,60.0185866,11.047615,03/05/2023,,Eier (Selveier),2020,Skedsmokorset
Nattfiolen 21,4090000,127,4.0,2016.0,Leilighet,https://www.finn.no/realestate/homes/ad.html?finnkode=301597880,32204,59.5162671,10.2810673,03/05/2023,2.0,Eier (Selveier),3086,Holmestrand
Stryken 45,5600000,142,,1994.0,Enebolig,https://www.finn.no/realestate/homes/ad.html?finnkode=293079626,39436,59.7745199,9.9164351,03/05/2023,,Eier (Selveier),3303,Hokksund
Waldemars hage 6,3850000,29,2.0,2005.0,Leilighet,https://www.finn.no/realestate/homes/ad.html?finnkode=301549054,132758,59.927151,10.753276,03/05/2023,5.0,Eier (Selveier),175,Oslo
Julsborg 17,4750000,205,,2002.0,Enebolig,https://www.finn.no/realestate/homes/ad.html?finnkode=301674905,23170,63.736445,11.2441765,03/05/2023,,Eier (Selveier),7607,Levanger
Ryggveien 11,7200000,237,5.0,2002.0,Enebolig,https://www.finn.no/realestate/homes/ad.html?finnkode=297493556,30379,58.9979775,5.6301786,03/05/2023,,Eier (Selveier),4070,Randaberg
Blåklokkeveien 36,2200000,65,,1956.0,Leilighet,https://www.finn.no/realestate/homes/ad.html?finnkode=301630602,33846,59.129122,11.370088,03/05/2023,1.0,Eier (Selveier),1781,Halden
Refsnesalleen 83D,2790000,67,3.0,1965.0,Leilighet,https://www.finn.no/realestate/homes/ad.html?finnkode=301674628,41641,59.4456872,10.6182687,03/05/2023,2.0,Andel,1518,Moss
Myrvangen 4B Mo i,2600000,130,4.0,1969.0,Leilighet,https://www.finn.no/realestate/homes/ad.html?finnkode=301596133,20000,66.326038,14.195383,03/05/2023,,Andel,8613,Rana
Unnelandsvegen 444,5190000,279,,1936.0,Enebolig,https://www.finn.no/realestate/homes/ad.html?finnkode=301674664,18602,60.3708085,5.4735287,03/05/2023,,Eier (Selveier),5267,Espeland
Vei 238 40,1950000,24,2.0,1997.0,Leilighet,https://www.finn.no/realestate/homes/ad.html?finnkode=301662977,81250,78.217906,15.6346527,03/05/2023,2.0,Eier (Selveier),9170,Longyearbyen
Kirkegaten 12,2790000,40,,1914.0,Leilighet,https://www.finn.no/realestate/homes/ad.html?finnkode=301674268,69750,60.4068796,5.3262277,03/05/2023,2.0,Andel,5036,Bergen
Nedre Vaulabakken 16,4200000,195,6.0,1974.0,Enebolig,https://www.finn.no/realestate/homes/ad.html?finnkode=301673679,21538,58.767225,5.873258,03/05/2023,,Eier (Selveier),4331,Ålgård
Nygaten 1,690000,19,,1999.0,Leilighet,https://www.finn.no/realestate/homes/ad.html?finnkode=301673263,36315,58.462081,8.763765,03/05/2023,3.0,Eier (Selveier),4838,Arendal
Søster Mathildes gate 15,4800000,100,4.0,2010.0,Leilighet,https://www.finn.no/realestate/homes/ad.html?finnkode=298632962,48000,59.919761,10.948331,03/05/2023,1.0,Eier (Selveier),1461,Lørenskog
Kristian Bings vei 15,3190000,75,3.0,1999.0,Leilighet,https://www.finn.no/realestate/homes/ad.html?finnkode=301547933,42533,60.3648406,5.3369379,03/05/2023,1.0,Eier (Selveier),5073,Bergen
Snøhvitvegen 1,2500000,134,4.0,1975.0,Rekkehus,https://www.finn.no/realestate/homes/ad.html?finnkode=301667635,18656,60.2058577,11.9753054,03/05/2023,,Andel,2212,Kongsvinger
Spondalen 59,5190000,94,3.0,2022.0,Leilighet,https://www.finn.no/realestate/homes/ad.html?finnkode=301672237,55212,60.466102,5.300264,03/05/2023,2.0,Eier (Selveier),5121,Ulset
Myrdalskogen 415,5990000,180,,1986.0,Enebolig,https://www.finn.no/realestate/homes/ad.html?finnkode=301672152,33277,60.4680209,5.3062912,03/05/2023,,Eier (Selveier),5117,Ulset
Tangenveien 21 Ytre,3940000,95,,1973.0,Enebolig,https://www.finn.no/realestate/homes/ad.html?finnkode=260319912,41473,59.7388695,11.0009941,03/05/2023,,Eier (Selveier),1914,Enebakk
Bølerlia 35,3600000,68,3.0,1955.0,Leilighet,https://www.finn.no/realestate/homes/ad.html?finnkode=301507989,52941,59.880954,10.845081,03/05/2023,2.0,Andel,691,Oslo
Myrullveien 11B,2050000,72,,1994.0,Leilighet,https://www.finn.no/realestate/homes/ad.html?finnkode=301668559,28472,68.7023361,15.4026965,03/05/2023,,Eier (Selveier),8403,Sortland
Steinsvikvegen 272,5500000,93,3.0,2018.0,Leilighet,https://www.finn.no/realestate/homes/ad.html?finnkode=301572590,59139,60.301165,5.309977,03/05/2023,3.0,Eier (Selveier),5237,Rådal
Kråkefotveien 7B,2800000,98,3.0,1982.0,Rekkehus,https://www.finn.no/realestate/homes/ad.html?finnkode=300732071,28571,69.959002,23.384348,03/05/2023,2.0,Andel,9516,Alta
Stensåsveien 33,2290000,125,5.0,1948.0,Enebolig,https://www.finn.no/realestate/homes/ad.html?finnkode=300874470,18320,58.4725169,8.7593631,03/05/2023,3.0,Eier (Selveier),4846,Arendal
Lauritz Hervigs vei 88E,2365000,79,4.0,1967.0,Leilighet,https://www.finn.no/realestate/homes/ad.html?finnkode=296491270,29936,59.7167221,10.2250112,03/05/2023,3.0,Andel,3035,Drammen
Nygårdsveien 1,3750000,83,3.0,2020.0,Leilighet,https://www.finn.no/realestate/homes/ad.html?finnkode=301642564,45180,59.572211,11.179498,03/05/2023,2.0,Eier (Selveier),1814,Askim
Nordlykkja 3,6990000,212,6.0,2016.0,Enebolig,https://www.finn.no/realestate/homes/ad.html?finnkode=297364185,32971,63.3035253,10.1525633,03/05/2023,,Eier (Selveier),7350,Buvika
Gammevegen 115,3400000,291,9.0,1962.0,Enebolig,https://www.finn.no/realestate/homes/ad.html?finnkode=301670554,11683,60.34311,10.5412619,03/05/2023,3.0,Eier (Selveier),2750,Gran
Vestre Torggaten 12B,3690000,46,,2005.0,Leilighet,https://www.finn.no/realestate/homes/ad.html?finnkode=301670557,80217,60.3900492,5.3221515,03/05/2023,5.0,Andel,5015,Bergen
Hans Nordahls gate 66,6650000,75,3.0,2016.0,Leilighet,https://www.finn.no/realestate/homes/ad.html?finnkode=286169125,88666,59.942206,10.7791893,03/05/2023,4.0,Eier (Selveier),485,Oslo
Høyåsvegen 48,3690000,158,7.0,1969.0,Enebolig,https://www.finn.no/realestate/homes/ad.html?finnkode=301670161,23354,59.2046245,9.5690366,03/05/2023,,Eier (Selveier),3727,Skien
Smestadenga 19,5700000,101,4.0,2014.0,Leilighet,https://www.finn.no/realestate/homes/ad.html?finnkode=301531878,56435,61.1297699,10.4525157,03/05/2023,2.0,Eier (Selveier),2619,Lillehammer
Vilhelm Bjerknes' vei 14A,2990000,76,3.0,1966.0,Leilighet,https://www.finn.no/realestate/homes/ad.html?finnkode=301669680,39342,60.3559,5.358949,03/05/2023,3.0,Andel,5081,Bergen
Klostergata 72 E,3450000,46,2.0,1995.0,Leilighet,https://www.finn.no/realestate/homes/ad.html?finnkode=301610354,75000,63.4248697,10.3845633,03/05/2023,4.0,Eier (Selveier),7030,Trondheim
Vorlandsvegen 120,2690000,151,5.0,1946.0,Enebolig,https://www.finn.no/realestate/homes/ad.html?finnkode=300906362,17814,59.6126684,5.2234381,03/05/2023,3.0,Eier (Selveier),5443,Bømlo
Ulvegjelsvegen 23,3890000,142,,1967.0,Enebolig,https://www.finn.no/realestate/homes/ad.html?finnkode=300760592,27394,58.0383384,7.4418096,03/05/2023,,Eier (Selveier),4517,Mandal
Frøsholmvegen 7,4700000,153,4.0,1988.0,Enebolig,https://www.finn.no/realestate/homes/ad.html?finnkode=301628883,30718,58.9382366,5.5714798,03/05/2023,,Eier (Selveier),4056,Tananger
Gamlevegen 3C,2490000,90,,1980.0,Leilighet,https://www.finn.no/realestate/homes/ad.html?finnkode=301668936,27666,60.234475,5.45336,03/05/2023,1.0,Eier (Selveier),5212,Søfteland
Valmueveien 5,4000000,155,,1961.0,Enebolig,https://www.finn.no/realestate/homes/ad.html?finnkode=301668941,25806,59.7712223,9.8865554,03/05/2023,,Eier (Selveier),3302,Hokksund
Gerhard Grans vei 45,8500000,149,5.0,1964.0,Enebolig,https://www.finn.no/realestate/homes/ad.html?finnkode=301668922,57046,60.351204,5.3637189,03/05/2023,3.0,Eier (Selveier),5094,Bergen
Lerkeveien 7,6800000,282,7.0,1936.0,Enebolig,https://www.finn.no/realestate/homes/ad.html?finnkode=301508361,24113,59.422204,10.664154,03/05/2023,,Eier (Selveier),1524,Moss
Neuberggata 6 E,3750000,42,,1918.0,Leilighet,https://www.finn.no/realestate/homes/ad.html?finnkode=301668271,89285,59.92557,10.713723,03/05/2023,2.0,Aksje,367,Oslo
Julianus Holms veg 62,3990000,65,,2016.0,Leilighet,https://www.finn.no/realestate/homes/ad.html?finnkode=301668275,61384,63.4417255,10.4610981,03/05/2023,2.0,Eier (Selveier),7041,Trondheim
Fantoftvegen 36,3190000,64,2.0,1993.0,Leilighet,https://www.finn.no/realestate/homes/ad.html?finnkode=293700413,49843,60.3421859,5.3547499,03/05/2023,2.0,Eier (Selveier),5072,Bergen
Odelsvegen 9,3990000,65,,2017.0,Leilighet,https://www.finn.no/realestate/homes/ad.html?finnkode=301668035,61384,60.142742,11.160339,03/05/2023,5.0,Eier (Selveier),2063,Jessheim
Garvergata 8A,1950000,82,3.0,1911.0,Leilighet,https://www.finn.no/realestate/homes/ad.html?finnkode=301667446,23780,59.125511,11.391394,03/05/2023,2.0,Eier (Selveier),1772,Halden
Osebrogata 1,6500000,643,,1750.0,Andre,https://www.finn.no/realestate/homes/ad.html?finnkode=301667481,10108,59.142765,9.658506,03/05/2023,,Eier (Selveier),3915,Porsgrunn
Damsgårdsveien 69,3590000,48,,2014.0,Leilighet,https://www.finn.no/realestate/homes/ad.html?finnkode=301666946,74791,60.380414,5.322998,03/05/2023,5.0,Eier (Selveier),5058,Bergen
Skaratoppen 2A,3090000,73,3.0,2014.0,Leilighet,https://www.finn.no/realestate/homes/ad.html?finnkode=301604566,42328,58.8398999,5.7733172,03/05/2023,1.0,Eier (Selveier),4326,Sandnes
Brattbakken 6,1950000,167,4.0,1954.0,Enebolig,https://www.finn.no/realestate/homes/ad.html?finnkode=301565199,11676,59.2781863,9.2699188,03/05/2023,,Eier (Selveier),3830,Ulefoss
Ølberg Havneveg 40,3700000,240,6.0,1952.0,Enebolig,https://www.finn.no/realestate/homes/ad.html?finnkode=277976901,15416,58.8639492,5.5694842,03/05/2023,3.0,Eier (Selveier),4053,Ræge
Myrvollkroken 42,4800000,74,4.0,2022.0,Rekkehus,https://www.finn.no/realestate/homes/ad.html?finnkode=300770117,64864,59.90609,11.087414,03/05/2023,2.0,Eier (Selveier),2008,Fjerdingby
Skøyen terrasse 31,7000000,95,,1983.0,Leilighet,https://www.finn.no/realestate/homes/ad.html?finnkode=290623613,73684,59.926014,10.683418,03/05/2023,1.0,Eier (Selveier),276,Oslo
Karolinerveien 1C,2290000,33,,1967.0,Leilighet,https://www.finn.no/realestate/homes/ad.html?finnkode=301666533,69393,63.4105919,10.3585738,03/05/2023,4.0,Andel,7021,Trondheim
Monstrølia 61,1690000,194,,,Enebolig,https://www.finn.no/realestate/homes/ad.html?finnkode=301665958,8711,63.253162,10.946489,03/05/2023,,Eier (Selveier),7584,Selbustrand
Herman Foss gate 10,3300000,69,,2012.0,Leilighet,https://www.finn.no/realestate/homes/ad.html?finnkode=301665736,47826,59.6717461,9.6495285,03/05/2023,2.0,Eier (Selveier),3611,Kongsberg
Frøytunveien 3D,22500000,143,4.0,2015.0,Leilighet,https://www.finn.no/realestate/homes/ad.html?finnkode=301665035,157342,59.9156421,10.5880303,03/05/2023,4.0,Eier (Selveier),1357,Bekkestua
Sanddalsvegen 13B,6500000,103,4.0,2015.0,Leilighet,https://www.finn.no/realestate/homes/ad.html?finnkode=301655127,63106,60.3217471,5.3555505,03/05/2023,2.0,Eier (Selveier),5221,Nesttun
Jernbaneveien 99,5400000,85,3.0,1995.0,Leilighet,https://www.finn.no/realestate/homes/ad.html?finnkode=301665099,63529,59.907029,10.600163,03/05/2023,3.0,Eier (Selveier),1369,Stabekk
Røyskattvegen 36,2350000,133,,1976.0,Enebolig,https://www.finn.no/realestate/homes/ad.html?finnkode=301665142,17669,59.2280688,9.5553037,03/05/2023,,Eier (Selveier),3741,Skien
Helgerødveien 210,11950000,2107,,1959.0,Enebolig,https://www.finn.no/realestate/homes/ad.html?finnkode=272784011,5671,59.1541013,10.3037798,03/05/2023,,Eier (Selveier),3233,Sandefjord
Alvestadtunet 32,5790000,203,,2022.0,Enebolig,https://www.finn.no/realestate/homes/ad.html?finnkode=260544724,28522,59.142962,9.612763,03/05/2023,,Eier (Selveier),3739,Skien
Kyavegen 8,2035000,47,2.0,1940.0,Leilighet,https://www.finn.no/realestate/homes/ad.html?finnkode=298617230,43297,63.4317963,10.4453858,03/05/2023,1.0,Andel,7045,Trondheim
Christen Smiths gate 5,3590000,75,3.0,1900.0,Leilighet,https://www.finn.no/realestate/homes/ad.html?finnkode=300267753,47866,59.737108,10.19475,03/05/2023,,Eier (Selveier),3045,Drammen
Larssons vei 1,2650000,84,,1953.0,Leilighet,https://www.finn.no/realestate/homes/ad.html?finnkode=301664345,31547,59.731363,9.8860147,03/05/2023,2.0,Eier (Selveier),3320,Vestfossen
Holenveien 8,4750000,164,4.0,1954.0,Enebolig,https://www.finn.no/realestate/homes/ad.html?finnkode=277707749,28963,59.9248573,11.1503247,03/05/2023,,Eier (Selveier),1900,Fetsund
Frognervegen 18,3600000,150,,1900.0,Enebolig,https://www.finn.no/realestate/homes/ad.html?finnkode=276147179,24000,59.2120936,9.6129107,03/05/2023,,Eier (Selveier),3715,Skien
Tølløfsrudlia 23,10500000,350,,2019.0,Enebolig,https://www.finn.no/realestate/homes/ad.html?finnkode=285013290,30000,61.097503,10.535864,03/05/2023,,Eier (Selveier),2611,Lillehammer
Vesterøyveien 28,1650000,85,3.0,2008.0,Leilighet,https://www.finn.no/realestate/homes/ad.html?finnkode=293204018,19411,59.1255492,10.2405564,03/05/2023,3.0,Andel,3235,Sandefjord
Bakkaunvegen 1,5500000,114,5.0,1931.0,Leilighet,https://www.finn.no/realestate/homes/ad.html?finnkode=301533739,48245,63.435918,10.4346,03/05/2023,2.0,Eier (Selveier),7068,Trondheim
Blåtoppveien 31,5890000,122,,1997.0,Rekkehus,https://www.finn.no/realestate/homes/ad.html?finnkode=287739894,48278,59.9911609,10.903171,03/05/2023,3.0,Eier (Selveier),1481,Hagan
Smedasundet 55,2490000,80,2.0,2001.0,Leilighet,https://www.finn.no/realestate/homes/ad.html?finnkode=301583995,31125,59.4063913,5.2756852,03/05/2023,1.0,Eier (Selveier),5528,Haugesund
Vingolfveien 33A,9850000,91,3.0,1985.0,Tomannsbolig,https://www.finn.no/realestate/homes/ad.html?finnkode=301526534,108241,59.864067,10.786566,03/05/2023,1.0,Eier (Selveier),1170,Oslo
Edderdunvegen 177,2750000,59,3.0,2004.0,Leilighet,https://www.finn.no/realestate/homes/ad.html?finnkode=300875536,46610,69.646405,18.9076496,03/05/2023,3.0,Andel,9013,Tromsø
Pilestredet 55E,12900000,150,4.0,1893.0,Leilighet,https://www.finn.no/realestate/homes/ad.html?finnkode=295566672,86000,59.922875,10.731827,03/05/2023,4.0,Eier (Selveier),350,Oslo
Skrubblivegen 13A,3275000,211,,1970.0,Enebolig,https://www.finn.no/realestate/homes/ad.html?finnkode=301662721,15521,63.9944074,11.4710807,03/05/2023,2.0,Eier (Selveier),7712,Steinkjer
Åsheimveien 135,3490000,52,2.0,2001.0,Leilighet,https://www.finn.no/realestate/homes/ad.html?finnkode=300850663,67115,59.919663,10.945248,03/05/2023,2.0,Eier (Selveier),1461,Lørenskog
Veråsvegen 59 A,3990000,184,,1958.0,Enebolig,https://www.finn.no/realestate/homes/ad.html?finnkode=263960371,21684,58.290411,7.990139,03/05/2023,,Eier (Selveier),4707,Vennesla
Stabelvollen 2E,1590000,65,,2002.0,Leilighet,https://www.finn.no/realestate/homes/ad.html?finnkode=301662336,24461,63.7505345,11.307022,03/05/2023,2.0,Andel,7600,Levanger
Haugerudveien 34,3900000,99,3.0,1968.0,Leilighet,https://www.finn.no/realestate/homes/ad.html?finnkode=299674672,39393,59.920336,10.855532,03/05/2023,4.0,Andel,674,Oslo
Frydenbølien 22,3690000,96,,1978.0,Leilighet,https://www.finn.no/realestate/homes/ad.html?finnkode=301662248,38437,60.3804065,5.311838,03/05/2023,5.0,Andel,5056,Bergen
Øykhagen 3,1790000,40,2.0,2012.0,Leilighet,https://www.finn.no/realestate/homes/ad.html?finnkode=301653655,44750,58.923786,5.8526153,03/05/2023,2.0,Eier (Selveier),4311,Hommersåk
Skulehusbrekka 10,5500000,220,6.0,2008.0,Enebolig,https://www.finn.no/realestate/homes/ad.html?finnkode=301544253,25000,60.097506,5.227132,03/05/2023,2.0,Eier (Selveier),5392,Storebø
Sjøveien 1,2290000,66,,1953.0,Leilighet,https://www.finn.no/realestate/homes/ad.html?finnkode=299555994,34696,59.2407661,10.4252574,03/05/2023,2.0,Andel,3120,Nøtterøy
Holmsætervegen 15,2890000,192,3.0,,Gårdsbruk/Småbruk,https://www.finn.no/realestate/homes/ad.html?finnkode=282189653,15052,61.3161881,10.3274108,03/05/2023,2.0,Eier (Selveier),2635,Tretten
Mjølkevegen 6,1700000,167,,1962.0,Enebolig,https://www.finn.no/realestate/homes/ad.html?finnkode=301661276,10179,61.2411449,7.7251491,03/05/2023,,Eier (Selveier),6885,Årdalstangen
Margrethe Thomsets veg 5,2690000,41,,2014.0,Leilighet,https://www.finn.no/realestate/homes/ad.html?finnkode=301661208,65609,63.3908618,10.4373924,03/05/2023,2.0,Eier (Selveier),7036,Trondheim
Lindevika 31,2800000,77,3.0,2006.0,Leilighet,https://www.finn.no/realestate/homes/ad.html?finnkode=298503419,36363,60.086314,5.245216,03/05/2023,1.0,Eier (Selveier),5392,Storebø
Trondheimsveien 58,5800000,58,2.0,1993.0,Leilighet,https://www.finn.no/realestate/homes/ad.html?finnkode=301542322,100000,59.922596,10.770891,03/05/2023,7.0,Eier (Selveier),565,Oslo
Birkelandsveien,1890000,97,4.0,1890.0,Enebolig,https://www.finn.no/realestate/homes/ad.html?finnkode=301558305,19484,58.32675,8.238961,03/05/2023,2.0,Eier (Selveier),1220,Birkeland
Trygve Strømbergs vei 18A,4740000,112,5.0,1980.0,Rekkehus,https://www.finn.no/realestate/homes/ad.html?finnkode=298546910,42321,59.827723,10.813128,03/05/2023,,Eier (Selveier),1263,Oslo
Nordre Drotningsvik 12,5990000,220,,1978.0,Enebolig,https://www.finn.no/realestate/homes/ad.html?finnkode=301660065,27227,60.3729891,5.1765692,03/05/2023,,Eier (Selveier),5179,Godvik
Ortuflaten 92,2990000,73,,1973.0,Leilighet,https://www.finn.no/realestate/homes/ad.html?finnkode=301659584,40958,60.3457936,5.2921728,03/05/2023,2.0,Andel,5143,Fyllingsdalen
Gravarsbråtet 7,3750000,198,5.0,1994.0,Enebolig,https://www.finn.no/realestate/homes/ad.html?finnkode=300970793,18939,58.8487824,5.7506125,03/05/2023,3.0,Eier (Selveier),4327,Sandnes
Bruerveien 23,5790000,147,,2015.0,Enebolig,https://www.finn.no/realestate/homes/ad.html?finnkode=288849766,39387,59.5412253,10.7457965,03/05/2023,2.0,Eier (Selveier),1550,Hølen
Heimdalsåsen 52,3950000,122,4.0,2023.0,Rekkehus,https://www.finn.no/realestate/homes/ad.html?finnkode=301640212,32377,59.363183,10.141702,03/05/2023,2.0,Eier (Selveier),3158,Andebu
Fiskeholsvegen 20,3950000,162,6.0,1951.0,Enebolig,https://www.finn.no/realestate/homes/ad.html?finnkode=299360119,24382,58.9104545,5.6673297,03/05/2023,,Eier (Selveier),4052,Røyneberg
Johan Nygaardsvolds vei 15,4790000,158,5.0,1958.0,Enebolig,https://www.finn.no/realestate/homes/ad.html?finnkode=299553606,30316,63.3545045,10.3654362,03/05/2023,2.0,Eier (Selveier),7072,Heimdal
Hans Hagerups gate 10,5890000,153,5.0,1912.0,Leilighet,https://www.finn.no/realestate/homes/ad.html?finnkode=273129646,38496,63.42986,10.386238,03/05/2023,5.0,Eier (Selveier),7012,Trondheim
Steinsvikvegen 266,4700000,75,3.0,2017.0,Leilighet,https://www.finn.no/realestate/homes/ad.html?finnkode=301308522,62666,60.30151,5.308827,03/05/2023,4.0,Eier (Selveier),5237,Rådal
Bergeberget 163,1400000,179,,1958.0,Enebolig,https://www.finn.no/realestate/homes/ad.html?finnkode=301658550,7821,61.0076741,11.7873256,03/05/2023,,Eier (Selveier),2410,Hernes
Skolemesterveien 11,4400000,73,3.0,2020.0,Leilighet,https://www.finn.no/realestate/homes/ad.html?finnkode=299879155,60273,60.05591,10.871355,03/05/2023,1.0,Eier (Selveier),1482,Nittedal
Nygårdsveien 71A,2190000,74,3.0,2010.0,Leilighet,https://www.finn.no/realestate/homes/ad.html?finnkode=301658146,29594,58.473958,8.778379,03/05/2023,1.0,Eier (Selveier),4844,Arendal
Brubakken 4,3250000,52,2.0,2018.0,Leilighet,https://www.finn.no/realestate/homes/ad.html?finnkode=301535940,62500,61.118078,10.46176,03/05/2023,1.0,Eier (Selveier),2615,Lillehammer
Nergata 14,3690000,77,3.0,2004.0,Leilighet,https://www.finn.no/realestate/homes/ad.html?finnkode=301527758,47922,63.109069,7.746084,03/05/2023,5.0,Andel,6516,Kristiansund N
Hammerstads gate 30,5250000,50,2.0,1916.0,Leilighet,https://www.finn.no/realestate/homes/ad.html?finnkode=301657777,105000,59.931653,10.717669,03/05/2023,4.0,Aksje,363,Oslo
Ringveien 9B,2350000,84,,1972.0,Leilighet,https://www.finn.no/realestate/homes/ad.html?finnkode=301652180,27976,60.1650617,10.2442648,03/05/2023,1.0,Andel,3517,Hønefoss
Hamang terrasse 55,4700000,64,3.0,1986.0,Leilighet,https://www.finn.no/realestate/homes/ad.html?finnkode=299943659,73437,59.896127,10.502343,03/05/2023,1.0,Eier (Selveier),1336,Sandvika
Bergliveien 33,3490000,80,4.0,1935.0,Tomannsbolig,https://www.finn.no/realestate/homes/ad.html?finnkode=301657025,43625,59.7544969,10.157336,03/05/2023,2.0,Eier (Selveier),3023,Drammen
Gydas gate 15,3800000,317,,1929.0,Enebolig,https://www.finn.no/realestate/homes/ad.html?finnkode=285222320,11987,59.1956418,9.612756,03/05/2023,,Eier (Selveier),3732,Skien
Gamle Strømsvei 33,4490000,76,3.0,1924.0,Tomannsbolig,https://www.finn.no/realestate/homes/ad.html?finnkode=301648426,59078,59.943907,11.0168501,03/05/2023,1.0,Eier (Selveier),1467,Strømmen
Langarinden 150,6500000,320,9.0,1988.0,Enebolig,https://www.finn.no/realestate/homes/ad.html?finnkode=301617517,20312,60.4741898,5.3493084,03/05/2023,3.0,Eier (Selveier),5132,Nyborg
Steigenveien 163,1950000,197,5.0,1983.0,Enebolig,https://www.finn.no/realestate/homes/ad.html?finnkode=301656223,9898,67.895769,15.284526,03/05/2023,2.0,Eier (Selveier),8288,Bogøy
Thomas Heftyes gate 46B,6690000,62,3.0,1899.0,Leilighet,https://www.finn.no/realestate/homes/ad.html?finnkode=301417195,107903,59.919307,10.702863,03/05/2023,5.0,Eier (Selveier),267,Oslo
Olav Trygvasons gate 6B,6250000,174,4.0,1979.0,Enebolig,https://www.finn.no/realestate/homes/ad.html?finnkode=274702776,35919,67.2788919,14.3943648,03/05/2023,2.0,Eier (Selveier),8007,Bodø
JAMTLANDSVEGEN,2900000,2100,,1935.0,Andre,https://www.finn.no/realestate/homes/ad.html?finnkode=301642047,1380,63.7113639,11.8730967,03/05/2023,,Eier (Selveier),2322,Vuku
Hønsveien 107A,11890000,188,6.0,1939.0,Enebolig,https://www.finn.no/realestate/homes/ad.html?finnkode=301655247,63244,59.8428951,10.4450296,03/05/2023,,Eier (Selveier),1384,Asker
Gammelgårdvegen 30,10200000,319,8.0,2002.0,Enebolig,https://www.finn.no/realestate/homes/ad.html?finnkode=285519733,31974,69.6262808,18.9545378,03/05/2023,,Eier (Selveier),9020,Tromsdalen
Knarreviktoppen 21,4250000,166,4.0,1979.0,Rekkehus,https://www.finn.no/realestate/homes/ad.html?finnkode=301605911,25602,58.1463295,8.0607008,03/05/2023,1.0,Eier (Selveier),4637,Kristiansand S
Smalgangen 2B/C,8100000,240,,2007.0,Enebolig,https://www.finn.no/realestate/homes/ad.html?finnkode=271534975,33750,59.3486438,10.4697754,03/05/2023,3.0,Eier (Selveier),3179,Åsgårdstrand
Almåsgrenda 17,4850000,209,6.0,1966.0,Enebolig,https://www.finn.no/realestate/homes/ad.html?finnkode=300433235,23205,60.505131,5.3524993,03/05/2023,,Eier (Selveier),5109,Hylkje
Møllendalsveien 68D,5590000,78,3.0,2015.0,Leilighet,https://www.finn.no/realestate/homes/ad.html?finnkode=301654042,71666,60.380448,5.352505,03/05/2023,1.0,Eier (Selveier),5009,Bergen
Skolejordet 4,8750000,197,6.0,2017.0,Enebolig,https://www.finn.no/realestate/homes/ad.html?finnkode=290553143,44416,59.9080773,11.0983454,03/05/2023,,Eier (Selveier),2008,Fjerdingby
Vingnesenga 15A,3150000,128,4.0,1950.0,Tomannsbolig,https://www.finn.no/realestate/homes/ad.html?finnkode=301533030,24609,61.106303,10.436634,03/05/2023,2.0,Eier (Selveier),2608,Lillehammer
Astraveien 10,4990000,136,,1978.0,Enebolig,https://www.finn.no/realestate/homes/ad.html?finnkode=301389536,36691,58.949699,5.6997037,03/05/2023,2.0,Andel,4021,Stavanger
Ekervegen 5D,2700000,68,3.0,2002.0,Leilighet,https://www.finn.no/realestate/homes/ad.html?finnkode=301502222,39705,60.219996,11.0149393,03/05/2023,2.0,Eier (Selveier),2030,Nannestad
Opsalvegen 86,3400000,68,2.0,2013.0,Leilighet,https://www.finn.no/realestate/homes/ad.html?finnkode=286191393,50000,59.9008578,11.0920478,03/05/2023,1.0,Eier (Selveier),2008,Fjerdingby
Øvrejordet 32,3290000,130,4.0,1963.0,Tomannsbolig,https://www.finn.no/realestate/homes/ad.html?finnkode=301652574,25307,59.7599582,10.1104052,03/05/2023,,Eier (Selveier),3028,Drammen
Sørhauggata 205,1390000,46,,1910.0,Leilighet,https://www.finn.no/realestate/homes/ad.html?finnkode=268571220,30217,59.4161714,5.26625,03/05/2023,3.0,Eier (Selveier),5525,Haugesund
Trondenesveien 78,1180000,29,2.0,1958.0,Leilighet,https://www.finn.no/realestate/homes/ad.html?finnkode=290608668,40689,68.8138133,16.5459225,03/05/2023,2.0,Eier (Selveier),9404,Harstad
Palle Rosenkrantz gate 20,4990000,124,3.0,1938.0,Tomannsbolig,https://www.finn.no/realestate/homes/ad.html?finnkode=301506220,40241,58.1499062,7.975644,03/05/2023,,Eier (Selveier),4616,Kristiansand S
Solbergskogen 2B,2350000,84,3.0,1971.0,Leilighet,https://www.finn.no/realestate/homes/ad.html?finnkode=301517172,27976,59.4990834,10.3010554,03/05/2023,3.0,Andel,3085,Holmestrand
Magne Henriksens veg 5,3600000,84,3.0,2013.0,Leilighet,https://www.finn.no/realestate/homes/ad.html?finnkode=301507367,42857,61.132472,10.445876,03/05/2023,1.0,Eier (Selveier),2619,Lillehammer
Midtveien 16 A,12450000,155,,2023.0,Enebolig,https://www.finn.no/realestate/homes/ad.html?finnkode=297690744,80322,59.934137,10.822386,03/05/2023,,Eier (Selveier),583,Oslo
Salongbakken 37,6175000,139,,2023.0,Rekkehus,https://www.finn.no/realestate/homes/ad.html?finnkode=301650746,44424,59.921042,11.19261,03/05/2023,,Eier (Selveier),1900,Fetsund
Jon Smørs vei 9A,13950000,225,7.0,1961.0,Enebolig,https://www.finn.no/realestate/homes/ad.html?finnkode=259749820,62000,59.873337,10.529868,03/05/2023,2.0,Eier (Selveier),1397,Nesøya
Borgelia 8,2590000,116,,1976.0,Leilighet,https://www.finn.no/realestate/homes/ad.html?finnkode=300854213,22327,59.1612435,9.6644477,03/05/2023,1.0,Eier (Selveier),3711,Skien
Ladeveien 20,5150000,82,,2020.0,Leilighet,https://www.finn.no/realestate/homes/ad.html?finnkode=301650343,62804,63.442164,10.434631,03/05/2023,2.0,Eier (Selveier),7066,Trondheim
Baglerkollen 3A,3490000,91,4.0,2014.0,Leilighet,https://www.finn.no/realestate/homes/ad.html?finnkode=297575412,38351,59.35938,10.292184,03/05/2023,2.0,Eier (Selveier),3174,Revetal
Mandalls gate 12,6490000,69,4.0,2006.0,Leilighet,https://www.finn.no/realestate/homes/ad.html?finnkode=301536978,94057,59.911043,10.76373,03/05/2023,5.0,Eier (Selveier),190,Oslo
Øvre Eidstredet 3,7500000,194,,1850.0,Enebolig,https://www.finn.no/realestate/homes/ad.html?finnkode=301649875,38659,59.0528999,10.011095,03/05/2023,,Eier (Selveier),3264,Larvik
Feltspatveien 86,4990000,160,,2017.0,Enebolig,https://www.finn.no/realestate/homes/ad.html?finnkode=301649688,31187,58.18537,8.098904,03/05/2023,,Eier (Selveier),4656,Hamresanden
Tangeodden 22,6400000,219,,2004.0,Enebolig,https://www.finn.no/realestate/homes/ad.html?finnkode=289119789,29223,59.762033,9.961079,03/05/2023,,Eier (Selveier),3053,Steinberg
Kråvasslia 2B,1850000,71,3.0,1989.0,Leilighet,https://www.finn.no/realestate/homes/ad.html?finnkode=296661857,26056,60.4599705,5.37206,03/05/2023,2.0,Andel,5134,Flaktveit
Øvre Rælingsveg 88A,5500000,96,,1921.0,Enebolig,https://www.finn.no/realestate/homes/ad.html?finnkode=301555964,57291,59.9424636,11.0498828,03/05/2023,,Eier (Selveier),2005,Rælingen
Direktør Poulsonsgate 13,4890000,236,7.0,1937.0,Enebolig,https://www.finn.no/realestate/homes/ad.html?finnkode=301495165,20720,59.0193448,6.0410094,03/05/2023,3.0,Eier (Selveier),4100,Jørpeland
Rødborge 26,3900000,165,,1970.0,Enebolig,https://www.finn.no/realestate/homes/ad.html?finnkode=301647818,23636,59.1617282,9.6628649,03/05/2023,,Eier (Selveier),3711,Skien
Furuveien 6,3700000,250,6.0,1964.0,Enebolig,https://www.finn.no/realestate/homes/ad.html?finnkode=301647801,14800,59.622045,9.685581,03/05/2023,2.0,Eier (Selveier),3619,Skollenborg
Nye Sædalsveien 141,2400000,33,2.0,2015.0,Leilighet,https://www.finn.no/realestate/homes/ad.html?finnkode=301647477,72727,60.3426781,5.3841319,03/05/2023,3.0,Eier (Selveier),5099,Bergen
Lupinveien 27,3400000,83,,2005.0,Enebolig,https://www.finn.no/realestate/homes/ad.html?finnkode=301647209,40963,58.8605704,5.714254,03/05/2023,,Eier (Selveier),4316,Sandnes
Eldshovden 7B,4500000,122,4.0,1991.0,Rekkehus,https://www.finn.no/realestate/homes/ad.html?finnkode=301523717,36885,60.3050419,5.2771609,03/05/2023,2.0,Eier (Selveier),5252,Søreidgrend
Middelthuns gate 17E,6900000,58,,2022.0,Leilighet,https://www.finn.no/realestate/homes/ad.html?finnkode=298260871,118965,59.927751,10.710824,03/05/2023,4.0,Eier (Selveier),368,Oslo
Stavangerveien 32C,3450000,73,,2016.0,Leilighet,https://www.finn.no/realestate/homes/ad.html?finnkode=301645737,47260,58.873588,5.727662,03/05/2023,4.0,Eier (Selveier),4313,Sandnes
Øverbygda 28,2100000,129,,1963.0,Enebolig,https://www.finn.no/realestate/homes/ad.html?finnkode=300731413,16279,62.7852149,7.5096469,03/05/2023,,Eier (Selveier),6450,Hjelset
Hals' gate 18,3890000,142,4.0,1996.0,Leilighet,https://www.finn.no/realestate/homes/ad.html?finnkode=273200052,27394,59.285772,11.113452,03/05/2023,3.0,Andel,1707,Sarpsborg
Manesjen 5,4690000,97,3.0,2002.0,Leilighet,https://www.finn.no/realestate/homes/ad.html?finnkode=301646515,48350,60.1449719,11.1678901,03/05/2023,3.0,Eier (Selveier),2050,Jessheim
Vargveien 8,23000000,203,,1981.0,Enebolig,https://www.finn.no/realestate/homes/ad.html?finnkode=301609388,113300,59.870377,10.776223,03/05/2023,2.0,Eier (Selveier),139,Oslo
Gimleveien 29,2950000,175,6.0,1911.0,Enebolig,https://www.finn.no/realestate/homes/ad.html?finnkode=301646210,16857,59.1362535,11.3951967,03/05/2023,,Eier (Selveier),1786,Halden
Birger Ruuds vei 8,4700000,230,5.0,1979.0,Enebolig,https://www.finn.no/realestate/homes/ad.html?finnkode=301645855,20434,59.6555294,9.6631953,03/05/2023,,Eier (Selveier),3610,Kongsberg
Lilleruts vei 99 C,5950000,53,,2011.0,Leilighet,https://www.finn.no/realestate/homes/ad.html?finnkode=301645829,112264,59.8881256,10.6160441,03/05/2023,1.0,Eier (Selveier),1364,Fornebu
Planetvegen 389,3500000,92,,1978.0,Leilighet,https://www.finn.no/realestate/homes/ad.html?finnkode=301644509,38043,69.671385,19.047288,03/05/2023,1.0,Andel,9024,Tomasjord
Parkgata 12,3020000,64,3.0,1938.0,Leilighet,https://www.finn.no/realestate/homes/ad.html?finnkode=272132736,47187,60.172922,10.261138,03/05/2023,2.0,Eier (Selveier),3513,Hønefoss
Storbakkvegen 71,4300000,78,3.0,2020.0,Tomannsbolig,https://www.finn.no/realestate/homes/ad.html?finnkode=301644173,55128,69.624026,18.952319,03/05/2023,1.0,Eier (Selveier),9020,Tromsdalen
Benjaminsveien 5,4890000,79,3.0,2007.0,Leilighet,https://www.finn.no/realestate/homes/ad.html?finnkode=301536443,61898,63.411019,10.351542,03/05/2023,3.0,Eier (Selveier),7020,Trondheim
Fagerlia 33,5950000,133,3.0,1935.0,Tomannsbolig,https://www.finn.no/realestate/homes/ad.html?finnkode=301518672,44736,59.745056,10.22692,03/05/2023,2.0,Eier (Selveier),3011,Drammen
Storestraumen 293C,3850000,74,4.0,2022.0,Leilighet,https://www.finn.no/realestate/homes/ad.html?finnkode=301642452,52027,60.223781,5.452688,03/05/2023,1.0,Eier (Selveier),5212,Søfteland
Sognaveien 10B,4275000,98,3.0,2019.0,Leilighet,https://www.finn.no/realestate/homes/ad.html?finnkode=294334362,43622,59.819328,10.195675,03/05/2023,4.0,Eier (Selveier),3404,Lier
Strandveien 121,1400000,233,,1955.0,Enebolig,https://www.finn.no/realestate/homes/ad.html?finnkode=299756997,6008,66.84426,13.755641,03/05/2023,3.0,Eier (Selveier),8149,Neverdal
Dyrmyrgata 44,4800000,248,6.0,1950.0,Enebolig,https://www.finn.no/realestate/homes/ad.html?finnkode=301308764,19354,59.677204,9.642274,03/05/2023,2.0,Eier (Selveier),3611,Kongsberg
Markveien 7C,2600000,74,3.0,2005.0,Leilighet,https://www.finn.no/realestate/homes/ad.html?finnkode=301538802,35135,69.9688063,23.2734213,03/05/2023,3.0,Andel,9510,Alta
Jordbærsletta 30,6190000,93,3.0,2003.0,Leilighet,https://www.finn.no/realestate/homes/ad.html?finnkode=291714715,66559,59.8057816,10.79737,03/05/2023,2.0,Eier (Selveier),1410,Kolbotn
Plommedalsveien 16,15800000,253,7.0,1925.0,Enebolig,https://www.finn.no/realestate/homes/ad.html?finnkode=301565263,62450,59.8098393,10.4747101,03/05/2023,4.0,Eier (Selveier),1390,Vollen
Trevardeli 2A,3990000,218,,1975.0,Enebolig,https://www.finn.no/realestate/homes/ad.html?finnkode=289953585,18302,59.3545665,5.3256283,03/05/2023,,Eier (Selveier),5545,Vormedal
MAJORSTUVEIEN 36,6000000,100,,1978.0,Garasje/Parkering,https://www.finn.no/realestate/homes/ad.html?finnkode=301602016,60000,59.92803,10.715174,03/05/2023,,Eier (Selveier),367,Oslo
Torskroken 11,3550000,76,3.0,2004.0,Leilighet,https://www.finn.no/realestate/homes/ad.html?finnkode=300458014,46710,59.8233108,10.1991432,03/05/2023,2.0,Eier (Selveier),3404,Lier
Bjørnenga 23,11300000,91,3.0,2017.0,Leilighet,https://www.finn.no/realestate/homes/ad.html?finnkode=300839921,124175,59.891071,10.605651,03/05/2023,2.0,Eier (Selveier),1364,Fornebu
Tuengen allé 18C,32500000,518,,2014.0,Enebolig,https://www.finn.no/realestate/homes/ad.html?finnkode=275886413,62741,59.937649,10.697088,03/05/2023,,Eier (Selveier),374,Oslo
Søråshøgda 271,5290000,134,4.0,1981.0,Rekkehus,https://www.finn.no/realestate/homes/ad.html?finnkode=300741183,39477,60.3036156,5.3178618,03/05/2023,2.0,Andel,5235,Rådal
Vettaliveien 4A,19750000,232,,1988.0,Enebolig,https://www.finn.no/realestate/homes/ad.html?finnkode=301639920,85129,59.962906,10.689841,03/05/2023,,Eier (Selveier),781,Oslo
Ådnavegen 54 Indre,9390000,146,6.0,2017.0,Leilighet,https://www.finn.no/realestate/homes/ad.html?finnkode=295209835,64315,60.421682,5.4695372,03/05/2023,7.0,Andel,5260,Arna
Livegen 18,10500000,224,,2018.0,Produksjon/Industri,https://www.finn.no/realestate/homes/ad.html?finnkode=301639802,46875,59.3516487,7.3547797,03/05/2023,,Eier (Selveier),4754,Bykle
Hamangskogen 103,11500000,163,4.0,1984.0,Leilighet,https://www.finn.no/realestate/homes/ad.html?finnkode=301572864,70552,59.897015,10.506738,03/05/2023,3.0,Eier (Selveier),1338,Sandvika
Hagehaugvegen 1,2150000,33,2.0,1970.0,Leilighet,https://www.finn.no/realestate/homes/ad.html?finnkode=266830909,65151,61.0976784,10.4753733,03/05/2023,2.0,Eier (Selveier),2613,Lillehammer
Bråstadlina 275,2950000,227,,1868.0,Enebolig,https://www.finn.no/realestate/homes/ad.html?finnkode=301638771,12995,58.4564201,8.6801991,03/05/2023,,Eier (Selveier),4824,Bjorbekk
Furutun 43,2700000,138,5.0,1991.0,Rekkehus,https://www.finn.no/realestate/homes/ad.html?finnkode=301637909,19565,61.6003462,5.0667625,03/05/2023,,Andel,6907,Florø
Jorvardeveien 35,3990000,194,,1986.0,Enebolig,https://www.finn.no/realestate/homes/ad.html?finnkode=301637511,20567,58.268039,8.5051347,03/05/2023,,Eier (Selveier),4888,Homborsund
Åstveittunet 27 Øvre,3190000,97,,1991.0,Rekkehus,https://www.finn.no/realestate/homes/ad.html?finnkode=297596217,32886,60.4504813,5.3168055,03/05/2023,,Eier (Selveier),5106,Ervik
Sletteheia 86,2750000,108,,1993.0,Enebolig,https://www.finn.no/realestate/homes/ad.html?finnkode=301636149,25462,58.4748171,8.807989,03/05/2023,,Eier (Selveier),4842,Arendal
Kirkeveien 61,6500000,160,,1959.0,Enebolig,https://www.finn.no/realestate/homes/ad.html?finnkode=301635793,40625,59.909716,10.562495,03/05/2023,,Eier (Selveier),1363,Høvik
Eiksveien 7,5750000,84,4.0,1949.0,Leilighet,https://www.finn.no/realestate/homes/ad.html?finnkode=301635143,68452,59.948621,10.616256,03/05/2023,2.0,Eier (Selveier),1359,Eiksmarka
Hudøveien 8,4200000,219,,1963.0,Enebolig,https://www.finn.no/realestate/homes/ad.html?finnkode=293427666,19178,59.1164925,10.3914998,03/05/2023,,Eier (Selveier),3145,Tjøme
Leikvollveien 27,11500000,241,,1984.0,Enebolig,https://www.finn.no/realestate/homes/ad.html?finnkode=301634870,47717,59.8273807,10.4437869,03/05/2023,,Eier (Selveier),1387,Asker
Bjørnebærstien 15,4450000,91,4.0,1971.0,Leilighet,https://www.finn.no/realestate/homes/ad.html?finnkode=301634607,48901,59.925425,10.483401,03/05/2023,2.0,Eier (Selveier),1348,Rykkinn
Østgårdsvegen 50A,4250000,181,,2003.0,Enebolig,https://www.finn.no/realestate/homes/ad.html?finnkode=301634585,23480,60.872274,10.963054,03/05/2023,2.0,Eier (Selveier),2380,Brumunddal
Spinderiveien 19,3990000,104,,1997.0,Leilighet,https://www.finn.no/realestate/homes/ad.html?finnkode=295725039,38365,59.7667342,10.0752877,03/05/2023,,Andel,3057,Solbergelva
Nord-Østerdalsveien,1590000,236,6.0,1900.0,Enebolig,https://www.finn.no/realestate/homes/ad.html?finnkode=300643547,6737,61.9718253,10.8973414,03/05/2023,,Eier (Selveier),2843,Alvdal
Grotbekkvegen 22,2400000,165,4.0,1965.0,Enebolig,https://www.finn.no/realestate/homes/ad.html?finnkode=301633752,14545,59.567738,9.28361,03/05/2023,2.0,Eier (Selveier),3679,Notodden
Dovregata 5A,4250000,44,2.0,1896.0,Leilighet,https://www.finn.no/realestate/homes/ad.html?finnkode=301529996,96590,59.921794,10.737984,03/05/2023,2.0,Andel,170,Oslo
Vendelborggata 44,4200000,115,5.0,2001.0,Tomannsbolig,https://www.finn.no/realestate/homes/ad.html?finnkode=301504980,36521,59.7886756,9.9042983,03/05/2023,1.0,Eier (Selveier),3303,Hokksund
Lillebergveien 7,5500000,64,3.0,1953.0,Leilighet,https://www.finn.no/realestate/homes/ad.html?finnkode=300900280,85937,59.920235,10.797349,03/05/2023,3.0,Andel,662,Oslo
Liafaret 53,2690000,97,4.0,1998.0,Rekkehus,https://www.finn.no/realestate/homes/ad.html?finnkode=301555691,27731,59.075771,10.197738,03/05/2023,2.0,Eier (Selveier),3280,Tjodalyng
Høvikskogen 30,11550000,316,7.0,2010.0,Enebolig,https://www.finn.no/realestate/homes/ad.html?finnkode=271696863,36550,59.7286356,10.5153191,03/05/2023,,Eier (Selveier),3477,Båtstø
Rekdalsveien 4A,6400000,143,,2017.0,Enebolig,https://www.finn.no/realestate/homes/ad.html?finnkode=301632695,44755,60.335729,5.288202,03/05/2023,,Eier (Selveier),5151,Straumsgrend
Stadionvegen 16D,1550000,49,2.0,2015.0,Leilighet,https://www.finn.no/realestate/homes/ad.html?finnkode=301632588,31632,58.3086531,6.9608779,03/05/2023,1.0,Eier (Selveier),4480,Kvinesdal
Paal Bergs vei 169A,3950000,73,3.0,1959.0,Leilighet,https://www.finn.no/realestate/homes/ad.html?finnkode=301502308,54109,59.873256,10.832899,03/05/2023,1.0,Aksje,1188,Oslo
Bremsebakken 20,3800000,192,4.0,1970.0,Enebolig,https://www.finn.no/realestate/homes/ad.html?finnkode=301632235,19791,67.2608548,15.4053828,03/05/2023,,Eier (Selveier),8200,Fauske
Nøisomhedvegen 9B,2650000,108,4.0,1971.0,Leilighet,https://www.finn.no/realestate/homes/ad.html?finnkode=301526343,24537,62.744216,7.208493,03/05/2023,1.0,Andel,6416,Molde
Borgelia 50,3100000,111,,1978.0,Leilighet,https://www.finn.no/realestate/homes/ad.html?finnkode=301631552,27927,59.1599737,9.6652978,03/05/2023,3.0,Eier (Selveier),3711,Skien
Tovsrudvegen 28,2100000,214,6.0,1924.0,Enebolig,https://www.finn.no/realestate/homes/ad.html?finnkode=301599242,9813,59.590284,9.156932,03/05/2023,,Eier (Selveier),3677,Notodden
Åsenvegen 15,2150000,353,,1977.0,Enebolig,https://www.finn.no/realestate/homes/ad.html?finnkode=273814786,6090,59.2904558,9.1069913,03/05/2023,2.0,Eier (Selveier),3825,Lunde
Malmvegen 130,1900000,57,2.0,1972.0,Leilighet,https://www.finn.no/realestate/homes/ad.html?finnkode=301629990,33333,69.683598,19.079742,03/05/2023,4.0,Andel,9022,Krokelvdalen
Kongleveien 46,26000000,410,8.0,1937.0,Enebolig,https://www.finn.no/realestate/homes/ad.html?finnkode=300944055,63414,59.960979,10.736042,03/05/2023,,Eier (Selveier),860,Oslo
Vardeknausen 9,6400000,126,5.0,2000.0,Enebolig,https://www.finn.no/realestate/homes/ad.html?finnkode=301544427,50793,60.0213672,11.0484877,03/05/2023,2.0,Eier (Selveier),2020,Skedsmokorset
Dælenenggata 15,4950000,55,3.0,1932.0,Leilighet,https://www.finn.no/realestate/homes/ad.html?finnkode=301573782,90000,59.926402,10.773044,03/05/2023,,Aksje,567,Oslo
Åstveittunet 51 Øvre,3200000,95,4.0,1990.0,Rekkehus,https://www.finn.no/realestate/homes/ad.html?finnkode=300879273,33684,60.4507678,5.315791,03/05/2023,2.0,Eier (Selveier),5106,Ervik
Bjørnsons gate 32,2900000,45,2.0,1914.0,Leilighet,https://www.finn.no/realestate/homes/ad.html?finnkode=301602323,64444,60.372028,5.347256,03/05/2023,2.0,Eier (Selveier),5052,Bergen
Hamang terrasse 83,8900000,136,4.0,1983.0,Leilighet,https://www.finn.no/realestate/homes/ad.html?finnkode=301541447,65441,59.895777,10.504716,03/05/2023,2.0,Eier (Selveier),1336,Sandvika
Vesterøyveien 27J,3490000,121,4.0,2000.0,Leilighet,https://www.finn.no/realestate/homes/ad.html?finnkode=301549815,28842,59.1230937,10.2362296,03/05/2023,3.0,Eier (Selveier),3222,Sandefjord
Vardenbakken 101,4800000,60,,2017.0,Leilighet,https://www.finn.no/realestate/homes/ad.html?finnkode=301528438,80000,59.8422225,10.6490037,03/05/2023,1.0,Eier (Selveier),1452,Nesoddtangen
Havveien 71C,4290000,120,,2013.0,Rekkehus,https://www.finn.no/realestate/homes/ad.html?finnkode=301503003,35750,58.947581,5.576338,03/05/2023,,Eier (Selveier),4057,Tananger
Kråkerudbakken 53,3700000,163,,1969.0,Enebolig,https://www.finn.no/realestate/homes/ad.html?finnkode=301492317,22699,59.666534,11.020436,03/05/2023,,Eier (Selveier),1825,Tomter
Verksveien 29,8900000,285,6.0,1986.0,Enebolig,https://www.finn.no/realestate/homes/ad.html?finnkode=301602414,31228,59.716905,10.1418857,03/05/2023,3.0,Eier (Selveier),3031,Drammen
Breivikveien 21A,3190000,68,3.0,2007.0,Leilighet,https://www.finn.no/realestate/homes/ad.html?finnkode=301541367,46911,58.9651294,5.7607859,03/05/2023,3.0,Andel,4014,Stavanger
Lønneveien 64,4950000,117,4.0,1979.0,Rekkehus,https://www.finn.no/realestate/homes/ad.html?finnkode=301556619,42307,60.0119562,11.0226618,03/05/2023,,Andel,2020,Skedsmokorset
Nervikstunet 7,1790000,51,,1991.0,Leilighet,https://www.finn.no/realestate/homes/ad.html?finnkode=301627761,35098,63.312406,9.8595599,03/05/2023,2.0,Andel,7300,Orkanger
Kveldrovegen 66,10900000,284,4.0,1987.0,Enebolig,https://www.finn.no/realestate/homes/ad.html?finnkode=276062782,38380,69.6381965,18.9216185,03/05/2023,,Eier (Selveier),9007,Tromsø
Åsavegen 119 A,2700000,79,,2016.0,Leilighet,https://www.finn.no/realestate/homes/ad.html?finnkode=301627009,34177,61.7663706,6.2191948,03/05/2023,1.0,Eier (Selveier),6823,Sandane
Ladebekken 12,7990000,105,4.0,2021.0,Leilighet,https://www.finn.no/realestate/homes/ad.html?finnkode=287493050,76095,63.443929,10.429279,03/05/2023,4.0,Eier (Selveier),7041,Trondheim
Kleppekjærmyra 18B,2550000,72,3.0,2015.0,Leilighet,https://www.finn.no/realestate/homes/ad.html?finnkode=301625374,35416,58.370665,8.638588,03/05/2023,2.0,Eier (Selveier),4885,Grimstad
Aurfaret 15,4700000,90,,2012.0,Leilighet,https://www.finn.no/realestate/homes/ad.html?finnkode=300860937,52222,59.9284193,11.4480329,03/05/2023,2.0,Eier (Selveier),1930,Aurskog
Skausnaret 12,9900000,165,,1952.0,Tomannsbolig,https://www.finn.no/realestate/homes/ad.html?finnkode=232358570,60000,59.831481,10.805017,03/05/2023,,Eier (Selveier),1262,Oslo
Høiendal 9,2550000,55,,1965.0,Leilighet,https://www.finn.no/realestate/homes/ad.html?finnkode=301623173,46363,59.235867,10.961763,03/05/2023,4.0,Andel,1617,Fredrikstad
Eugenies gate 4,3200000,22,1.0,1972.0,Leilighet,https://www.finn.no/realestate/homes/ad.html?finnkode=301450327,145454,59.927699,10.733027,03/05/2023,6.0,Eier (Selveier),168,Oslo
Laura Gundersens gate 3,5980000,72,3.0,1961.0,Leilighet,https://www.finn.no/realestate/homes/ad.html?finnkode=300870075,83055,59.926485,10.733004,03/05/2023,1.0,Andel,168,Oslo
Bringebærveien 15,4750000,177,5.0,2018.0,Tomannsbolig,https://www.finn.no/realestate/homes/ad.html?finnkode=301503771,26836,59.875914,11.576356,03/05/2023,,Eier (Selveier),1940,Bjørkelangen
Stallen 25,4990000,157,,1999.0,Enebolig,https://www.finn.no/realestate/homes/ad.html?finnkode=301614551,31783,60.2423004,5.4397184,03/05/2023,,Eier (Selveier),5212,Søfteland
Haugerudveien 38,4650000,100,4.0,1966.0,Leilighet,https://www.finn.no/realestate/homes/ad.html?finnkode=301612733,46500,59.91794,10.852858,03/05/2023,3.0,Andel,674,Oslo
Vettaliveien 17,19700000,237,,1984.0,Enebolig,https://www.finn.no/realestate/homes/ad.html?finnkode=276756461,83122,59.965326,10.693151,03/05/2023,,Eier (Selveier),781,Oslo
Bøckmans veg 7A,7500000,273,13.0,1966.0,Enebolig,https://www.finn.no/realestate/homes/ad.html?finnkode=254717325,27472,63.4091386,10.3816244,03/05/2023,2.0,Eier (Selveier),7019,Trondheim
Nedre Rælingsveg 609,3890000,167,,1950.0,Enebolig,https://www.finn.no/realestate/homes/ad.html?finnkode=300692392,23293,59.8747935,11.0846632,03/05/2023,3.0,Eier (Selveier),2009,Nordby
Vikøyvegen 92,7300000,412,6.0,1964.0,Enebolig,https://www.finn.no/realestate/homes/ad.html?finnkode=300822450,17718,60.3612327,6.159706,03/05/2023,,Eier (Selveier),5600,Norheimsund
Majorstuveien 26,9600000,73,3.0,1976.0,Leilighet,https://www.finn.no/realestate/homes/ad.html?finnkode=301028734,131506,59.926246,10.716942,03/05/2023,5.0,Eier (Selveier),367,Oslo
Ulvøygata 11,3550000,90,3.0,2021.0,Leilighet,https://www.finn.no/realestate/homes/ad.html?finnkode=300854280,39444,59.390801,5.310781,03/05/2023,2.0,Eier (Selveier),5537,Haugesund
Ibsens gate 34,7990000,219,8.0,1916.0,Andre,https://www.finn.no/realestate/homes/ad.html?finnkode=301608796,36484,60.3761876,5.3432685,03/05/2023,,Eier (Selveier),5053,Bergen
Uelands gate 57L,4150000,55,3.0,1936.0,Leilighet,https://www.finn.no/realestate/homes/ad.html?finnkode=301541116,75454,59.930265,10.749468,03/05/2023,2.0,Andel,457,Oslo
Veslekroken 22,13950000,175,6.0,2013.0,Enebolig,https://www.finn.no/realestate/homes/ad.html?finnkode=300765534,79714,59.92783,10.663681,03/05/2023,,Eier (Selveier),377,Oslo
Midtstugrenda 32,16000000,217,,1996.0,Leilighet,https://www.finn.no/realestate/homes/ad.html?finnkode=301605258,73732,59.95982,10.677718,03/05/2023,2.0,Eier (Selveier),787,Oslo
President Harbitz' gate 9,5290000,52,2.0,1898.0,Leilighet,https://www.finn.no/realestate/homes/ad.html?finnkode=301557992,101730,59.918162,10.717006,03/05/2023,2.0,Eier (Selveier),259,Oslo
Karmsundgata 10K,1290000,72,3.0,1954.0,Leilighet,https://www.finn.no/realestate/homes/ad.html?finnkode=300871820,17916,59.399726,5.2919302,03/05/2023,2.0,Andel,5529,Haugesund
Rasmus Sandviks vei 7,6950000,255,6.0,1976.0,Enebolig,https://www.finn.no/realestate/homes/ad.html?finnkode=290980620,27254,59.7125302,10.2533529,03/05/2023,,Eier (Selveier),3038,Drammen
Øvre Sørliveg 18,4090000,233,3.0,1960.0,Enebolig,https://www.finn.no/realestate/homes/ad.html?finnkode=301603597,17553,63.9949784,11.4676339,03/05/2023,3.0,Eier (Selveier),7712,Steinkjer
Edgar B. Schieldrops veg 50 A,2990000,75,2.0,1995.0,Leilighet,https://www.finn.no/realestate/homes/ad.html?finnkode=301603053,39866,63.3999083,10.4399437,03/05/2023,2.0,Eier (Selveier),7033,Trondheim
EGGELINNA 376,550000,47,,1950.0,Enebolig,https://www.finn.no/realestate/homes/ad.html?finnkode=301597651,11702,60.4554296,10.5049631,03/05/2023,,Eier (Selveier),2760,Brandbu
Stokkalandsbråtet 88,5800000,234,,2017.0,Enebolig,https://www.finn.no/realestate/homes/ad.html?finnkode=301525933,24786,58.558567,5.742722,03/05/2023,,Eier (Selveier),4362,Vigrestad
Niels Brandtzægs veg 27,550000,102,4.0,1957.0,Enebolig,https://www.finn.no/realestate/homes/ad.html?finnkode=301532370,5392,64.729943,11.181065,03/05/2023,2.0,Eier (Selveier),7950,Abelvær
Nordre vei 2,2175000,124,5.0,1928.0,Leilighet,https://www.finn.no/realestate/homes/ad.html?finnkode=238892835,17540,58.0983004,6.6918837,03/05/2023,2.0,Eier (Selveier),4560,Vanse
Blåveisstien 1,7990000,117,,1957.0,Tomannsbolig,https://www.finn.no/realestate/homes/ad.html?finnkode=301599022,68290,59.9656559,11.0619574,03/05/2023,,Eier (Selveier),2007,Kjeller
Bjarne Haugens gate 41,1990000,55,3.0,2023.0,Leilighet,https://www.finn.no/realestate/homes/ad.html?finnkode=301599098,36181,59.917683,10.953805,03/05/2023,,Andel,1475,Finstadjordet
Øvre Sædalsvegen 16,3890000,76,3.0,2008.0,Leilighet,https://www.finn.no/realestate/homes/ad.html?finnkode=301598933,51184,60.342708,5.381058,03/05/2023,4.0,Eier (Selveier),5099,Bergen
Rebækkas gate 3,6990000,81,,2019.0,Leilighet,https://www.finn.no/realestate/homes/ad.html?finnkode=276632229,86296,59.439674,10.66531,03/05/2023,8.0,Eier (Selveier),1534,Moss
Mårveien 10,3700000,186,,1973.0,Enebolig,https://www.finn.no/realestate/homes/ad.html?finnkode=301507514,19892,59.975404,11.242476,03/05/2023,2.0,Eier (Selveier),1920,Sørumsand
Schønings gate 24A,3230000,28,1.0,1932.0,Leilighet,https://www.finn.no/realestate/homes/ad.html?finnkode=301554106,115357,59.929444,10.722458,03/05/2023,3.0,Eier (Selveier),362,Oslo
Gamle Risevei 100,2790000,121,,2012.0,Tomannsbolig,https://www.finn.no/realestate/homes/ad.html?finnkode=301533106,23057,58.450441,8.6246524,03/05/2023,,Eier (Selveier),4821,Rykene
Clausegata 2,5490000,96,3.0,1821.0,Enebolig,https://www.finn.no/realestate/homes/ad.html?finnkode=268557130,57187,58.9732754,5.7254763,03/05/2023,,Eier (Selveier),4005,Stavanger
Aslakveien 28A,9450000,93,4.0,2019.0,Leilighet,https://www.finn.no/realestate/homes/ad.html?finnkode=301535207,101612,59.938929,10.649841,03/05/2023,7.0,Andel,753,Oslo
Bernt Balchens vei 4,6900000,80,4.0,2011.0,Leilighet,https://www.finn.no/realestate/homes/ad.html?finnkode=301565474,86250,59.8974598,10.6249513,03/05/2023,2.0,Eier (Selveier),1364,Fornebu
Bergfrueveien 2B,2990000,86,4.0,1974.0,Leilighet,https://www.finn.no/realestate/homes/ad.html?finnkode=301549899,34767,59.256925,10.996336,03/05/2023,4.0,Andel,1663,Rolvsøy
Hans Hauges gate 8A,3990000,50,,1895.0,Leilighet,https://www.finn.no/realestate/homes/ad.html?finnkode=301593582,79800,60.4006343,5.3249889,03/05/2023,3.0,Eier (Selveier),5033,Bergen
Moflatvegen 3,690000,22,,1959.0,Leilighet,https://www.finn.no/realestate/homes/ad.html?finnkode=301565140,31363,59.1906889,9.5906135,03/05/2023,1.0,Andel,3733,Skien
Ensjøveien 29B,3390000,33,1.0,1946.0,Leilighet,https://www.finn.no/realestate/homes/ad.html?finnkode=301592844,102727,59.912016,10.790162,03/05/2023,3.0,Aksje,661,Oslo
Stillverksveien 16,2990000,30,1.0,2004.0,Leilighet,https://www.finn.no/realestate/homes/ad.html?finnkode=301506832,99666,59.9529991,11.0487778,03/05/2023,1.0,Eier (Selveier),2004,Lillestrøm
Ødegårdsveien 37,7200000,253,7.0,1970.0,Enebolig,https://www.finn.no/realestate/homes/ad.html?finnkode=300707101,28458,60.078777,10.179518,03/05/2023,,Eier (Selveier),3530,Røyse
Bergstien 64A,4250000,72,2.0,1900.0,Leilighet,https://www.finn.no/realestate/homes/ad.html?finnkode=301498836,59027,59.746541,10.211712,03/05/2023,3.0,Eier (Selveier),3016,Drammen
Åsveien 11,3550000,176,,1975.0,Enebolig,https://www.finn.no/realestate/homes/ad.html?finnkode=301537617,20170,59.572734,9.274041,03/05/2023,,Eier (Selveier),3679,Notodden
Løvsetvegen 6,2450000,40,2.0,2017.0,Leilighet,https://www.finn.no/realestate/homes/ad.html?finnkode=301584772,61250,63.284585,10.281144,03/05/2023,2.0,Eier (Selveier),7224,Melhus
Frøytunveien 1A,5200000,52,,2015.0,Leilighet,https://www.finn.no/realestate/homes/ad.html?finnkode=301591645,100000,59.9157897,10.588234,03/05/2023,1.0,Eier (Selveier),1357,Bekkestua
Skjeggerødveien 3C,1650000,59,2.0,1990.0,Leilighet,https://www.finn.no/realestate/homes/ad.html?finnkode=301581273,27966,59.308879,10.168722,03/05/2023,1.0,Andel,3158,Andebu
Sørkedalsveien 26A,3690000,23,1.0,1994.0,Leilighet,https://www.finn.no/realestate/homes/ad.html?finnkode=301591186,160434,59.931931,10.70521,03/05/2023,2.0,Eier (Selveier),368,Oslo
Rosenbergsgaten 20,4900000,74,3.0,1995.0,Leilighet,https://www.finn.no/realestate/homes/ad.html?finnkode=301590844,66216,60.3898,5.3196564,03/05/2023,3.0,Eier (Selveier),5015,Bergen
Åsliveien 4D,17750000,160,,2022.0,Enebolig,https://www.finn.no/realestate/homes/ad.html?finnkode=301589962,110937,59.880571,10.789439,03/05/2023,,Eier (Selveier),1178,Oslo
Etterstadsletta 102,3800000,43,2.0,1984.0,Leilighet,https://www.finn.no/realestate/homes/ad.html?finnkode=295072747,88372,59.906431,10.801896,03/05/2023,3.0,Eier (Selveier),659,Oslo
Råholtvegen 70G,3940000,125,4.0,2009.0,Leilighet,https://www.finn.no/realestate/homes/ad.html?finnkode=289750962,31520,60.2730698,11.180903,03/05/2023,2.0,Eier (Selveier),2070,Råholt
Olaf Schous vei 24,5500000,65,3.0,1936.0,Leilighet,https://www.finn.no/realestate/homes/ad.html?finnkode=301424999,84615,59.932217,10.782768,03/05/2023,3.0,Eier (Selveier),572,Oslo
Professor Dahls gate 31,45000000,479,,1870.0,Enebolig,https://www.finn.no/realestate/homes/ad.html?finnkode=275056396,93945,59.924025,10.716452,03/05/2023,,Eier (Selveier),353,Oslo
Johan Hjorts vei 54,2890000,58,,1960.0,Leilighet,https://www.finn.no/realestate/homes/ad.html?finnkode=301587733,49827,60.3503337,5.3578668,03/05/2023,1.0,Andel,5081,Bergen
Grønliveien 29E,7390000,111,5.0,2022.0,Rekkehus,https://www.finn.no/realestate/homes/ad.html?finnkode=266671017,66576,59.934884,10.892934,03/05/2023,1.0,Eier (Selveier),1056,Oslo
Solåsveien 16,2850000,159,4.0,1972.0,Enebolig,https://www.finn.no/realestate/homes/ad.html?finnkode=301558263,17924,59.4687142,10.0122976,03/05/2023,,Eier (Selveier),3647,Hvittingfoss
Lunden 27A,7100000,86,3.0,2020.0,Leilighet,https://www.finn.no/realestate/homes/ad.html?finnkode=301520908,82558,59.938688,10.828278,03/05/2023,2.0,Eier (Selveier),598,Oslo
Munkerekkveien 131,24900000,289,,1987.0,Enebolig,https://www.finn.no/realestate/homes/ad.html?finnkode=260922359,86159,59.246733,10.3850222,03/05/2023,,Eier (Selveier),3142,Vestskogen
Nedre Prinsdals vei 115B,5950000,203,5.0,1983.0,Tomannsbolig,https://www.finn.no/realestate/homes/ad.html?finnkode=301023378,29310,59.827164,10.808726,03/05/2023,,Eier (Selveier),1263,Oslo
Simanesveien 19,12000000,146,,1996.0,Enebolig,https://www.finn.no/realestate/homes/ad.html?finnkode=301583815,82191,69.946702,23.103587,03/05/2023,,Eier (Selveier),9541,Alta
Bråtet 259B,3500000,106,4.0,1994.0,Leilighet,https://www.finn.no/realestate/homes/ad.html?finnkode=301530869,33018,60.3368333,5.2993014,03/05/2023,2.0,Eier (Selveier),5154,Bønes
Bekkestien 18D,2390000,66,2.0,1984.0,Leilighet,https://www.finn.no/realestate/homes/ad.html?finnkode=301583520,36212,59.1313355,10.2608684,03/05/2023,1.0,Andel,3218,Sandefjord
Nordmarkvegen 55B,1000000,83,3.0,1999.0,Tomannsbolig,https://www.finn.no/realestate/homes/ad.html?finnkode=301524658,12048,66.1947565,13.7945275,03/05/2023,1.0,Andel,8642,Finneidfjord
P.G. Mangsets veg 33,3600000,126,,2000.0,Leilighet,https://www.finn.no/realestate/homes/ad.html?finnkode=301489999,28571,60.251744,11.6909262,03/05/2023,5.0,Andel,2100,Skarnes
Storgata 159,2200000,186,,1946.0,Enebolig,https://www.finn.no/realestate/homes/ad.html?finnkode=301576295,11827,59.046349,10.055051,03/05/2023,3.0,Eier (Selveier),3262,Larvik
Krakhellevegen,2250000,223,,1991.0,Enebolig,https://www.finn.no/realestate/homes/ad.html?finnkode=300747717,10089,61.124037,4.912916,03/05/2023,2.0,Eier (Selveier),1142,Hardbakke
Laberget 96,6690000,100,3.0,2008.0,Leilighet,https://www.finn.no/realestate/homes/ad.html?finnkode=293843816,66900,58.917237,5.738358,03/05/2023,11.0,Eier (Selveier),4020,Stavanger
Tante Ulrikkes vei 40A,3490000,95,4.0,1970.0,Leilighet,https://www.finn.no/realestate/homes/ad.html?finnkode=300924865,36736,59.960317,10.919313,03/05/2023,3.0,Andel,984,Oslo
Lundaveien 57,6190000,155,4.0,1989.0,Enebolig,https://www.finn.no/realestate/homes/ad.html?finnkode=301500825,39935,59.704831,10.1628366,03/05/2023,3.0,Eier (Selveier),3032,Drammen
Blindernveien 4,6200000,66,3.0,1959.0,Leilighet,https://www.finn.no/realestate/homes/ad.html?finnkode=301511688,93939,59.935342,10.725395,03/05/2023,6.0,Eier (Selveier),361,Oslo
Orreveien 2,2250000,222,,1980.0,Enebolig,https://www.finn.no/realestate/homes/ad.html?finnkode=301579698,10135,59.0999091,9.0480566,03/05/2023,2.0,Eier (Selveier),3750,Drangedal
Øvre Strandgate 35,2350000,31,,1876.0,Leilighet,https://www.finn.no/realestate/homes/ad.html?finnkode=301529744,75806,58.9708736,5.7276309,03/05/2023,3.0,Eier (Selveier),4005,Stavanger
Selma Ellefsens vei 11F,2490000,78,3.0,2021.0,Leilighet,https://www.finn.no/realestate/homes/ad.html?finnkode=301578991,31923,59.926552,10.809668,03/05/2023,12.0,Andel,581,Oslo
Jebeveien 11,6590000,140,5.0,1932.0,Leilighet,https://www.finn.no/realestate/homes/ad.html?finnkode=301520323,47071,63.433951,10.43382,03/05/2023,2.0,Eier (Selveier),7043,Trondheim
Tiurveien 49B,3290000,75,3.0,1991.0,Leilighet,https://www.finn.no/realestate/homes/ad.html?finnkode=297030427,43866,58.9533836,5.6758323,03/05/2023,1.0,Eier (Selveier),4042,Hafrsfjord
Ensjøveien 26 A,4750000,67,3.0,1949.0,Leilighet,https://www.finn.no/realestate/homes/ad.html?finnkode=301578290,70895,59.912963,10.791858,03/05/2023,2.0,Eier (Selveier),661,Oslo
Sandeveien 19,5200000,177,5.0,1966.0,Enebolig,https://www.finn.no/realestate/homes/ad.html?finnkode=301575564,29378,59.0176721,5.5935149,03/05/2023,,Eier (Selveier),4071,Randaberg
Svalevegen 21,3850000,163,5.0,1974.0,Enebolig,https://www.finn.no/realestate/homes/ad.html?finnkode=301577611,23619,59.2262834,9.5485989,03/05/2023,,Eier (Selveier),3742,Skien
Øystein Møylas veg 12,3290000,63,,1960.0,Leilighet,https://www.finn.no/realestate/homes/ad.html?finnkode=301573332,52222,63.4056993,10.4029761,03/05/2023,3.0,Eier (Selveier),7031,Trondheim
Verven 3,5990000,71,,2021.0,Leilighet,https://www.finn.no/realestate/homes/ad.html?finnkode=301576439,84366,58.14557,8.010886,03/05/2023,2.0,Eier (Selveier),4608,Kristiansand S
Stakkevollvegen 98X,3250000,74,4.0,2006.0,Leilighet,https://www.finn.no/realestate/homes/ad.html?finnkode=278729238,43918,69.6672507,18.9682963,03/05/2023,5.0,Andel,9010,Tromsø
Kalfarveien 80,2190000,43,,1860.0,Leilighet,https://www.finn.no/realestate/homes/ad.html?finnkode=301575400,50930,60.3860414,5.3492616,03/05/2023,,Andel,5022,Bergen
Prinsengata 4G,3190000,89,3.0,1999.0,Leilighet,https://www.finn.no/realestate/homes/ad.html?finnkode=301483655,35842,63.2889249,9.0872962,03/05/2023,1.0,Eier (Selveier),7200,Kyrksæterøra
Gjærbrøndveien 40,3250000,136,,1962.0,Enebolig,https://www.finn.no/realestate/homes/ad.html?finnkode=301574635,23897,58.3491774,8.5585702,03/05/2023,,Eier (Selveier),4886,Grimstad
Tollbodallmenningen 35,2690000,35,2.0,1959.0,Leilighet,https://www.finn.no/realestate/homes/ad.html?finnkode=285687413,76857,60.3983947,5.3090196,03/05/2023,,Andel,5005,Bergen
Eikelundveien 21,6500000,92,4.0,1963.0,Leilighet,https://www.finn.no/realestate/homes/ad.html?finnkode=301141448,70652,59.9433,10.801399,03/05/2023,3.0,Eier (Selveier),588,Oslo
Ragnhilds vei 1C,4790000,64,3.0,2021.0,Leilighet,https://www.finn.no/realestate/homes/ad.html?finnkode=301376929,74843,59.927167,10.95275,03/05/2023,7.0,Andel,1473,Lørenskog
Semsbyveien 82E,2200000,60,2.0,2002.0,Leilighet,https://www.finn.no/realestate/homes/ad.html?finnkode=301571486,36666,59.2829876,10.3302737,03/05/2023,1.0,Eier (Selveier),3170,Sem
Gaustadveien 4D,4350000,55,2.0,1964.0,Leilighet,https://www.finn.no/realestate/homes/ad.html?finnkode=301572124,79090,59.953984,10.716694,03/05/2023,-1.0,Andel,372,Oslo
Theodor Dahls veg 4C,4100000,94,3.0,2022.0,Leilighet,https://www.finn.no/realestate/homes/ad.html?finnkode=300861594,43617,58.779642,5.720507,03/05/2023,2.0,Eier (Selveier),4355,Kvernaland
Granåsveien 9,3890000,213,,1984.0,Enebolig,https://www.finn.no/realestate/homes/ad.html?finnkode=301571202,18262,59.1927738,9.9834847,03/05/2023,,Eier (Selveier),3282,Kvelde
Aksels gate 20,5400000,164,5.0,1947.0,Rekkehus,https://www.finn.no/realestate/homes/ad.html?finnkode=300535801,32926,59.2563336,10.4184373,03/05/2023,3.0,Eier (Selveier),3127,Tønsberg
Adjunkt Arentz gate vest 5A,2820000,73,3.0,1991.0,Leilighet,https://www.finn.no/realestate/homes/ad.html?finnkode=288151375,38630,59.213756,9.605128,03/05/2023,1.0,Eier (Selveier),3717,Skien
Søndre Dølibekken 8,2990000,51,2.0,2021.0,Leilighet,https://www.finn.no/realestate/homes/ad.html?finnkode=301544340,58627,60.134112,11.162836,03/05/2023,4.0,Eier (Selveier),2050,Jessheim
Einarvikgata 5,3100000,63,,1988.0,Leilighet,https://www.finn.no/realestate/homes/ad.html?finnkode=301569217,49206,62.47447,6.1594698,03/05/2023,3.0,Eier (Selveier),6002,Ålesund
Starrmyra 8,2250000,68,2.0,1983.0,Leilighet,https://www.finn.no/realestate/homes/ad.html?finnkode=301507422,33088,63.360359,10.391229,03/05/2023,4.0,Andel,7091,Tiller
Einar Bergs veg 2 C,3325000,88,3.0,2013.0,Leilighet,https://www.finn.no/realestate/homes/ad.html?finnkode=271312219,37784,63.4636275,11.1137717,03/05/2023,2.0,Eier (Selveier),7520,Hegra
Ullern allé 11,7500000,107,,1983.0,Leilighet,https://www.finn.no/realestate/homes/ad.html?finnkode=301566797,70093,59.927199,10.643613,03/05/2023,2.0,Eier (Selveier),381,Oslo
Kleists gate 4,3490000,65,2.0,1983.0,Leilighet,https://www.finn.no/realestate/homes/ad.html?finnkode=301565717,53692,63.4300856,10.3679219,03/05/2023,4.0,Eier (Selveier),7018,Trondheim
Brushanevegen 29,2650000,104,3.0,1977.0,Leilighet,https://www.finn.no/realestate/homes/ad.html?finnkode=301564146,25480,63.3438381,10.3367505,03/05/2023,1.0,Andel,7082,Kattem
Kalfarveien 20C,4190000,54,,2022.0,Leilighet,https://www.finn.no/realestate/homes/ad.html?finnkode=301563873,77592,60.389643,5.339118,03/05/2023,,Eier (Selveier),5018,Bergen
Rostockgata 82,7190000,54,3.0,2023.0,Leilighet,https://www.finn.no/realestate/homes/ad.html?finnkode=295988003,133148,59.905099,10.760257,03/05/2023,4.0,Eier (Selveier),194,Oslo
Ingeborg Markens veg 69,5750000,253,5.0,1986.0,Enebolig,https://www.finn.no/realestate/homes/ad.html?finnkode=299523326,22727,63.4010932,10.0790197,03/05/2023,3.0,Eier (Selveier),7070,Bosberg
Vetrlidsallmenningen 25,5790000,90,,1876.0,Leilighet,https://www.finn.no/realestate/homes/ad.html?finnkode=301560435,64333,60.396356,5.328869,03/05/2023,2.0,Eier (Selveier),5014,Bergen
Glassperleveien 115,3190000,66,3.0,2003.0,Leilighet,https://www.finn.no/realestate/homes/ad.html?finnkode=301560379,48333,58.9046966,5.7222569,03/05/2023,2.0,Eier (Selveier),4032,Stavanger
Skipperveien 14,5500000,293,,1965.0,Enebolig,https://www.finn.no/realestate/homes/ad.html?finnkode=301560383,18771,68.2418017,14.5806434,03/05/2023,,Eier (Selveier),8300,Svolvær
Gudridflaten 93,2990000,83,,2002.0,Leilighet,https://www.finn.no/realestate/homes/ad.html?finnkode=301559931,36024,60.2058635,5.4551211,03/05/2023,2.0,Eier (Selveier),5210,Os
Brattåsveien 57,3290000,137,,1959.0,Enebolig,https://www.finn.no/realestate/homes/ad.html?finnkode=301559256,24014,59.1976912,10.3919645,03/05/2023,,Eier (Selveier),3140,Nøtterøy
Rathkes gate 16A,3990000,39,2.0,1903.0,Leilighet,https://www.finn.no/realestate/homes/ad.html?finnkode=300679753,102307,59.921754,10.765354,03/05/2023,1.0,Andel,558,Oslo
Bevervegen 25,6290000,175,7.0,1963.0,Tomannsbolig,https://www.finn.no/realestate/homes/ad.html?finnkode=301558519,35942,60.3018017,5.3344761,03/05/2023,3.0,Eier (Selveier),5236,Rådal
Grorudveien 39C,3750000,72,3.0,1981.0,Leilighet,https://www.finn.no/realestate/homes/ad.html?finnkode=301536424,52083,59.95473,10.878766,03/05/2023,1.0,Andel,976,Oslo
General Laakes vei 4,6490000,123,4.0,1970.0,Rekkehus,https://www.finn.no/realestate/homes/ad.html?finnkode=301458687,52764,59.9510911,11.0181287,03/05/2023,2.0,Eier (Selveier),2010,Strømmen
Conradis vei 6 A,5100000,80,4.0,1963.0,Leilighet,https://www.finn.no/realestate/homes/ad.html?finnkode=301557585,63750,59.902213,10.529408,03/05/2023,2.0,Andel,1338,Sandvika
Dåpanveien 40,4600000,135,6.0,2005.0,Enebolig,https://www.finn.no/realestate/homes/ad.html?finnkode=301537917,34074,59.0381281,9.9917501,03/05/2023,2.0,Eier (Selveier),3265,Larvik
Aurfaret 11,4500000,92,,2012.0,Leilighet,https://www.finn.no/realestate/homes/ad.html?finnkode=299667748,48913,59.9282409,11.4473178,03/05/2023,1.0,Eier (Selveier),1930,Aurskog
Rolf Presthus vei 79,7400000,109,4.0,2007.0,Leilighet,https://www.finn.no/realestate/homes/ad.html?finnkode=301509825,67889,59.769871,10.826105,03/05/2023,3.0,Eier (Selveier),1415,Oppegård
Langengen 2,7990000,87,,2015.0,Leilighet,https://www.finn.no/realestate/homes/ad.html?finnkode=301555549,91839,59.9119854,10.7918509,03/05/2023,4.0,Eier (Selveier),661,Oslo
Sundvorvegen 116,1790000,149,7.0,1928.0,Enebolig,https://www.finn.no/realestate/homes/ad.html?finnkode=301536497,12013,60.18439,5.765804,03/05/2023,3.0,Eier (Selveier),5645,Sævareid
Gubbeskogveien 14,7950000,238,,1962.0,Enebolig,https://www.finn.no/realestate/homes/ad.html?finnkode=255696887,33403,59.4144116,10.6723175,03/05/2023,,Eier (Selveier),1526,Moss
Jarlsborgveien 3E,21500000,283,8.0,2014.0,Enebolig,https://www.finn.no/realestate/homes/ad.html?finnkode=301523620,75971,59.930753,10.673857,03/05/2023,,Eier (Selveier),377,Oslo
Himmelberget 18B,4200000,91,,2012.0,Leilighet,https://www.finn.no/realestate/homes/ad.html?finnkode=301546660,46153,59.222826,10.9091735,03/05/2023,1.0,Eier (Selveier),1621,Gressvik
Vardeveien 70A,2790000,88,4.0,1966.0,Leilighet,https://www.finn.no/realestate/homes/ad.html?finnkode=301518655,31704,60.340767,5.272198,03/05/2023,4.0,Andel,5141,Fyllingsdalen
Hønsveien 69A,3450000,51,,,Leilighet,https://www.finn.no/realestate/homes/ad.html?finnkode=301553278,67647,59.843592,10.458483,03/05/2023,-1.0,Eier (Selveier),1384,Asker
Inges gate 26,3990000,65,3.0,1953.0,Leilighet,https://www.finn.no/realestate/homes/ad.html?finnkode=297357996,61384,59.9525616,11.0710645,03/05/2023,2.0,Eier (Selveier),2004,Lillestrøm
Lavaløkka 20A,7990000,204,6.0,2017.0,Enebolig,https://www.finn.no/realestate/homes/ad.html?finnkode=287382668,39166,59.7268409,10.3625053,03/05/2023,2.0,Eier (Selveier),3442,Hyggen
Neslia 42,1990000,131,4.0,1977.0,Rekkehus,https://www.finn.no/realestate/homes/ad.html?finnkode=300752253,15190,60.0004151,5.984512,03/05/2023,2.0,Andel,5470,Rosendal
Torggata 13,2300000,162,4.0,1947.0,Enebolig,https://www.finn.no/realestate/homes/ad.html?finnkode=297481990,14197,59.1112423,9.6442011,03/05/2023,2.0,Eier (Selveier),3936,Porsgrunn
Toftes gate 32,8700000,103,5.0,1894.0,Leilighet,https://www.finn.no/realestate/homes/ad.html?finnkode=301440080,84466,59.926838,10.761258,03/05/2023,4.0,Andel,556,Oslo
Saglunden 5,2650000,43,2.0,2017.0,Leilighet,https://www.finn.no/realestate/homes/ad.html?finnkode=301507767,61627,60.207518,10.720318,03/05/2023,3.0,Eier (Selveier),2743,Harestua
Bygdøynesveien 26,17950000,130,4.0,2019.0,Leilighet,https://www.finn.no/realestate/homes/ad.html?finnkode=261009944,138076,59.901898,10.694223,03/05/2023,1.0,Eier (Selveier),286,Oslo
Holtet 17,3500000,85,4.0,1990.0,Rekkehus,https://www.finn.no/realestate/homes/ad.html?finnkode=301539184,41176,59.7310071,10.3279304,03/05/2023,1.0,Andel,3430,Spikkestad
Skiringsalsgata 14,1850000,52,,1957.0,Leilighet,https://www.finn.no/realestate/homes/ad.html?finnkode=300913383,35576,59.044511,10.052432,03/05/2023,2.0,Andel,3263,Larvik
Vettrelia 3,6890000,140,,1967.0,Tomannsbolig,https://www.finn.no/realestate/homes/ad.html?finnkode=301548565,49214,59.8266125,10.4677812,03/05/2023,,Eier (Selveier),1392,Vettre
Mørtelverksbakken 19,5990000,78,4.0,2018.0,Leilighet,https://www.finn.no/realestate/homes/ad.html?finnkode=291796680,76794,59.935954,10.806934,03/05/2023,2.0,Eier (Selveier),580,Oslo
Prinsegata 17,2190000,86,,1980.0,Leilighet,https://www.finn.no/realestate/homes/ad.html?finnkode=301547618,25465,59.051856,10.030253,03/05/2023,2.0,Andel,3256,Larvik
Såvegen 5,3300000,50,2.0,2007.0,Leilighet,https://www.finn.no/realestate/homes/ad.html?finnkode=301547439,66000,60.1418928,11.1644994,03/05/2023,1.0,Eier (Selveier),2050,Jessheim
Skogvegen 8A,950000,109,,1970.0,Tomannsbolig,https://www.finn.no/realestate/homes/ad.html?finnkode=289605746,8715,61.7755552,5.2882764,03/05/2023,,Eier (Selveier),6723,Svelgen
Postveien 140,2190000,65,2.0,1985.0,Leilighet,https://www.finn.no/realestate/homes/ad.html?finnkode=301547150,33692,58.8656715,5.7346439,03/05/2023,4.0,Andel,4317,Sandnes
Hegermanns gate 13B,3300000,58,,1922.0,Leilighet,https://www.finn.no/realestate/homes/ad.html?finnkode=301546973,56896,59.934584,10.76634,03/05/2023,2.0,Andel,478,Oslo
Mullersgate 21,2290000,42,,,Leilighet,https://www.finn.no/realestate/homes/ad.html?finnkode=301547008,54523,61.770726,9.543225,03/05/2023,,Eier (Selveier),2670,Otta
Solheimveien 3B,2550000,102,,1991.0,Tomannsbolig,https://www.finn.no/realestate/homes/ad.html?finnkode=301546832,25000,58.2549813,8.3818667,03/05/2023,1.0,Eier (Selveier),4790,Lillesand
Morvikveien 59,3490000,218,3.0,1900.0,Enebolig,https://www.finn.no/realestate/homes/ad.html?finnkode=301546314,16009,60.4682976,5.2780446,03/05/2023,2.0,Eier (Selveier),5122,Morvik
Sondrevegen 2H,13000000,168,4.0,1971.0,Leilighet,https://www.finn.no/realestate/homes/ad.html?finnkode=301546223,77380,59.934752,10.66013,03/05/2023,,Eier (Selveier),378,Oslo
Engersand Havn 10,1900000,60,,2016.0,Leilighet,https://www.finn.no/realestate/homes/ad.html?finnkode=301534203,31666,59.7336759,10.3020855,03/05/2023,5.0,Andel,3427,Gullaug
Etterstadgata 22,5800000,78,3.0,1951.0,Leilighet,https://www.finn.no/realestate/homes/ad.html?finnkode=301545708,74358,59.908045,10.792881,03/05/2023,3.0,Aksje,658,Oslo
Saturnveien 52,5500000,95,,1967.0,Enebolig,https://www.finn.no/realestate/homes/ad.html?finnkode=301545196,57894,59.3017658,11.1483459,03/05/2023,,Eier (Selveier),1734,Hafslundsøy
Sangenvegen 3,3950000,79,3.0,2015.0,Leilighet,https://www.finn.no/realestate/homes/ad.html?finnkode=300705475,50000,60.7943354,11.0625028,03/05/2023,1.0,Eier (Selveier),2317,Hamar
Sagveien 3,6300000,203,,1988.0,Enebolig,https://www.finn.no/realestate/homes/ad.html?finnkode=279455144,31034,59.739335,10.597872,03/05/2023,,Eier (Selveier),1454,Fagerstrand
Tranavegen 32,1350000,65,3.0,2004.0,Leilighet,https://www.finn.no/realestate/homes/ad.html?finnkode=300878135,20769,64.0106062,11.5118665,03/05/2023,,Andel,7713,Steinkjer
Bjørnlivegen 19,6450000,261,,1949.0,Enebolig,https://www.finn.no/realestate/homes/ad.html?finnkode=259512163,24712,59.1327975,9.6636342,03/05/2023,,Eier (Selveier),3917,Porsgrunn
Tastagata 27,3250000,87,4.0,1955.0,Leilighet,https://www.finn.no/realestate/homes/ad.html?finnkode=301432545,37356,58.9778439,5.7165822,03/05/2023,1.0,Eier (Selveier),4007,Stavanger
Godmyrstien 1C,2790000,75,2.0,1952.0,Leilighet,https://www.finn.no/realestate/homes/ad.html?finnkode=301543173,37200,58.9340468,5.7277999,03/05/2023,1.0,Eier (Selveier),4018,Stavanger
Johan Berentsens vei 60,1100000,37,1.0,1933.0,Leilighet,https://www.finn.no/realestate/homes/ad.html?finnkode=297014338,29729,60.391578,5.2818041,03/05/2023,2.0,Eier (Selveier),5163,Laksevåg
Hjorthehaven 50,8750000,180,,1997.0,Tomannsbolig,https://www.finn.no/realestate/homes/ad.html?finnkode=301542686,48611,59.896582,10.489172,03/05/2023,,Eier (Selveier),1336,Sandvika
Kjørrgrova 2,3100000,160,5.0,1943.0,Enebolig,https://www.finn.no/realestate/homes/ad.html?finnkode=297386199,19375,60.5235354,5.5136943,03/05/2023,2.0,Eier (Selveier),5282,Lonevåg
Krokstien 3C,2050000,82,,1971.0,Leilighet,https://www.finn.no/realestate/homes/ad.html?finnkode=295565962,25000,59.2797228,11.0484613,03/05/2023,,Andel,1718,Greåker
Bragernes torg 12,3990000,61,2.0,1868.0,Leilighet,https://www.finn.no/realestate/homes/ad.html?finnkode=301492323,65409,59.743561,10.205069,03/05/2023,4.0,Eier (Selveier),3017,Drammen
Åsas vei 17,4180000,226,,1986.0,Enebolig,https://www.finn.no/realestate/homes/ad.html?finnkode=298818404,18495,58.9168173,5.8688193,03/05/2023,,Eier (Selveier),4311,Hommersåk
Basbergveien 14C,3190000,68,3.0,1995.0,Leilighet,https://www.finn.no/realestate/homes/ad.html?finnkode=301335294,46911,59.2834613,10.4635876,03/05/2023,2.0,Eier (Selveier),3114,Tønsberg
Saxegaardsgata 3A,2400000,23,2.0,1894.0,Leilighet,https://www.finn.no/realestate/homes/ad.html?finnkode=301541051,104347,59.904621,10.766429,03/05/2023,2.0,Andel,192,Oslo
Togstadvegen 260C,2700000,129,,2016.0,Tomannsbolig,https://www.finn.no/realestate/homes/ad.html?finnkode=300865598,20930,60.230579,11.628267,03/05/2023,,Eier (Selveier),2100,Skarnes
Underlia 2,9750000,124,,2009.0,Leilighet,https://www.finn.no/realestate/homes/ad.html?finnkode=301540699,78629,59.7518606,10.1851676,03/05/2023,3.0,Eier (Selveier),3021,Drammen
Byrkjelandsvegen 32,2950000,181,,1980.0,Enebolig,https://www.finn.no/realestate/homes/ad.html?finnkode=301187769,16298,60.3476573,6.1757344,03/05/2023,2.0,Eier (Selveier),5600,Norheimsund
Baglergaten 8,2550000,24,,1917.0,Leilighet,https://www.finn.no/realestate/homes/ad.html?finnkode=300881661,106250,60.4011457,5.324278,03/05/2023,2.0,Eier (Selveier),5032,Bergen
Kunnskapsveien 76A,3850000,70,3.0,2011.0,Leilighet,https://www.finn.no/realestate/homes/ad.html?finnkode=301512288,55000,59.7510606,10.335955,03/05/2023,1.0,Eier (Selveier),3430,Spikkestad
Vollenetoppen 8,1090000,57,2.0,2009.0,Leilighet,https://www.finn.no/realestate/homes/ad.html?finnkode=301539430,19122,58.4655449,8.7834243,03/05/2023,2.0,Andel,4842,Arendal
St. Olavs gate 22,3900000,119,,2014.0,Leilighet,https://www.finn.no/realestate/homes/ad.html?finnkode=301539418,32773,60.7955846,11.078928,03/05/2023,4.0,Andel,2317,Hamar
Rogagaten 2,2690000,50,2.0,1947.0,Leilighet,https://www.finn.no/realestate/homes/ad.html?finnkode=301519003,53800,60.3759837,5.3325984,03/05/2023,1.0,Aksje,5055,Bergen
Beverveien 20,4900000,279,7.0,1983.0,Enebolig,https://www.finn.no/realestate/homes/ad.html?finnkode=301182637,17562,59.55462,11.352918,03/05/2023,3.0,Eier (Selveier),1850,Mysen
Dannevigsveien 10A,2960000,30,2.0,1894.0,Leilighet,https://www.finn.no/realestate/homes/ad.html?finnkode=301538693,98666,59.936803,10.754198,03/05/2023,2.0,Andel,463,Oslo
Sjøenvegen 24,1990000,183,8.0,1958.0,Enebolig,https://www.finn.no/realestate/homes/ad.html?finnkode=238027088,10874,59.2570977,5.1824316,03/05/2023,3.0,Eier (Selveier),4270,Åkrehamn
Solørvegen,1500000,131,,1950.0,Enebolig,https://www.finn.no/realestate/homes/ad.html?finnkode=301538447,11450,60.4666892,12.0646731,03/05/2023,,Eier (Selveier),1173,Kirkenær
Teglverkstunet 4A,2100000,28,2.0,1974.0,Leilighet,https://www.finn.no/realestate/homes/ad.html?finnkode=300669345,75000,63.415857,10.448741,03/05/2023,3.0,Andel,7069,Trondheim
Bjørnstjerne Bjørnsons gate 18,4500000,180,,1968.0,Enebolig,https://www.finn.no/realestate/homes/ad.html?finnkode=301488210,25000,58.851027,5.722426,03/05/2023,2.0,Eier (Selveier),4319,Sandnes
Sverdrups gate 1C,3100000,27,1.0,1895.0,Leilighet,https://www.finn.no/realestate/homes/ad.html?finnkode=301538028,114814,59.919597,10.76277,03/05/2023,4.0,Andel,559,Oslo
Kompaniveien 6 Gamle,1500000,48,2.0,2022.0,Leilighet,https://www.finn.no/realestate/homes/ad.html?finnkode=301514633,31250,59.207716,10.996743,03/05/2023,2.0,Andel,1639,Fredrikstad
Hamangskogen 75,4550000,69,2.0,1983.0,Leilighet,https://www.finn.no/realestate/homes/ad.html?finnkode=301537753,65942,59.896073,10.508699,03/05/2023,3.0,Eier (Selveier),1338,Sandvika
Bakken 16,4990000,190,5.0,1967.0,Enebolig,https://www.finn.no/realestate/homes/ad.html?finnkode=300890514,26263,58.8588762,5.7689045,03/05/2023,,Eier (Selveier),4328,Sandnes
Conradis gate 1B,3900000,35,2.0,1900.0,Leilighet,https://www.finn.no/realestate/homes/ad.html?finnkode=300879631,111428,59.920337,10.766567,03/05/2023,2.0,Eier (Selveier),559,Oslo
Krikane 21,2000000,69,,2007.0,Leilighet,https://www.finn.no/realestate/homes/ad.html?finnkode=301537556,28985,62.3913078,6.5940846,03/05/2023,1.0,Eier (Selveier),6230,Sykkylven
Heiveien 8B,790000,55,,1973.0,Leilighet,https://www.finn.no/realestate/homes/ad.html?finnkode=301536892,14363,58.717213,9.2248,03/05/2023,1.0,Andel,4956,Risør
Clarks gate 6A,2700000,66,,2003.0,Leilighet,https://www.finn.no/realestate/homes/ad.html?finnkode=301536862,40909,58.9993524,9.7490874,03/05/2023,2.0,Eier (Selveier),3970,Langesund
Statsrådvegen 25C Eidsvoll,4990000,115,,2019.0,Tomannsbolig,https://www.finn.no/realestate/homes/ad.html?finnkode=282286249,43391,60.284329,11.154381,03/05/2023,,Eier (Selveier),2074,Verk
Arenessmauet 1,2365000,58,2.0,1990.0,Leilighet,https://www.finn.no/realestate/homes/ad.html?finnkode=292984659,40775,58.451412,6.002245,03/05/2023,4.0,Eier (Selveier),4370,Egersund
Fjellstadveien 7B,8690000,202,,1969.0,Enebolig,https://www.finn.no/realestate/homes/ad.html?finnkode=281316143,43019,59.858889,10.484648,03/05/2023,,Eier (Selveier),1394,Nesbru
Eldsbakkane 41,6350000,157,5.0,1996.0,Rekkehus,https://www.finn.no/realestate/homes/ad.html?finnkode=301535956,40445,60.3096519,5.2774334,03/05/2023,,Eier (Selveier),5253,Sandsli
Arnestadbakkane 26,3300000,191,,1985.0,Enebolig,https://www.finn.no/realestate/homes/ad.html?finnkode=301535874,17277,61.764582,6.166524,03/05/2023,,Eier (Selveier),6823,Sandane
Dampsaga allé 48,3490000,41,2.0,2020.0,Leilighet,https://www.finn.no/realestate/homes/ad.html?finnkode=300877423,85121,60.14282,11.178373,03/05/2023,6.0,Eier (Selveier),2053,Jessheim
Bårddalslivegen 17,3125000,142,6.0,2009.0,Tomannsbolig,https://www.finn.no/realestate/homes/ad.html?finnkode=281464803,22007,60.5329843,4.8704729,03/05/2023,,Eier (Selveier),5337,Rong
Bliksrudstubben 38A,4700000,162,4.0,1983.0,Enebolig,https://www.finn.no/realestate/homes/ad.html?finnkode=301530593,29012,60.091071,10.868058,03/05/2023,,Eier (Selveier),1484,Hakadal
Kyrkjebønsvegen 14B,3150000,55,3.0,2003.0,Leilighet,https://www.finn.no/realestate/homes/ad.html?finnkode=300847570,57272,60.8639843,8.5532402,03/05/2023,2.0,Eier (Selveier),3560,Hemsedal
Augedalsvegen 55,2600000,95,,1950.0,Enebolig,https://www.finn.no/realestate/homes/ad.html?finnkode=301534865,27368,60.4205587,10.5010264,03/05/2023,,Eier (Selveier),2760,Brandbu
Halvdan Svartes gate 38A,24000000,317,7.0,1916.0,Tomannsbolig,https://www.finn.no/realestate/homes/ad.html?finnkode=293663495,75709,59.922233,10.696127,03/05/2023,,Eier (Selveier),268,Oslo
Løytnant Møllers veg 23,2800000,153,5.0,1964.0,Tomannsbolig,https://www.finn.no/realestate/homes/ad.html?finnkode=300883009,18300,60.3307254,11.2684279,03/05/2023,,Eier (Selveier),2080,Eidsvoll
Midtveien 55,4800000,71,3.0,2019.0,Leilighet,https://www.finn.no/realestate/homes/ad.html?finnkode=301534504,67605,59.935226,10.827534,03/05/2023,2.0,Andel,598,Oslo
Jeppevegen 3,2790000,182,,1949.0,Enebolig,https://www.finn.no/realestate/homes/ad.html?finnkode=300861945,15329,59.395619,5.2910224,03/05/2023,,Eier (Selveier),5538,Haugesund
Brøsetvegen 186B,1150000,39,,1971.0,Leilighet,https://www.finn.no/realestate/homes/ad.html?finnkode=301534307,29487,63.4102168,10.4420349,03/05/2023,5.0,Andel,7050,Trondheim
Feltspatveien 31,4000000,54,2.0,1957.0,Leilighet,https://www.finn.no/realestate/homes/ad.html?finnkode=300002543,74074,59.869714,10.820844,03/05/2023,4.0,Andel,1155,Oslo
Terneveien 21,3500000,170,,1958.0,Enebolig,https://www.finn.no/realestate/homes/ad.html?finnkode=301503351,20588,65.4611258,12.199014,03/05/2023,,Eier (Selveier),8904,Brønnøysund
Vestre vei 93A,28000000,209,,1903.0,Enebolig,https://www.finn.no/realestate/homes/ad.html?finnkode=301532967,133971,59.8584172,10.5150697,03/05/2023,,Eier (Selveier),1397,Nesøya
Sykehusvegen 23E,1290000,37,,1964.0,Leilighet,https://www.finn.no/realestate/homes/ad.html?finnkode=301532837,34864,59.129055,9.656286,03/05/2023,2.0,Andel,3924,Porsgrunn
Blåbæråsen 63,630000,51,,2016.0,Leilighet,https://www.finn.no/realestate/homes/ad.html?finnkode=276760658,12352,58.242723,8.344862,03/05/2023,2.0,Andel,4790,Lillesand
Hiltonveien 12,7750000,138,6.0,1955.0,Leilighet,https://www.finn.no/realestate/homes/ad.html?finnkode=301045494,56159,59.882997,10.498735,03/05/2023,1.0,Eier (Selveier),1341,Slependen
Kongens gate 80,2990000,55,2.0,1912.0,Leilighet,https://www.finn.no/realestate/homes/ad.html?finnkode=301532697,54363,58.147675,8.005004,03/05/2023,1.0,Eier (Selveier),4608,Kristiansand S
Østreheimsveien 2,8480000,127,4.0,1974.0,Tomannsbolig,https://www.finn.no/realestate/homes/ad.html?finnkode=300922945,66771,59.946374,10.810974,03/05/2023,,Eier (Selveier),590,Oslo
Kjærnesveien 20C,6190000,114,5.0,2022.0,Rekkehus,https://www.finn.no/realestate/homes/ad.html?finnkode=301531628,54298,59.736959,10.741934,03/05/2023,2.0,Eier (Selveier),1407,Vinterbro
Dambakken 7,4100000,270,2.0,1973.0,Enebolig,https://www.finn.no/realestate/homes/ad.html?finnkode=301531060,15185,58.9051639,9.3885953,03/05/2023,2.0,Eier (Selveier),3790,Helle
Hals' gate 10B,1700000,49,2.0,1972.0,Leilighet,https://www.finn.no/realestate/homes/ad.html?finnkode=301531025,34693,59.286836,11.114852,03/05/2023,1.0,Andel,1707,Sarpsborg
Stemlandveien 16,4250000,273,9.0,2007.0,Enebolig,https://www.finn.no/realestate/homes/ad.html?finnkode=300350891,15567,67.2867879,15.1315905,03/05/2023,,Eier (Selveier),8215,Valnesfjord
Grenlandsgata 3,4500000,288,,1953.0,Enebolig,https://www.finn.no/realestate/homes/ad.html?finnkode=301530600,15625,59.140055,9.66332,03/05/2023,,Eier (Selveier),3912,Porsgrunn
Lindal 17 B,2950000,117,,1976.0,Enebolig,https://www.finn.no/realestate/homes/ad.html?finnkode=300853457,25213,59.2669639,11.1662624,03/05/2023,,Andel,1739,Borgenhaugen
Snølia 5,4180000,56,3.0,2021.0,Leilighet,https://www.finn.no/realestate/homes/ad.html?finnkode=292499878,74642,59.946703,10.952525,03/05/2023,4.0,Eier (Selveier),1470,Lørenskog
Kvamsveien 49,1250000,227,,1958.0,Tomannsbolig,https://www.finn.no/realestate/homes/ad.html?finnkode=273864498,5506,63.0474071,9.707828,03/05/2023,,Eier (Selveier),7336,Meldal
Johan Paulsens vei 10,2000000,68,,1968.0,Leilighet,https://www.finn.no/realestate/homes/ad.html?finnkode=301529588,29411,59.266625,11.140043,03/05/2023,2.0,Andel,1738,Borgenhaugen
Michael Krohns gate 71,7980000,94,,2011.0,Leilighet,https://www.finn.no/realestate/homes/ad.html?finnkode=301529645,84893,60.380892,5.319954,03/05/2023,,Eier (Selveier),5057,Bergen
Eckersbergs gate 53A,15290000,115,4.0,1914.0,Leilighet,https://www.finn.no/realestate/homes/ad.html?finnkode=297498815,132956,59.921757,10.71061,03/05/2023,5.0,Eier (Selveier),256,Oslo
Kvistveien 16A,6690000,134,,2022.0,Tomannsbolig,https://www.finn.no/realestate/homes/ad.html?finnkode=280364126,49925,59.291103,10.470517,03/05/2023,,Eier (Selveier),3114,Tønsberg
Vestveien 55,7200000,94,3.0,2020.0,Leilighet,https://www.finn.no/realestate/homes/ad.html?finnkode=276843919,76595,59.855484,10.660969,03/05/2023,5.0,Andel,1452,Nesoddtangen
Skolsegglia 24,3700000,53,2.0,2005.0,Leilighet,https://www.finn.no/realestate/homes/ad.html?finnkode=276997713,69811,60.0020314,11.0196887,03/05/2023,4.0,Eier (Selveier),2019,Skedsmokorset
Tolsrødveien 29,3200000,218,,1985.0,Enebolig,https://www.finn.no/realestate/homes/ad.html?finnkode=300600357,14678,59.299991,10.084083,03/05/2023,,Eier (Selveier),3158,Andebu
Østbyveien 2D,3380000,85,,2002.0,Leilighet,https://www.finn.no/realestate/homes/ad.html?finnkode=294969002,39764,59.0535181,10.1222521,03/05/2023,2.0,Eier (Selveier),3280,Tjodalyng
Lauvåsveien 20,2990000,156,,2016.0,Enebolig,https://www.finn.no/realestate/homes/ad.html?finnkode=297669338,19166,64.299015,10.523818,03/05/2023,,Eier (Selveier),7740,Steinsdalen
Østhusvegen 83,2290000,225,7.0,1954.0,Enebolig,https://www.finn.no/realestate/homes/ad.html?finnkode=301487124,10177,59.2972547,5.2249257,03/05/2023,,Eier (Selveier),4276,Veavågen
DØNNUMSKIA 172,2900000,274,,1953.0,Enebolig,https://www.finn.no/realestate/homes/ad.html?finnkode=299396197,10583,60.3123185,11.2142273,03/05/2023,,Eier (Selveier),2080,Eidsvoll
Sandviksveien 92,2050000,38,2.0,2006.0,Leilighet,https://www.finn.no/realestate/homes/ad.html?finnkode=298833136,53947,60.4140149,5.3209887,03/05/2023,1.0,Andel,5035,Bergen
Kjellestadbakken 27,2700000,159,5.0,1959.0,Enebolig,https://www.finn.no/realestate/homes/ad.html?finnkode=300869325,16981,59.039312,9.7018079,03/05/2023,3.0,Eier (Selveier),3960,Stathelle
Lågerødåsen 20C,3450000,82,,2016.0,Leilighet,https://www.finn.no/realestate/homes/ad.html?finnkode=301526595,42073,59.2357917,10.3092528,03/05/2023,2.0,Eier (Selveier),3160,Stokke
Wessels gate 8,5950000,82,,1914.0,Leilighet,https://www.finn.no/realestate/homes/ad.html?finnkode=301526459,72560,60.3849953,5.3214341,03/05/2023,2.0,Andel,5006,Bergen
Lauritz Hervigs vei 51B,1990000,69,3.0,1973.0,Leilighet,https://www.finn.no/realestate/homes/ad.html?finnkode=301515698,28840,59.718449,10.2265864,03/05/2023,6.0,Andel,3035,Drammen
Store Skippergate 35A,3490000,68,,1949.0,Leilighet,https://www.finn.no/realestate/homes/ad.html?finnkode=300757660,51323,58.9685652,5.740502,03/05/2023,2.0,Eier (Selveier),4013,Stavanger
Paul Fjermstads veg 25,4390000,76,,1947.0,Leilighet,https://www.finn.no/realestate/homes/ad.html?finnkode=300859823,57763,63.4212789,10.4246804,03/05/2023,,Eier (Selveier),7052,Trondheim
Nygata 14,2790000,102,,1827.0,Enebolig,https://www.finn.no/realestate/homes/ad.html?finnkode=253166549,27352,59.0518874,9.7063696,03/05/2023,,Eier (Selveier),3950,Brevik
Seljeveien 7D,5460000,114,5.0,1961.0,Rekkehus,https://www.finn.no/realestate/homes/ad.html?finnkode=260041099,47894,59.8526877,10.658165,03/05/2023,3.0,Eier (Selveier),1452,Nesoddtangen
Nordahl Griegs gate 9 Mo i,900000,34,2.0,1959.0,Leilighet,https://www.finn.no/realestate/homes/ad.html?finnkode=299794281,26470,66.3102325,14.1385887,03/05/2023,2.0,Andel,8622,Rana
Billingstadlia 6,4300000,55,2.0,2005.0,Leilighet,https://www.finn.no/realestate/homes/ad.html?finnkode=301223483,78181,59.8752119,10.4890555,03/05/2023,2.0,Eier (Selveier),1396,Billingstad
Bonesvegen 2,3750000,59,3.0,2022.0,Leilighet,https://www.finn.no/realestate/homes/ad.html?finnkode=301524420,63559,63.416931,10.476476,03/05/2023,3.0,Eier (Selveier),7047,Trondheim
