address,price,area,rooms,year,type,url,price_per_m2,lat,lon,date,floor,ownership,postal_code,city
Sandakerveien 23B,2900000,21,1.0,1936.0,Leilighet,https://www.finn.no/realestate/homes/ad.html?finnkode=302499107,138095,59.933486,10.76133,09/05/2023,4.0,Eier (Selveier),473,Oslo
Sanddalsringen 112,4990000,117,5.0,1986.0,Rekkehus,https://www.finn.no/realestate/homes/ad.html?finnkode=302517119,42649,60.3269495,5.3724003,09/05/2023,2.0,Eier (Selveier),5225,Nesttun
Glasskaråsen 31 Øvre,8750000,190,6.0,2001.0,Enebolig,https://www.finn.no/realestate/homes/ad.html?finnkode=302534840,46052,60.4487017,5.3252669,09/05/2023,,Eier (Selveier),5106,Ervik
Urds vei 9,3690000,119,,1953.0,Leilighet,https://www.finn.no/realestate/homes/ad.html?finnkode=302547900,31008,58.1572002,8.0249039,09/05/2023,1.0,Eier (Selveier),4632,Kristiansand S
Hofftunet 19,7750000,79,,1988.0,Leilighet,https://www.finn.no/realestate/homes/ad.html?finnkode=302547120,98101,59.929189,10.672467,09/05/2023,2.0,Eier (Selveier),377,Oslo
Langmyrvegen 37,3350000,210,,1978.0,Enebolig,https://www.finn.no/realestate/homes/ad.html?finnkode=302527177,15952,59.2714437,9.7007168,09/05/2023,,Eier (Selveier),3748,Siljan
Bergsrudsvingen 12,3800000,80,,2020.0,Tomannsbolig,https://www.finn.no/realestate/homes/ad.html?finnkode=302541899,47500,68.211535,14.43798,09/05/2023,,Eier (Selveier),8310,Kabelvåg
Tostenhagen 54,5500000,207,,1999.0,Enebolig,https://www.finn.no/realestate/homes/ad.html?finnkode=302544783,26570,58.995472,5.744714,09/05/2023,,Eier (Selveier),4085,Hundvåg
Bjarne Haugens gate 41,2190000,63,4.0,2023.0,Leilighet,https://www.finn.no/realestate/homes/ad.html?finnkode=302544250,34761,59.917683,10.953805,09/05/2023,1.0,Andel,1475,Finstadjordet
Løvliveien 1B Gamle,6290000,322,,1982.0,Enebolig,https://www.finn.no/realestate/homes/ad.html?finnkode=302355317,19534,59.2098317,10.9960806,09/05/2023,,Eier (Selveier),1639,Fredrikstad
Kristian Bings vei 7,2300000,65,3.0,1951.0,Leilighet,https://www.finn.no/realestate/homes/ad.html?finnkode=302543992,35384,60.3660469,5.3366742,09/05/2023,,Aksje,5073,Bergen
Taubaneveien 48,12900000,241,5.0,2005.0,Enebolig,https://www.finn.no/realestate/homes/ad.html?finnkode=302499804,53526,58.4411811,8.7280414,09/05/2023,3.0,Eier (Selveier),4825,Arendal
Bjarne Haugens gate 41,1590000,38,2.0,2023.0,Leilighet,https://www.finn.no/realestate/homes/ad.html?finnkode=302543170,41842,59.917683,10.953805,09/05/2023,1.0,Andel,1475,Finstadjordet
Olav Kyrres gate 11,4480000,253,,1917.0,Enebolig,https://www.finn.no/realestate/homes/ad.html?finnkode=302542104,17707,59.419227,5.2652782,09/05/2023,,Eier (Selveier),5523,Haugesund
Carl Konows gate 36,1490000,26,,1967.0,Leilighet,https://www.finn.no/realestate/homes/ad.html?finnkode=302542048,57307,60.38356,5.310809,09/05/2023,3.0,Eier (Selveier),5162,Laksevåg
Blomstervegen 60,2400000,115,4.0,1975.0,Tomannsbolig,https://www.finn.no/realestate/homes/ad.html?finnkode=294935590,20869,60.182122,11.9919532,09/05/2023,2.0,Andel,2208,Kongsvinger
Grøtemsvegen 165,2950000,193,6.0,1994.0,Enebolig,https://www.finn.no/realestate/homes/ad.html?finnkode=302513481,15284,63.2559675,10.936769,09/05/2023,2.0,Eier (Selveier),7584,Selbustrand
Synnavinden 37B,6950000,123,5.0,1991.0,Rekkehus,https://www.finn.no/realestate/homes/ad.html?finnkode=302541134,56504,69.6709673,18.937314,09/05/2023,,Eier (Selveier),9015,Tromsø
Vikåsvegen 34,2850000,115,,1916.0,Leilighet,https://www.finn.no/realestate/homes/ad.html?finnkode=254086854,24782,63.4786407,10.8561981,09/05/2023,2.0,Eier (Selveier),7512,Stjørdal
Sommerfjøsvollen 12,2990000,163,6.0,1979.0,Enebolig,https://www.finn.no/realestate/homes/ad.html?finnkode=273801148,18343,63.077743,7.7719416,09/05/2023,,Eier (Selveier),6520,Frei
Granlivegen 29D,1990000,116,5.0,1971.0,Rekkehus,https://www.finn.no/realestate/homes/ad.html?finnkode=293147330,17155,58.2762833,7.9792139,09/05/2023,,Andel,4707,Vennesla
Ørnahaugen 23,3000000,77,3.0,1971.0,Leilighet,https://www.finn.no/realestate/homes/ad.html?finnkode=302516757,38961,60.3515571,5.2867648,09/05/2023,2.0,Andel,5144,Fyllingsdalen
Nordåsgrenda 66,3800000,105,4.0,1980.0,Rekkehus,https://www.finn.no/realestate/homes/ad.html?finnkode=302523900,36190,60.3087229,5.3240807,09/05/2023,2.0,Andel,5235,Rådal
Kruses gate 1a,15900000,202,7.0,1893.0,Leilighet,https://www.finn.no/realestate/homes/ad.html?finnkode=302538673,78712,59.917637,10.712902,09/05/2023,,Andel,263,Oslo
Damsgårdsveien 105,4290000,79,,2015.0,Leilighet,https://www.finn.no/realestate/homes/ad.html?finnkode=302538678,54303,60.38278,5.316597,09/05/2023,2.0,Eier (Selveier),5058,Bergen
Kamfjordveien 18B,3950000,142,,2012.0,Leilighet,https://www.finn.no/realestate/homes/ad.html?finnkode=302538538,27816,59.1309032,10.2544373,09/05/2023,,Eier (Selveier),3235,Sandefjord
Rømmesveien 8,2950000,276,5.0,1972.0,Enebolig,https://www.finn.no/realestate/homes/ad.html?finnkode=301941434,10688,63.8724607,9.8822815,09/05/2023,2.0,Eier (Selveier),7168,Lysøysundet
Eilert Sundts gate 31,19500000,146,6.0,1898.0,Leilighet,https://www.finn.no/realestate/homes/ad.html?finnkode=302393797,133561,59.92209,10.718892,09/05/2023,1.0,Eier (Selveier),259,Oslo
Skytterveien 30B,1750000,111,5.0,1975.0,Rekkehus,https://www.finn.no/realestate/homes/ad.html?finnkode=302441199,15765,63.11797,7.700527,09/05/2023,,Andel,6514,Kristiansund N
Grønebrekka 1,4950000,175,5.0,1979.0,Enebolig,https://www.finn.no/realestate/homes/ad.html?finnkode=302505409,28285,60.4450045,5.2160559,09/05/2023,2.0,Eier (Selveier),5306,Erdal
Postvegen 19,2190000,207,,1955.0,Enebolig,https://www.finn.no/realestate/homes/ad.html?finnkode=302535340,10579,59.4818097,6.2537279,09/05/2023,3.0,Eier (Selveier),4230,Sand
Fantoftvegen 57D,11130000,121,4.0,2023.0,Leilighet,https://www.finn.no/realestate/homes/ad.html?finnkode=302526936,91983,60.342678,5.350672,09/05/2023,2.0,Eier (Selveier),5072,Bergen
Torsnesveien 22 Gamle,6000000,150,,1914.0,Enebolig,https://www.finn.no/realestate/homes/ad.html?finnkode=302474720,40000,59.1973031,10.9700465,09/05/2023,,Eier (Selveier),1630,Fredrikstad
Vognstølen 18G,2690000,45,2.0,1959.0,Leilighet,https://www.finn.no/realestate/homes/ad.html?finnkode=300774392,59777,60.3697776,5.3637726,09/05/2023,2.0,Andel,5096,Bergen
Morgedalsvegen 43,4890000,66,,1992.0,Leilighet,https://www.finn.no/realestate/homes/ad.html?finnkode=290506132,74090,59.939093,10.671229,09/05/2023,2.0,Eier (Selveier),378,Oslo
Jacob Aalls gate 17B,10900000,86,3.0,1928.0,Leilighet,https://www.finn.no/realestate/homes/ad.html?finnkode=302534844,126744,59.928846,10.718723,09/05/2023,3.0,Aksje,364,Oslo
Felleveien 6,3090000,71,2.0,1985.0,Leilighet,https://www.finn.no/realestate/homes/ad.html?finnkode=302534026,43521,59.7189324,10.2599768,09/05/2023,2.0,Andel,3039,Drammen
St.Croix gate 10F,10700000,360,,1940.0,Enebolig,https://www.finn.no/realestate/homes/ad.html?finnkode=302512069,29722,59.2108583,10.9491403,09/05/2023,,Eier (Selveier),1604,Fredrikstad
Magasinparken 22,7490000,98,4.0,2020.0,Leilighet,https://www.finn.no/realestate/homes/ad.html?finnkode=302264357,76428,59.715859,10.823583,09/05/2023,1.0,Andel,1423,Ski
Harald Hårfagres gate 20,3190000,42,,1900.0,Leilighet,https://www.finn.no/realestate/homes/ad.html?finnkode=299834048,75952,60.3870117,5.3247647,09/05/2023,1.0,Eier (Selveier),5007,Bergen
Moreneveien 24,5990000,175,,1961.0,Enebolig,https://www.finn.no/realestate/homes/ad.html?finnkode=298651228,34228,59.2248455,10.9467135,09/05/2023,,Eier (Selveier),1605,Fredrikstad
Sjøveien 2 B,4170000,98,,2007.0,Rekkehus,https://www.finn.no/realestate/homes/ad.html?finnkode=302341656,42551,67.2994117,14.733197,09/05/2023,,Eier (Selveier),8050,Tverlandet
Åsveien 118,2100000,94,,1981.0,Leilighet,https://www.finn.no/realestate/homes/ad.html?finnkode=301933310,22340,58.8625741,5.7575947,09/05/2023,3.0,Andel,4328,Sandnes
Knud Graahs gate 3,4590000,55,2.0,1926.0,Leilighet,https://www.finn.no/realestate/homes/ad.html?finnkode=302532360,83454,59.939663,10.775435,09/05/2023,2.0,Andel,481,Oslo
Strømsbuåsen 13B,1690000,67,,1958.0,Leilighet,https://www.finn.no/realestate/homes/ad.html?finnkode=302531488,25223,58.460012,8.752134,09/05/2023,3.0,Andel,4836,Arendal
Rydningen 27,3200000,73,3.0,1988.0,Leilighet,https://www.finn.no/realestate/homes/ad.html?finnkode=302530929,43835,59.649893,10.827534,09/05/2023,1.0,Andel,1435,Ås
Lars Husmanns gate 7,2120000,55,3.0,2022.0,Leilighet,https://www.finn.no/realestate/homes/ad.html?finnkode=297481706,38545,59.934185,10.827717,09/05/2023,1.0,Andel,598,Oslo
Klovsteinbakken 3,6490000,226,,1950.0,Tomannsbolig,https://www.finn.no/realestate/homes/ad.html?finnkode=302525718,28716,58.9477977,5.6844058,09/05/2023,,Eier (Selveier),4041,Hafrsfjord
Bekkedalen 19,6490000,321,,1979.0,Enebolig,https://www.finn.no/realestate/homes/ad.html?finnkode=302530154,20218,58.1436085,8.0618633,09/05/2023,,Eier (Selveier),4638,Kristiansand S
Riddervolds gate 3,10900000,102,4.0,1898.0,Leilighet,https://www.finn.no/realestate/homes/ad.html?finnkode=301278928,106862,59.918762,10.722656,09/05/2023,1.0,Eier (Selveier),256,Oslo
Mosseveien 69,4990000,102,,2021.0,Leilighet,https://www.finn.no/realestate/homes/ad.html?finnkode=290500121,48921,59.228846,10.913765,09/05/2023,1.0,Eier (Selveier),1610,Fredrikstad
Måseskjærveien 18,17990000,191,4.0,2002.0,Leilighet,https://www.finn.no/realestate/homes/ad.html?finnkode=302528279,94188,60.4133679,5.3177167,09/05/2023,2.0,Eier (Selveier),5035,Bergen
Skaustranda 52,4650000,128,,2007.0,Rekkehus,https://www.finn.no/realestate/homes/ad.html?finnkode=294495240,36328,59.1017937,10.223525,09/05/2023,,Andel,3209,Sandefjord
Østersunds gate 14B,2490000,35,,1899.0,Leilighet,https://www.finn.no/realestate/homes/ad.html?finnkode=302527756,71142,63.437295,10.4224819,09/05/2023,1.0,Eier (Selveier),7010,Trondheim
Skafstadveien 21,5390000,89,,2021.0,Leilighet,https://www.finn.no/realestate/homes/ad.html?finnkode=302526975,60561,59.790498,10.265785,09/05/2023,2.0,Eier (Selveier),3403,Lier
Marcus Thranes gate 13,2900000,21,1.0,1937.0,Leilighet,https://www.finn.no/realestate/homes/ad.html?finnkode=302526790,138095,59.931957,10.761617,09/05/2023,4.0,Andel,473,Oslo
Kvernvollen 5,3990000,261,,1979.0,Enebolig,https://www.finn.no/realestate/homes/ad.html?finnkode=302526672,15287,58.2782921,7.9687206,09/05/2023,,Eier (Selveier),4700,Vennesla
Gildeskålveien 38 A,2980000,85,,1963.0,Leilighet,https://www.finn.no/realestate/homes/ad.html?finnkode=302525597,35058,67.2738317,14.3662389,09/05/2023,1.0,Andel,8003,Bodø
Arbeiderveien 101B,1350000,50,2.0,1960.0,Leilighet,https://www.finn.no/realestate/homes/ad.html?finnkode=302526487,27000,68.4350692,17.398519,09/05/2023,1.0,Andel,8516,Narvik
Michael Krohns gate 103,2390000,40,1.0,2004.0,Leilighet,https://www.finn.no/realestate/homes/ad.html?finnkode=302485831,59750,60.381754,5.3179683,09/05/2023,6.0,Andel,5057,Bergen
Boråsvegen 42-44,7500000,944,,1956.0,Bygård/Flermannsbolig,https://www.finn.no/realestate/homes/ad.html?finnkode=301668608,7944,62.7414712,7.1835204,09/05/2023,,Eier (Selveier),6415,Molde
Skyttergata 23A,3200000,143,,1930.0,Rekkehus,https://www.finn.no/realestate/homes/ad.html?finnkode=302525794,22377,62.476738,6.164593,09/05/2023,,Eier (Selveier),6002,Ålesund
Skoghusveien 12,4690000,100,3.0,1994.0,Tomannsbolig,https://www.finn.no/realestate/homes/ad.html?finnkode=302525678,46900,59.725297,10.863014,09/05/2023,,Andel,1400,Ski
Alnagata 18,3100000,40,2.0,2007.0,Leilighet,https://www.finn.no/realestate/homes/ad.html?finnkode=300597902,77500,59.903346,10.775105,09/05/2023,6.0,Andel,192,Oslo
Ole Guldals gate 1,5650000,288,,1784.0,Enebolig,https://www.finn.no/realestate/homes/ad.html?finnkode=292776125,19618,62.5754809,11.3901428,09/05/2023,,Eier (Selveier),7374,Røros
Gjerdebakken 42,1780000,143,5.0,2022.0,Leilighet,https://www.finn.no/realestate/homes/ad.html?finnkode=302353316,12447,58.986244,5.688418,09/05/2023,,Andel,4027,Stavanger
Sponheimveien 5,4300000,121,4.0,1960.0,Enebolig,https://www.finn.no/realestate/homes/ad.html?finnkode=302351511,35537,59.233833,10.941831,09/05/2023,,Eier (Selveier),1613,Fredrikstad
Odins vei 14,7200000,201,,1978.0,Enebolig,https://www.finn.no/realestate/homes/ad.html?finnkode=302524447,35820,59.718208,10.789576,09/05/2023,,Eier (Selveier),1423,Ski
Granåsvegen 4,3390000,82,3.0,1957.0,Leilighet,https://www.finn.no/realestate/homes/ad.html?finnkode=302466648,41341,59.9315228,11.0631851,09/05/2023,1.0,Eier (Selveier),2008,Fjerdingby
Vårliveien 19D,2400000,37,,2019.0,Leilighet,https://www.finn.no/realestate/homes/ad.html?finnkode=294935319,64864,59.377754,10.756234,09/05/2023,2.0,Eier (Selveier),1580,Rygge
Søndre Husebytun 2C,1290000,72,2.0,2009.0,Leilighet,https://www.finn.no/realestate/homes/ad.html?finnkode=302523830,17916,63.36776,10.3428419,09/05/2023,1.0,Andel,7097,Saupstad
Solbergskogen 2B,2250000,72,3.0,1971.0,Leilighet,https://www.finn.no/realestate/homes/ad.html?finnkode=302523559,31250,59.4990834,10.3010554,09/05/2023,2.0,Andel,3085,Holmestrand
Gangeren 1A,4250000,90,4.0,2008.0,Leilighet,https://www.finn.no/realestate/homes/ad.html?finnkode=298184852,47222,58.8517633,5.7501423,09/05/2023,4.0,Eier (Selveier),4327,Sandnes
Brochmanns gate 3,4350000,53,,1967.0,Leilighet,https://www.finn.no/realestate/homes/ad.html?finnkode=299812677,82075,59.940225,10.763003,09/05/2023,1.0,Eier (Selveier),470,Oslo
Blaklihøgda 3E,4350000,164,4.0,1972.0,Rekkehus,https://www.finn.no/realestate/homes/ad.html?finnkode=302522910,26524,63.396142,10.4380161,09/05/2023,1.0,Andel,7036,Trondheim
Fjellvegen 2,6490000,112,3.0,2021.0,Leilighet,https://www.finn.no/realestate/homes/ad.html?finnkode=294566322,57946,60.139065,11.182719,09/05/2023,3.0,Eier (Selveier),2053,Jessheim
Søbyveien 11,4550000,291,,1950.0,Enebolig,https://www.finn.no/realestate/homes/ad.html?finnkode=236071507,15635,59.8848196,11.5520774,09/05/2023,,Eier (Selveier),1940,Bjørkelangen
Alderslystvegen 10 Vang på,2900000,91,,2015.0,Enebolig,https://www.finn.no/realestate/homes/ad.html?finnkode=302522765,31868,60.870462,11.22662,09/05/2023,,Eier (Selveier),2324,Hedmarken
Bekkevegen 6,5750000,229,,1977.0,Enebolig,https://www.finn.no/realestate/homes/ad.html?finnkode=302522687,25109,58.7821081,5.7301926,09/05/2023,,Eier (Selveier),4355,Kvernaland
Eiksveien 7,5950000,84,5.0,1949.0,Leilighet,https://www.finn.no/realestate/homes/ad.html?finnkode=302522589,70833,59.948621,10.616256,09/05/2023,1.0,Eier (Selveier),1359,Eiksmarka
P.A. Munchs gate 10,16000000,804,,1918.0,Enebolig,https://www.finn.no/realestate/homes/ad.html?finnkode=270134267,19900,59.4052337,5.2820537,09/05/2023,,Eier (Selveier),5529,Haugesund
Haftornveien 40,4490000,188,,1976.0,Enebolig,https://www.finn.no/realestate/homes/ad.html?finnkode=301944102,23882,59.7566746,9.9727959,09/05/2023,,Eier (Selveier),3053,Steinberg
General Ruges vei 55F,8750000,116,,2011.0,Rekkehus,https://www.finn.no/realestate/homes/ad.html?finnkode=302379529,75431,59.881362,10.839654,09/05/2023,,Eier (Selveier),691,Oslo
Presterud alle 21,45000000,446,7.0,1933.0,Enebolig,https://www.finn.no/realestate/homes/ad.html?finnkode=302421042,100896,59.916733,10.583473,09/05/2023,,Eier (Selveier),1357,Bekkestua
Neslia 4D,5700000,77,3.0,2021.0,Leilighet,https://www.finn.no/realestate/homes/ad.html?finnkode=293310004,74025,59.917153,10.555638,09/05/2023,1.0,Eier (Selveier),1344,Haslum
Tyttebærveien 38,2790000,98,,1985.0,Rekkehus,https://www.finn.no/realestate/homes/ad.html?finnkode=302521146,28469,69.9693114,23.3382248,09/05/2023,,Andel,9514,Alta
Nybyveien 62,4200000,171,,1965.0,Enebolig,https://www.finn.no/realestate/homes/ad.html?finnkode=290252120,24561,68.2428155,14.5754297,09/05/2023,,Eier (Selveier),8300,Svolvær
Vallefaret 7,4950000,65,3.0,1954.0,Leilighet,https://www.finn.no/realestate/homes/ad.html?finnkode=302473955,76153,59.918648,10.801771,09/05/2023,2.0,Andel,663,Oslo
Nordbyveien 219,2750000,96,3.0,1970.0,Leilighet,https://www.finn.no/realestate/homes/ad.html?finnkode=302472068,28645,59.9686109,11.0066528,09/05/2023,1.0,Andel,2013,Skjetten
Dynekilgata 15,3950000,43,2.0,1967.0,Leilighet,https://www.finn.no/realestate/homes/ad.html?finnkode=302493270,91860,59.930952,10.776633,09/05/2023,5.0,Andel,569,Oslo
Knausen 181,2900000,103,4.0,1978.0,Rekkehus,https://www.finn.no/realestate/homes/ad.html?finnkode=298655688,28155,69.6929261,18.9956601,09/05/2023,2.0,Andel,9018,Tromsø
Øvre Stokkavei 65,6500000,290,7.0,1920.0,Enebolig,https://www.finn.no/realestate/homes/ad.html?finnkode=302493560,22413,58.9647308,5.7009283,09/05/2023,3.0,Eier (Selveier),4022,Stavanger
Paal Bergs vei 44,4890000,94,4.0,1970.0,Leilighet,https://www.finn.no/realestate/homes/ad.html?finnkode=302520164,52021,59.925801,10.485667,09/05/2023,3.0,Andel,1348,Rykkinn
Øverengsmoen 128,790000,134,,1950.0,Enebolig,https://www.finn.no/realestate/homes/ad.html?finnkode=301511995,5895,61.5821291,10.9997612,09/05/2023,,Eier (Selveier),2480,Koppang
Nedrehjellen 2,3500000,217,6.0,1971.0,Enebolig,https://www.finn.no/realestate/homes/ad.html?finnkode=301928461,16129,62.5814222,6.4519081,09/05/2023,,Eier (Selveier),6270,Brattvåg
Ørneveien 60A,5500000,88,,1960.0,Leilighet,https://www.finn.no/realestate/homes/ad.html?finnkode=302497209,62500,59.9280903,10.5869612,09/05/2023,1.0,Eier (Selveier),1357,Bekkestua
Kirkerønningen 3,3250000,136,,1988.0,Enebolig,https://www.finn.no/realestate/homes/ad.html?finnkode=302340482,23897,59.116999,10.395381,09/05/2023,,Eier (Selveier),3145,Tjøme
Merkurstien 10,4455000,114,4.0,1983.0,Enebolig,https://www.finn.no/realestate/homes/ad.html?finnkode=298791280,39078,59.715473,10.16077,09/05/2023,,Eier (Selveier),3033,Drammen
Kaptein Mejlænders gate 1G,2750000,105,4.0,1954.0,Rekkehus,https://www.finn.no/realestate/homes/ad.html?finnkode=302473215,26190,58.9775178,5.7124823,09/05/2023,3.0,Andel,4026,Stavanger
Rødbergveien 47,4780000,67,3.0,1971.0,Leilighet,https://www.finn.no/realestate/homes/ad.html?finnkode=302519580,71343,59.9445168,10.8363945,09/05/2023,1.0,Andel,593,Oslo
Åsveien 17,5950000,214,5.0,1960.0,Enebolig,https://www.finn.no/realestate/homes/ad.html?finnkode=302519260,27803,59.2882221,11.0580499,09/05/2023,3.0,Eier (Selveier),1712,Grålum
Maridalsveien 227C,4500000,55,2.0,1940.0,Leilighet,https://www.finn.no/realestate/homes/ad.html?finnkode=302519019,81818,59.945399,10.763585,09/05/2023,4.0,Andel,467,Oslo
Bregneveien 37,3350000,121,5.0,1974.0,Enebolig,https://www.finn.no/realestate/homes/ad.html?finnkode=298804589,27685,59.6244952,10.3952461,09/05/2023,1.0,Eier (Selveier),3060,Svelvik
Skedsmogata 25,8200000,84,4.0,,Leilighet,https://www.finn.no/realestate/homes/ad.html?finnkode=298686101,97619,59.913676,10.786392,09/05/2023,4.0,Eier (Selveier),655,Oslo
Roald Amundsens gate 8,2590000,89,4.0,1936.0,Leilighet,https://www.finn.no/realestate/homes/ad.html?finnkode=296608650,29101,59.5812997,11.1576018,09/05/2023,1.0,Eier (Selveier),1831,Askim
Sogstiveien 119F,11690000,230,8.0,2011.0,Enebolig,https://www.finn.no/realestate/homes/ad.html?finnkode=295733806,50826,59.6537404,10.6399303,09/05/2023,3.0,Eier (Selveier),1446,Drøbak
Vinkelveien 20,4500000,312,9.0,1982.0,Enebolig,https://www.finn.no/realestate/homes/ad.html?finnkode=302517374,14423,58.1286756,7.0553057,09/05/2023,3.0,Eier (Selveier),4580,Lyngdal
Håvasteinbakken 7,1790000,36,2.0,2005.0,Leilighet,https://www.finn.no/realestate/homes/ad.html?finnkode=302514877,49722,59.1001425,5.6986277,09/05/2023,2.0,Eier (Selveier),4150,Rennesøy
Håvundvegen 207,3150000,204,5.0,1960.0,Enebolig,https://www.finn.no/realestate/homes/ad.html?finnkode=297386300,15441,59.1988625,9.6304964,09/05/2023,,Eier (Selveier),3714,Skien
Ankerplassen 16,1930000,40,2.0,1980.0,Leilighet,https://www.finn.no/realestate/homes/ad.html?finnkode=302383217,48250,58.9888438,5.7322007,09/05/2023,3.0,Eier (Selveier),4077,Hundvåg
Seljestadveien 56,3450000,116,,2020.0,Leilighet,https://www.finn.no/realestate/homes/ad.html?finnkode=302516679,29741,68.7885221,16.5323239,09/05/2023,1.0,Andel,9406,Harstad
Brauterstubben 50,7200000,138,6.0,2023.0,Rekkehus,https://www.finn.no/realestate/homes/ad.html?finnkode=302515889,52173,59.973219,11.057581,09/05/2023,,Eier (Selveier),2007,Kjeller
Fasanveien 35E,3650000,82,3.0,2016.0,Leilighet,https://www.finn.no/realestate/homes/ad.html?finnkode=301642666,44512,59.286486,11.091128,09/05/2023,2.0,Eier (Selveier),1711,Sarpsborg
Hallingstadveien 22,8450000,242,,2005.0,Enebolig,https://www.finn.no/realestate/homes/ad.html?finnkode=299226995,34917,59.8132814,10.2630189,09/05/2023,,Eier (Selveier),3406,Tranby
Stærvegen 2,3550000,82,3.0,1971.0,Leilighet,https://www.finn.no/realestate/homes/ad.html?finnkode=293946737,43292,69.6764776,18.9407666,09/05/2023,1.0,Andel,9015,Tromsø
Åkragata 94,5990000,119,5.0,2015.0,Rekkehus,https://www.finn.no/realestate/homes/ad.html?finnkode=302515362,50336,58.9615723,5.7574664,09/05/2023,2.0,Eier (Selveier),4015,Stavanger
Thorstein Stenbeks vei 57,2850000,120,5.0,1981.0,Rekkehus,https://www.finn.no/realestate/homes/ad.html?finnkode=302514626,23750,59.6563365,9.6723331,09/05/2023,,Andel,3610,Kongsberg
C. Sundts gate 36,1550000,24,1.0,1965.0,Leilighet,https://www.finn.no/realestate/homes/ad.html?finnkode=302514289,64583,60.3963273,5.3158116,09/05/2023,2.0,Andel,5004,Bergen
Størksvegen 5F,5390000,127,,,Leilighet,https://www.finn.no/realestate/homes/ad.html?finnkode=302514277,42440,61.3135596,12.2628773,09/05/2023,,Eier (Selveier),2420,Trysil
Kvislavegen 6,1180000,73,,2021.0,Leilighet,https://www.finn.no/realestate/homes/ad.html?finnkode=293323676,16164,63.788787,11.490363,09/05/2023,1.0,Andel,7654,Verdal
Jernbanegata 23 B,850000,77,3.0,2015.0,Leilighet,https://www.finn.no/realestate/homes/ad.html?finnkode=293239865,11038,63.7945753,11.4842456,09/05/2023,1.0,Andel,7650,Verdal
Bøkkerveien 10 C,4000000,35,1.0,2019.0,Leilighet,https://www.finn.no/realestate/homes/ad.html?finnkode=297619747,114285,59.92789,10.795351,09/05/2023,3.0,Eier (Selveier),579,Oslo
Olavs gate 12G,2890000,97,3.0,2001.0,Leilighet,https://www.finn.no/realestate/homes/ad.html?finnkode=302485576,29793,59.0547532,10.0296263,09/05/2023,,Andel,3256,Larvik
Fjelltunveien 1,6990000,211,6.0,1965.0,Enebolig,https://www.finn.no/realestate/homes/ad.html?finnkode=302487164,33127,59.6630257,10.6453632,09/05/2023,2.0,Eier (Selveier),1447,Drøbak
Lilloe-Olsens vei 21,10990000,148,5.0,1939.0,Tomannsbolig,https://www.finn.no/realestate/homes/ad.html?finnkode=302513114,74256,59.953762,10.783567,09/05/2023,2.0,Eier (Selveier),489,Oslo
Rabbenveien 4,2800000,169,5.0,1960.0,Enebolig,https://www.finn.no/realestate/homes/ad.html?finnkode=302374087,16568,67.2629167,15.4232705,09/05/2023,,Eier (Selveier),8200,Fauske
Åsenhagen 3A,2400000,67,3.0,1967.0,Leilighet,https://www.finn.no/realestate/homes/ad.html?finnkode=302349676,35820,60.0140369,11.0333925,09/05/2023,2.0,Andel,2020,Skedsmokorset
Storgata 166,1710000,38,1.0,2018.0,Leilighet,https://www.finn.no/realestate/homes/ad.html?finnkode=267920513,45000,69.65606,18.962729,09/05/2023,4.0,Andel,9008,Tromsø
Åkragata 52,5950000,118,5.0,2016.0,Rekkehus,https://www.finn.no/realestate/homes/ad.html?finnkode=302511302,50423,58.9618895,5.7569783,09/05/2023,,Eier (Selveier),4015,Stavanger
Kvednadalen 68 Klepp,2450000,55,3.0,2006.0,Leilighet,https://www.finn.no/realestate/homes/ad.html?finnkode=301807955,44545,58.7756687,5.6842957,09/05/2023,3.0,Eier (Selveier),4353,stasjon
Nils Bays vei 38,6320000,64,,1953.0,Leilighet,https://www.finn.no/realestate/homes/ad.html?finnkode=302511056,98750,59.952857,10.741025,09/05/2023,2.0,Andel,876,Oslo
Vallefaret 23,4370000,52,2.0,1954.0,Leilighet,https://www.finn.no/realestate/homes/ad.html?finnkode=298826224,84038,59.920329,10.802989,09/05/2023,4.0,Andel,663,Oslo
Smidsrødveien 73B,5375000,340,6.0,1974.0,Enebolig,https://www.finn.no/realestate/homes/ad.html?finnkode=302510015,15808,59.2378651,10.4268544,09/05/2023,,Eier (Selveier),3120,Nøtterøy
Barlindveien 40,8850000,293,,1967.0,Enebolig,https://www.finn.no/realestate/homes/ad.html?finnkode=269698036,30204,59.2822449,10.4397514,09/05/2023,,Eier (Selveier),3118,Tønsberg
Brekkeveien 23,1600000,24,1.0,1973.0,Leilighet,https://www.finn.no/realestate/homes/ad.html?finnkode=302502689,66666,59.6539634,10.7877561,09/05/2023,2.0,Andel,1430,Ås
Saudalen 61,4690000,175,5.0,1971.0,Tomannsbolig,https://www.finn.no/realestate/homes/ad.html?finnkode=302340512,26800,60.4785078,5.2613586,09/05/2023,,Eier (Selveier),5124,Morvik
Bratsbergvegen 342,4750000,160,,1967.0,Enebolig,https://www.finn.no/realestate/homes/ad.html?finnkode=298693718,29687,63.3557715,10.4428868,09/05/2023,2.0,Eier (Selveier),7039,Trondheim
Brånaåsen 7B,900000,70,,2008.0,Leilighet,https://www.finn.no/realestate/homes/ad.html?finnkode=302508772,12857,59.192822,9.9883859,09/05/2023,2.0,Andel,3282,Kvelde
Televegen 7,3900000,384,9.0,1936.0,Enebolig,https://www.finn.no/realestate/homes/ad.html?finnkode=301826538,10156,61.9351709,5.1125946,09/05/2023,4.0,Eier (Selveier),6700,Måløy
Haugevegen 77A,1190000,39,2.0,1920.0,Leilighet,https://www.finn.no/realestate/homes/ad.html?finnkode=273983547,30512,59.4228424,5.2653382,09/05/2023,1.0,Eier (Selveier),5515,Haugesund
Sandvollveien 40B,1700000,45,2.0,1970.0,Leilighet,https://www.finn.no/realestate/homes/ad.html?finnkode=302376488,37777,59.2599589,11.179607,09/05/2023,2.0,Andel,1743,Klavestadhaugen
Belsetveien 66,5600000,95,,1974.0,Rekkehus,https://www.finn.no/realestate/homes/ad.html?finnkode=299813514,58947,59.927464,10.487936,09/05/2023,,Eier (Selveier),1348,Rykkinn
Malerbakken 4,5000000,213,,1982.0,Enebolig,https://www.finn.no/realestate/homes/ad.html?finnkode=302379998,23474,61.1066995,10.4887637,09/05/2023,2.0,Eier (Selveier),2614,Lillehammer
Fredheimveien 33B,6200000,200,5.0,1958.0,Tomannsbolig,https://www.finn.no/realestate/homes/ad.html?finnkode=295609597,31000,59.94492,10.914573,09/05/2023,3.0,Eier (Selveier),1087,Oslo
Torgny Segerstedts vei 150,1850000,45,2.0,1972.0,Leilighet,https://www.finn.no/realestate/homes/ad.html?finnkode=302369606,41111,60.3448431,5.2970885,09/05/2023,2.0,Andel,5143,Fyllingsdalen
Mølleråsveien 7B,4500000,175,,1962.0,Enebolig,https://www.finn.no/realestate/homes/ad.html?finnkode=302506878,25714,59.1397611,10.2243549,09/05/2023,,Eier (Selveier),3216,Sandefjord
ESSENDROPS GATE 5,1200000,14,,1998.0,Garasje/Parkering,https://www.finn.no/realestate/homes/ad.html?finnkode=301801941,85714,59.928906,10.709976,09/05/2023,,Eier (Selveier),368,Oslo
Arups gate 22B,3100000,19,1.0,1890.0,Leilighet,https://www.finn.no/realestate/homes/ad.html?finnkode=302506499,163157,59.907061,10.771995,09/05/2023,2.0,Andel,192,Oslo
Raskenlundvegen 19,3950000,172,4.0,1977.0,Enebolig,https://www.finn.no/realestate/homes/ad.html?finnkode=297315576,22965,59.1168905,9.6552059,09/05/2023,,Eier (Selveier),3928,Porsgrunn
Kleppekjærmyra 18B,2550000,72,3.0,2015.0,Leilighet,https://www.finn.no/realestate/homes/ad.html?finnkode=301625374,35416,58.370665,8.638588,09/05/2023,2.0,Eier (Selveier),4885,Grimstad
Søvigheia 55,1590000,96,,2005.0,Leilighet,https://www.finn.no/realestate/homes/ad.html?finnkode=302505959,16562,58.0743701,7.8588098,09/05/2023,2.0,Andel,4643,Søgne
Hasselbakken 16,5700000,155,4.0,1963.0,Enebolig,https://www.finn.no/realestate/homes/ad.html?finnkode=301915220,36774,59.7600333,10.2281279,09/05/2023,,Eier (Selveier),3413,Lier
Agnefestveien 40E,2380000,90,3.0,2012.0,Leilighet,https://www.finn.no/realestate/homes/ad.html?finnkode=302505103,26444,58.13259,7.0681722,09/05/2023,2.0,Eier (Selveier),4580,Lyngdal
Gråbrødreveien 2B,15000000,326,5.0,1990.0,Enebolig,https://www.finn.no/realestate/homes/ad.html?finnkode=294822877,46012,59.929741,10.665443,09/05/2023,,Eier (Selveier),377,Oslo
Berganveien 162,4655000,147,6.0,1951.0,Enebolig,https://www.finn.no/realestate/homes/ad.html?finnkode=299649434,31666,59.2030108,10.446887,09/05/2023,3.0,Eier (Selveier),3138,Skallestad
Vettrelia 36,7650000,160,5.0,1967.0,Tomannsbolig,https://www.finn.no/realestate/homes/ad.html?finnkode=302504054,47812,59.8245933,10.4668362,09/05/2023,2.0,Eier (Selveier),1392,Vettre
Espvegen 71,4690000,315,3.0,1966.0,Enebolig,https://www.finn.no/realestate/homes/ad.html?finnkode=296904528,14888,63.327411,10.3228495,09/05/2023,1.0,Eier (Selveier),7083,Leinstrand
Hagaliveien 21,12500000,200,6.0,1948.0,Enebolig,https://www.finn.no/realestate/homes/ad.html?finnkode=301770003,62500,59.934366,10.626585,09/05/2023,,Eier (Selveier),1358,Jar
Batteriveien 23,14600000,210,7.0,1963.0,Enebolig,https://www.finn.no/realestate/homes/ad.html?finnkode=301826848,69523,59.6762833,10.6272953,09/05/2023,,Eier (Selveier),1443,Drøbak
Nedre Mallasvikvegen 2A,4790000,136,,2017.0,Tomannsbolig,https://www.finn.no/realestate/homes/ad.html?finnkode=291790183,35220,61.505211,5.700103,09/05/2023,3.0,Eier (Selveier),6817,Naustdal
Eidsvågvegen 51,3250000,184,,1900.0,Enebolig,https://www.finn.no/realestate/homes/ad.html?finnkode=302502559,17663,59.7130097,5.5161015,09/05/2023,,Eier (Selveier),5554,Valevåg
Storgaten 85,2190000,80,3.0,1986.0,Leilighet,https://www.finn.no/realestate/homes/ad.html?finnkode=302502255,27375,58.3450638,8.5824852,09/05/2023,3.0,Eier (Selveier),4877,Grimstad
Sundts veg 89,5000000,66,,2020.0,Leilighet,https://www.finn.no/realestate/homes/ad.html?finnkode=302502185,75757,60.313921,5.332157,09/05/2023,2.0,Eier (Selveier),5221,Nesttun
Diamantveien 30,5790000,264,6.0,1974.0,Enebolig,https://www.finn.no/realestate/homes/ad.html?finnkode=302365330,21931,58.8362474,5.708879,09/05/2023,2.0,Eier (Selveier),4321,Sandnes
Micheletveien 38K,3200000,106,4.0,1974.0,Leilighet,https://www.finn.no/realestate/homes/ad.html?finnkode=302464613,30188,59.939247,10.88625,09/05/2023,3.0,Andel,1053,Oslo
Jerikoveien 99C,4090000,123,4.0,1980.0,Leilighet,https://www.finn.no/realestate/homes/ad.html?finnkode=295055092,33252,59.941191,10.895365,09/05/2023,4.0,Andel,1052,Oslo
Kjøpmannsgata 8C,7690000,122,,2023.0,Leilighet,https://www.finn.no/realestate/homes/ad.html?finnkode=302501069,63032,63.467925,10.918274,09/05/2023,4.0,Eier (Selveier),7500,Stjørdal
Kubbaleitet 84,6490000,95,4.0,2023.0,Leilighet,https://www.finn.no/realestate/homes/ad.html?finnkode=301821265,68315,60.555954,5.259038,09/05/2023,2.0,Eier (Selveier),5916,Isdalstø
Nygårdsveien 1C,8200000,280,8.0,1939.0,Enebolig,https://www.finn.no/realestate/homes/ad.html?finnkode=297038275,29285,59.9422013,11.0109286,09/05/2023,3.0,Eier (Selveier),1467,Strømmen
Teisenveien 26,4120000,58,3.0,1950.0,Leilighet,https://www.finn.no/realestate/homes/ad.html?finnkode=302493757,71034,59.914983,10.822071,09/05/2023,1.0,Andel,666,Oslo
Storevollen 4 Vestre,4190000,289,,1983.0,Enebolig,https://www.finn.no/realestate/homes/ad.html?finnkode=302499266,14498,59.041922,5.685312,09/05/2023,,Eier (Selveier),4152,Åmøy
Aumliveien 17,1830000,218,,1961.0,Enebolig,https://www.finn.no/realestate/homes/ad.html?finnkode=301942514,8394,62.2733482,10.7831458,09/05/2023,,Eier (Selveier),2500,Tynset
Yvenlia 5,6500000,239,5.0,1980.0,Enebolig,https://www.finn.no/realestate/homes/ad.html?finnkode=302340693,27196,59.2827395,11.0616329,09/05/2023,2.0,Eier (Selveier),1712,Grålum
Vadmyrveien 71B,2190000,57,2.0,1974.0,Leilighet,https://www.finn.no/realestate/homes/ad.html?finnkode=302498255,38421,60.3638678,5.2272919,09/05/2023,1.0,Andel,5172,Loddefjord
Fagerlia 30,4990000,84,3.0,1870.0,Leilighet,https://www.finn.no/realestate/homes/ad.html?finnkode=233318290,59404,59.744467,10.226738,09/05/2023,2.0,Eier (Selveier),3011,Drammen
Åsebråttunet 12C,5890000,104,,2020.0,Leilighet,https://www.finn.no/realestate/homes/ad.html?finnkode=294389174,56634,59.226403,10.950627,09/05/2023,1.0,Eier (Selveier),1605,Fredrikstad
Nøstegaten 65A,3290000,40,2.0,1899.0,Leilighet,https://www.finn.no/realestate/homes/ad.html?finnkode=302381899,82250,60.3931802,5.315132,09/05/2023,2.0,Eier (Selveier),5011,Bergen
Lerkeveien 27,5990000,332,,1973.0,Enebolig,https://www.finn.no/realestate/homes/ad.html?finnkode=295212825,18042,59.10967,10.2158734,09/05/2023,1.0,Eier (Selveier),3209,Sandefjord
Saupstadringen 17 A,2650000,94,4.0,1972.0,Leilighet,https://www.finn.no/realestate/homes/ad.html?finnkode=302497593,28191,63.365925,10.3541313,09/05/2023,4.0,Andel,7078,Saupstad
Rueguto 105 Bø i,3200000,153,7.0,2012.0,Enebolig,https://www.finn.no/realestate/homes/ad.html?finnkode=302359332,20915,59.433905,9.014527,09/05/2023,2.0,Eier (Selveier),3803,Telemark
Vollavegen 47B Indre,3800000,177,5.0,1971.0,Rekkehus,https://www.finn.no/realestate/homes/ad.html?finnkode=301968030,21468,60.4168668,5.4720873,09/05/2023,3.0,Eier (Selveier),5261,Arna
Elvegata 9,1550000,47,,2011.0,Leilighet,https://www.finn.no/realestate/homes/ad.html?finnkode=302496708,32978,62.7394982,7.1673468,09/05/2023,1.0,Andel,6413,Molde
Torgveien 13,4300000,69,,2010.0,Leilighet,https://www.finn.no/realestate/homes/ad.html?finnkode=302496793,62318,59.7188913,10.8404833,09/05/2023,5.0,Eier (Selveier),1400,Ski
Disenveien 51,3990000,53,2.0,1959.0,Leilighet,https://www.finn.no/realestate/homes/ad.html?finnkode=299371154,75283,59.941766,10.79787,09/05/2023,3.0,Andel,587,Oslo
Kapellveien 107,5600000,98,3.0,2002.0,Rekkehus,https://www.finn.no/realestate/homes/ad.html?finnkode=302430142,57142,59.8510333,10.6575462,09/05/2023,2.0,Eier (Selveier),1452,Nesoddtangen
Wistings vei 7B,3300000,168,4.0,1970.0,Enebolig,https://www.finn.no/realestate/homes/ad.html?finnkode=301930359,19642,59.419039,10.466686,09/05/2023,1.0,Eier (Selveier),3182,Horten
Nordahl Bruns gate 18A,3650000,35,2.0,1927.0,Leilighet,https://www.finn.no/realestate/homes/ad.html?finnkode=302368676,104285,59.918688,10.739252,09/05/2023,3.0,Andel,165,Oslo
Solløsgata 35,8490000,369,,1949.0,Enebolig,https://www.finn.no/realestate/homes/ad.html?finnkode=297381502,23008,59.743389,10.011357,09/05/2023,,Eier (Selveier),3050,Mjøndalen
Bregnevegen 16,6590000,311,5.0,2003.0,Enebolig,https://www.finn.no/realestate/homes/ad.html?finnkode=302403244,21189,59.023393,6.055939,09/05/2023,,Eier (Selveier),4104,Jørpeland
Skogveien 29 c,12000000,153,5.0,1963.0,Enebolig,https://www.finn.no/realestate/homes/ad.html?finnkode=300745575,78431,59.654095,10.643673,09/05/2023,2.0,Eier (Selveier),1446,Drøbak
Nordfrøyveien 512,3590000,147,5.0,1959.0,Enebolig,https://www.finn.no/realestate/homes/ad.html?finnkode=302368274,24421,63.7398865,8.8354338,09/05/2023,,Eier (Selveier),7260,Sistranda
Krytja 10,2500000,161,5.0,1946.0,Enebolig,https://www.finn.no/realestate/homes/ad.html?finnkode=302349918,15527,67.2341248,15.4083136,09/05/2023,,Eier (Selveier),8211,Fauske
Tåjeveien 2B Ytre,5650000,112,5.0,2023.0,Tomannsbolig,https://www.finn.no/realestate/homes/ad.html?finnkode=293032494,50446,59.738924,11.01334,09/05/2023,,Eier (Selveier),1914,Enebakk
Eiriks gate 12,3400000,32,2.0,2005.0,Leilighet,https://www.finn.no/realestate/homes/ad.html?finnkode=302344740,106250,59.912285,10.772255,09/05/2023,1.0,Eier (Selveier),650,Oslo
Klæbuveien 73,4190000,77,,1937.0,Leilighet,https://www.finn.no/realestate/homes/ad.html?finnkode=302493470,54415,63.414463,10.400317,09/05/2023,2.0,Andel,7030,Trondheim
Jerpefaret 8A,11500000,161,5.0,1986.0,Tomannsbolig,https://www.finn.no/realestate/homes/ad.html?finnkode=302493477,71428,59.968844,10.649403,09/05/2023,,Eier (Selveier),788,Oslo
Alingsåsveien 29,3290000,98,3.0,1974.0,Leilighet,https://www.finn.no/realestate/homes/ad.html?finnkode=302493539,33571,59.9703077,10.9978327,09/05/2023,4.0,Andel,2013,Skjetten
Hamarøyveien,1400000,163,6.0,1930.0,Enebolig,https://www.finn.no/realestate/homes/ad.html?finnkode=282151221,8588,68.129952,15.890735,09/05/2023,3.0,Eier (Selveier),5913,Ulvsvåg
Behrens' gate 8 A,32000000,212,,1900.0,Leilighet,https://www.finn.no/realestate/homes/ad.html?finnkode=302492470,150943,59.916975,10.71505,09/05/2023,4.0,Eier (Selveier),257,Oslo
Markusveien 57,5790000,165,8.0,1957.0,Enebolig,https://www.finn.no/realestate/homes/ad.html?finnkode=302365907,35090,59.725064,10.221226,09/05/2023,,Eier (Selveier),3041,Drammen
Blyveien 1A,2290000,82,,1967.0,Leilighet,https://www.finn.no/realestate/homes/ad.html?finnkode=302492038,27926,58.144024,7.9563393,09/05/2023,3.0,Andel,4629,Kristiansand S
Skjettenveien 42F,7550000,102,4.0,2022.0,Leilighet,https://www.finn.no/realestate/homes/ad.html?finnkode=282303949,74019,59.9606926,10.9971272,09/05/2023,3.0,Eier (Selveier),2013,Skjetten
Fartein Valens vei 27,1590000,49,2.0,2007.0,Leilighet,https://www.finn.no/realestate/homes/ad.html?finnkode=296111326,32448,58.8511273,5.7129641,09/05/2023,2.0,Andel,4318,Sandnes
Slettheiveien 68,1790000,102,,1968.0,Leilighet,https://www.finn.no/realestate/homes/ad.html?finnkode=302491189,17549,58.1361078,7.9507541,09/05/2023,10.0,Andel,4626,Kristiansand S
Reitevegen 5,4700000,276,6.0,2001.0,Enebolig,https://www.finn.no/realestate/homes/ad.html?finnkode=302490846,17028,62.3071395,6.9097745,09/05/2023,,Eier (Selveier),6200,Stranda
Ullernveien 17,5990000,300,,1973.0,Enebolig,https://www.finn.no/realestate/homes/ad.html?finnkode=302490634,19966,59.7898555,9.9076452,09/05/2023,,Eier (Selveier),3303,Hokksund
Båtstad alle 17,3900000,181,5.0,1946.0,Enebolig,https://www.finn.no/realestate/homes/ad.html?finnkode=302490508,21546,58.9322061,5.5976881,09/05/2023,,Eier (Selveier),4056,Tananger
Bergstigen 4,2500000,230,8.0,1968.0,Enebolig,https://www.finn.no/realestate/homes/ad.html?finnkode=302490378,10869,60.7023047,8.963145,09/05/2023,,Eier (Selveier),3550,Gol
Ormerudveien 52B,7100000,162,,1912.0,Enebolig,https://www.finn.no/realestate/homes/ad.html?finnkode=302383912,43827,59.818181,10.806962,09/05/2023,2.0,Eier (Selveier),1410,Kolbotn
Jacob Aalls gate 17A,12650000,101,4.0,1928.0,Leilighet,https://www.finn.no/realestate/homes/ad.html?finnkode=301920126,125247,59.928841,10.718365,09/05/2023,2.0,Aksje,364,Oslo
Gruva 6,2100000,79,,,Enebolig,https://www.finn.no/realestate/homes/ad.html?finnkode=301920351,26582,61.1036254,10.6959228,09/05/2023,,Eier (Selveier),2610,Mesnali
Fjordgata 24A,8990000,146,,1857.0,Leilighet,https://www.finn.no/realestate/homes/ad.html?finnkode=302489133,61575,63.434896,10.401876,09/05/2023,5.0,Eier (Selveier),7010,Trondheim
Finnøyvegen 507,2590000,91,3.0,2011.0,Leilighet,https://www.finn.no/realestate/homes/ad.html?finnkode=302489034,28461,59.164371,5.871216,09/05/2023,2.0,Eier (Selveier),4160,Finnøy
Haakon VII gate 50 B,4980000,153,1.0,1958.0,Tomannsbolig,https://www.finn.no/realestate/homes/ad.html?finnkode=299633804,32549,67.2756997,14.3805959,09/05/2023,4.0,Eier (Selveier),8003,Bodø
Folkvangveien 25,3850000,162,4.0,1890.0,Enebolig,https://www.finn.no/realestate/homes/ad.html?finnkode=302437958,23765,59.9341891,9.9759151,09/05/2023,2.0,Eier (Selveier),3360,Geithus
Korsgata 10,5800000,68,3.0,1985.0,Leilighet,https://www.finn.no/realestate/homes/ad.html?finnkode=295704758,85294,59.920196,10.754918,09/05/2023,1.0,Andel,551,Oslo
Myratoppen 36,8950000,282,,2000.0,Enebolig,https://www.finn.no/realestate/homes/ad.html?finnkode=293837900,31737,59.2274178,10.9362403,09/05/2023,,Eier (Selveier),1613,Fredrikstad
Oksenøyveien 39C,10350000,94,3.0,2020.0,Leilighet,https://www.finn.no/realestate/homes/ad.html?finnkode=302488366,110106,59.904185,10.611366,09/05/2023,2.0,Eier (Selveier),1366,Lysaker
Lien 28,2150000,32,,1917.0,Leilighet,https://www.finn.no/realestate/homes/ad.html?finnkode=302488285,67187,60.3779406,5.3260059,09/05/2023,1.0,Andel,5057,Bergen
Innersvingen 15,3550000,146,,2014.0,Enebolig,https://www.finn.no/realestate/homes/ad.html?finnkode=302488105,24315,58.4987103,8.6197639,09/05/2023,,Eier (Selveier),4820,Froland
Elnesveien 12,5990000,267,4.0,1920.0,Enebolig,https://www.finn.no/realestate/homes/ad.html?finnkode=301988740,22434,60.1303075,10.8071719,09/05/2023,3.0,Eier (Selveier),1488,Hakadal
Orkideveien 8B,3500000,80,4.0,2007.0,Leilighet,https://www.finn.no/realestate/homes/ad.html?finnkode=302432422,43750,59.234286,10.971227,09/05/2023,2.0,Andel,1617,Fredrikstad
Kirkeveien 122B,8450000,180,5.0,2007.0,Tomannsbolig,https://www.finn.no/realestate/homes/ad.html?finnkode=302051822,46944,59.9184728,11.1701422,09/05/2023,,Eier (Selveier),1900,Fetsund
Operagata 61A,6690000,43,2.0,2020.0,Leilighet,https://www.finn.no/realestate/homes/ad.html?finnkode=293683797,155581,59.906753,10.757844,09/05/2023,3.0,Eier (Selveier),194,Oslo
Ullevålsveien 61A,12000000,114,4.0,1897.0,Leilighet,https://www.finn.no/realestate/homes/ad.html?finnkode=302360260,105263,59.926388,10.738349,09/05/2023,4.0,Eier (Selveier),171,Oslo
Austre Karmøyveg 57A,2650000,248,6.0,1950.0,Enebolig,https://www.finn.no/realestate/homes/ad.html?finnkode=291523976,10685,59.2815457,5.288781,09/05/2023,,Eier (Selveier),4250,Kopervik
Fjordveien 42,5500000,244,,1938.0,Enebolig,https://www.finn.no/realestate/homes/ad.html?finnkode=302486331,22540,59.4293443,10.6613834,09/05/2023,,Eier (Selveier),1532,Moss
Holmestrandgaten 9 A,1300000,45,2.0,1971.0,Leilighet,https://www.finn.no/realestate/homes/ad.html?finnkode=302486196,28888,59.267124,10.423043,09/05/2023,1.0,Andel,3112,Tønsberg
Storestraumen 169,2700000,64,,2015.0,Leilighet,https://www.finn.no/realestate/homes/ad.html?finnkode=290975706,42187,60.227131,5.455291,09/05/2023,1.0,Eier (Selveier),5212,Søfteland
Øvre Okshola 4,3600000,116,4.0,2014.0,Enebolig,https://www.finn.no/realestate/homes/ad.html?finnkode=302485995,31034,61.919409,5.152711,09/05/2023,,Eier (Selveier),6718,Deknepollen
2. Strøm terrasse 19A,3890000,64,3.0,1876.0,Leilighet,https://www.finn.no/realestate/homes/ad.html?finnkode=302485659,60781,59.735274,10.190006,09/05/2023,4.0,Eier (Selveier),3046,Drammen
Byåsveien 162,4450000,55,2.0,2022.0,Leilighet,https://www.finn.no/realestate/homes/ad.html?finnkode=302376329,80909,63.406916,10.358746,09/05/2023,3.0,Eier (Selveier),7021,Trondheim
Johan Schaannings gate 86B,4490000,206,5.0,1968.0,Enebolig,https://www.finn.no/realestate/homes/ad.html?finnkode=293485378,21796,59.1866605,9.6299555,09/05/2023,,Eier (Selveier),3746,Skien
Åmotshagan 11 A,6990000,217,5.0,2004.0,Enebolig,https://www.finn.no/realestate/homes/ad.html?finnkode=296982906,32211,60.082337,11.001552,09/05/2023,,Eier (Selveier),2022,Gjerdrum
Johannes Bruns gate 11,11200000,120,3.0,1893.0,Leilighet,https://www.finn.no/realestate/homes/ad.html?finnkode=297142089,93333,59.929017,10.735159,09/05/2023,4.0,Eier (Selveier),452,Oslo
Sundsvegen 158 Sunde i,990000,230,,1916.0,Andre,https://www.finn.no/realestate/homes/ad.html?finnkode=271487586,4304,59.8361899,5.7116749,09/05/2023,3.0,Eier (Selveier),5450,Sunnhordland
Vårliveien 9,4940000,110,3.0,2019.0,Leilighet,https://www.finn.no/realestate/homes/ad.html?finnkode=297460548,44909,59.376492,10.75534,09/05/2023,1.0,Eier (Selveier),1580,Rygge
Gjeble Pederssøns gate 12B,5990000,80,5.0,1875.0,Tomannsbolig,https://www.finn.no/realestate/homes/ad.html?finnkode=302484770,74875,60.4021278,5.3279641,09/05/2023,,Eier (Selveier),5034,Bergen
Hobergvegen 51,3690000,102,,1981.0,Enebolig,https://www.finn.no/realestate/homes/ad.html?finnkode=297701369,36176,60.77314,11.126482,09/05/2023,,Eier (Selveier),2312,Ottestad
Øisteins gate 2C,990000,65,3.0,2008.0,Leilighet,https://www.finn.no/realestate/homes/ad.html?finnkode=302483683,15230,59.4343465,10.6479913,09/05/2023,2.0,Andel,1511,Moss
Sandslimarka 33B,3190000,45,2.0,2021.0,Leilighet,https://www.finn.no/realestate/homes/ad.html?finnkode=301791493,70888,60.2926,5.282065,09/05/2023,2.0,Eier (Selveier),5254,Sandsli
Kløvstadhøgdvegen 147,4990000,199,6.0,1979.0,Enebolig,https://www.finn.no/realestate/homes/ad.html?finnkode=302483512,25075,61.0174546,10.571027,09/05/2023,,Eier (Selveier),2372,Brøttum
Møllervegen 3A,6990000,137,,1963.0,Enebolig,https://www.finn.no/realestate/homes/ad.html?finnkode=301535794,51021,59.9299725,11.0778165,09/05/2023,,Eier (Selveier),2008,Fjerdingby
Frydenlund 37B,2300000,51,,1979.0,Leilighet,https://www.finn.no/realestate/homes/ad.html?finnkode=302483227,45098,59.1387331,10.2014704,09/05/2023,2.0,Andel,3238,Sandefjord
St. Olavs vei 18,3490000,41,,2022.0,Leilighet,https://www.finn.no/realestate/homes/ad.html?finnkode=302483152,85121,58.156142,8.014387,09/05/2023,3.0,Eier (Selveier),4631,Kristiansand S
Liveien 25,3650000,155,,1965.0,Enebolig,https://www.finn.no/realestate/homes/ad.html?finnkode=302029655,23548,68.7750694,16.5672719,09/05/2023,2.0,Eier (Selveier),9411,Harstad
Torgvegen 8,2990000,121,3.0,1972.0,Tomannsbolig,https://www.finn.no/realestate/homes/ad.html?finnkode=302381544,24710,58.772477,5.631576,09/05/2023,,Eier (Selveier),4350,Kleppe
Veslefrikkveien 108,4400000,94,,1968.0,Rekkehus,https://www.finn.no/realestate/homes/ad.html?finnkode=302482971,46808,60.3436417,5.2587032,09/05/2023,,Andel,5142,Fyllingsdalen
Granittveien 24A,5790000,130,5.0,2022.0,Rekkehus,https://www.finn.no/realestate/homes/ad.html?finnkode=302444706,44538,59.765772,10.087493,09/05/2023,3.0,Eier (Selveier),3057,Solbergelva
Hasselstien 10,4890000,235,5.0,1966.0,Enebolig,https://www.finn.no/realestate/homes/ad.html?finnkode=296943538,20808,59.1304118,9.6451029,09/05/2023,,Eier (Selveier),3925,Porsgrunn
Bøgutua 30,3480000,171,6.0,1921.0,Enebolig,https://www.finn.no/realestate/homes/ad.html?finnkode=297014981,20350,60.7124014,11.1925804,09/05/2023,,Eier (Selveier),2335,Stange
Skovveien 4,1400000,11,,1990.0,Garasje/Parkering,https://www.finn.no/realestate/homes/ad.html?finnkode=302472807,127272,59.91581,10.715563,09/05/2023,,Eier (Selveier),257,Oslo
Strømsveien 43,5790000,128,,1999.0,Leilighet,https://www.finn.no/realestate/homes/ad.html?finnkode=299661430,45234,59.945679,11.006698,09/05/2023,2.0,Eier (Selveier),2010,Strømmen
Prestegårdsgata 16,2050000,76,,2018.0,Leilighet,https://www.finn.no/realestate/homes/ad.html?finnkode=263800961,26973,59.2075443,9.6025844,09/05/2023,3.0,Andel,3724,Skien
Øklandslio 54,4390000,229,6.0,1982.0,Enebolig,https://www.finn.no/realestate/homes/ad.html?finnkode=302447153,19170,59.807912,5.527541,09/05/2023,2.0,Eier (Selveier),5414,Stord
Kristian Brenners vei 93,1980000,43,2.0,1979.0,Leilighet,https://www.finn.no/realestate/homes/ad.html?finnkode=302481348,46046,59.7610332,10.1348826,09/05/2023,2.0,Andel,3029,Drammen
Rosenvinges vei 14,6650000,94,,2018.0,Leilighet,https://www.finn.no/realestate/homes/ad.html?finnkode=297500003,70744,59.4193178,10.6781215,09/05/2023,9.0,Eier (Selveier),1523,Moss
Kjerringdalen 22,2790000,67,3.0,2007.0,Tomannsbolig,https://www.finn.no/realestate/homes/ad.html?finnkode=302353721,41641,63.3279412,10.0682122,09/05/2023,1.0,Eier (Selveier),7353,Børsa
Kjellstadveien 48,6150000,219,,1946.0,Enebolig,https://www.finn.no/realestate/homes/ad.html?finnkode=302480747,28082,59.7684272,10.2417908,09/05/2023,,Eier (Selveier),3402,Lier
Brårveien 249,3990000,226,,1956.0,Enebolig,https://www.finn.no/realestate/homes/ad.html?finnkode=302354015,17654,59.3533414,10.2472286,09/05/2023,2.0,Eier (Selveier),3175,Ramnes
Kobbervikdalen 54,5500000,195,,1955.0,Enebolig,https://www.finn.no/realestate/homes/ad.html?finnkode=297854581,28205,59.7105977,10.2354711,09/05/2023,,Eier (Selveier),3036,Drammen
Sjøenvegen 20,1595000,86,3.0,1890.0,Enebolig,https://www.finn.no/realestate/homes/ad.html?finnkode=293105661,18546,59.2571256,5.183078,09/05/2023,,Eier (Selveier),4270,Åkrehamn
Søre Skulstad 50,3250000,120,5.0,2008.0,Enebolig,https://www.finn.no/realestate/homes/ad.html?finnkode=302479601,27083,60.4263791,5.6388882,09/05/2023,1.0,Eier (Selveier),5263,Trengereid
Rødtvetveien 22,3150000,39,1.0,1961.0,Leilighet,https://www.finn.no/realestate/homes/ad.html?finnkode=301708399,80769,59.953053,10.859582,09/05/2023,7.0,Andel,955,Oslo
Bømlahamnvegen 39,1750000,178,5.0,1965.0,Enebolig,https://www.finn.no/realestate/homes/ad.html?finnkode=296063762,9831,59.5980974,5.2231051,09/05/2023,,Eier (Selveier),5443,Bømlo
Breimyra 88,2460000,103,4.0,1982.0,Leilighet,https://www.finn.no/realestate/homes/ad.html?finnkode=300404118,23883,60.4611962,5.3649148,09/05/2023,4.0,Andel,5134,Flaktveit
Rektor Steens gate 26,2290000,113,,1914.0,Tomannsbolig,https://www.finn.no/realestate/homes/ad.html?finnkode=301662260,20265,59.4102892,5.2865952,09/05/2023,,Eier (Selveier),5531,Haugesund
Ullern allé 75,14490000,163,,1982.0,Leilighet,https://www.finn.no/realestate/homes/ad.html?finnkode=302478688,88895,59.928474,10.650064,09/05/2023,2.0,Eier (Selveier),381,Oslo
Seterlivegen 45A,2200000,66,3.0,2022.0,Tomannsbolig,https://www.finn.no/realestate/homes/ad.html?finnkode=300724531,33333,62.921104,7.441025,09/05/2023,,Eier (Selveier),6490,Eide
Jutulveien 7A,1600000,33,2.0,1964.0,Leilighet,https://www.finn.no/realestate/homes/ad.html?finnkode=302405205,48484,59.2948455,11.1061996,09/05/2023,1.0,Andel,1709,Sarpsborg
Ospeliveien 6,3150000,125,,1965.0,Enebolig,https://www.finn.no/realestate/homes/ad.html?finnkode=302478083,25200,59.511497,10.127674,09/05/2023,,Eier (Selveier),3092,Sundbyfoss
Kringsjåvegen 35,2900000,59,,2005.0,Leilighet,https://www.finn.no/realestate/homes/ad.html?finnkode=302477477,49152,62.4711921,6.2296894,09/05/2023,2.0,Eier (Selveier),6009,Ålesund
Dronninghavnveien 5 C,29850000,342,8.0,1971.0,Enebolig,https://www.finn.no/realestate/homes/ad.html?finnkode=293970464,87280,59.908812,10.689951,09/05/2023,,Eier (Selveier),287,Oslo
Seljeveien 15,7200000,82,,2008.0,Leilighet,https://www.finn.no/realestate/homes/ad.html?finnkode=302449398,87804,59.928453,10.788099,09/05/2023,1.0,Andel,575,Oslo
Vestre Rosten 65D,3990000,91,,2020.0,Leilighet,https://www.finn.no/realestate/homes/ad.html?finnkode=302477298,43846,63.359465,10.369507,09/05/2023,,Eier (Selveier),7072,Heimdal
Lademoens Kirkealle 13 B,2940000,63,,1953.0,Leilighet,https://www.finn.no/realestate/homes/ad.html?finnkode=291760486,46666,63.4383122,10.4337458,09/05/2023,1.0,Aksje,7067,Trondheim
Betzy Kjelsbergs vei 191,7200000,186,,1970.0,Enebolig,https://www.finn.no/realestate/homes/ad.html?finnkode=301918411,38709,59.7559345,10.1324842,09/05/2023,,Eier (Selveier),3028,Drammen
Jon Skogstads veg 20E,2990000,79,,2005.0,Leilighet,https://www.finn.no/realestate/homes/ad.html?finnkode=302476664,37848,63.3518721,10.3354864,09/05/2023,2.0,Eier (Selveier),7088,Heimdal
Fjelltunvegen 33,2250000,45,,1960.0,Leilighet,https://www.finn.no/realestate/homes/ad.html?finnkode=302475463,50000,62.4727422,6.1828646,09/05/2023,1.0,Eier (Selveier),6007,Ålesund
Skarragata 58,4500000,229,4.0,1997.0,Enebolig,https://www.finn.no/realestate/homes/ad.html?finnkode=302403015,19650,59.7341171,9.852601,09/05/2023,2.0,Eier (Selveier),3320,Vestfossen
Lensmann Solbergs vei 10,8750000,170,,2000.0,Enebolig,https://www.finn.no/realestate/homes/ad.html?finnkode=302429994,51470,59.7340561,10.1846974,09/05/2023,,Eier (Selveier),3046,Drammen
Karlstadvegen 19,8290000,320,,1984.0,Enebolig,https://www.finn.no/realestate/homes/ad.html?finnkode=294329595,25906,60.102353,11.2154973,09/05/2023,,Eier (Selveier),2040,Kløfta
Skiveien 237 C,4490000,96,,1996.0,Enebolig,https://www.finn.no/realestate/homes/ad.html?finnkode=290111083,46770,59.763242,10.817684,09/05/2023,,Eier (Selveier),1415,Oppegård
Ragdevegen 15,3950000,160,,1949.0,Enebolig,https://www.finn.no/realestate/homes/ad.html?finnkode=302455516,24687,60.070932,6.5531971,09/05/2023,,Eier (Selveier),5750,Odda
Botaniker Resvolls gate 1,8900000,305,,1980.0,Enebolig,https://www.finn.no/realestate/homes/ad.html?finnkode=302473563,29180,58.9614807,5.6912168,09/05/2023,,Eier (Selveier),4022,Stavanger
Troldhaugvegen 2,5990000,222,6.0,1897.0,Enebolig,https://www.finn.no/realestate/homes/ad.html?finnkode=290730119,26981,60.3285014,5.3450752,09/05/2023,,Eier (Selveier),5232,Paradis
Rådyrvegen 12B,2350000,67,3.0,1997.0,Leilighet,https://www.finn.no/realestate/homes/ad.html?finnkode=299347393,35074,60.2293095,11.0308974,09/05/2023,2.0,Andel,2030,Nannestad
Johan Bojers veg 15 C,5950000,72,3.0,1953.0,Leilighet,https://www.finn.no/realestate/homes/ad.html?finnkode=299871096,82638,60.783848,10.703093,09/05/2023,1.0,Eier (Selveier),2816,Gjøvik
Veamyr 61,3790000,232,,2010.0,Enebolig,https://www.finn.no/realestate/homes/ad.html?finnkode=301919652,16336,59.283301,5.2409401,09/05/2023,,Eier (Selveier),4276,Veavågen
Kvernhusrenen 40,5250000,205,,1987.0,Enebolig,https://www.finn.no/realestate/homes/ad.html?finnkode=302472442,25609,60.1426219,5.4339105,09/05/2023,,Eier (Selveier),5208,Os
Rimveien 6,7200000,80,3.0,2006.0,Enebolig,https://www.finn.no/realestate/homes/ad.html?finnkode=300911433,90000,59.91789,10.820334,09/05/2023,1.0,Eier (Selveier),664,Oslo
Havsteinbakken 29,9500000,278,7.0,1963.0,Enebolig,https://www.finn.no/realestate/homes/ad.html?finnkode=302472402,34172,63.409595,10.372883,09/05/2023,2.0,Eier (Selveier),7021,Trondheim
Johan Bojers veg 15 C,5950000,78,3.0,1953.0,Leilighet,https://www.finn.no/realestate/homes/ad.html?finnkode=299871093,76282,60.783848,10.703093,09/05/2023,1.0,Eier (Selveier),2816,Gjøvik
Hjalmar Brantings vei 2A,5400000,93,,2020.0,Leilighet,https://www.finn.no/realestate/homes/ad.html?finnkode=301640880,58064,60.348973,5.283312,09/05/2023,3.0,Eier (Selveier),5143,Fyllingsdalen
Johan Bojers veg 15 B,5950000,86,4.0,1953.0,Leilighet,https://www.finn.no/realestate/homes/ad.html?finnkode=299871099,69186,60.783821,10.702891,09/05/2023,1.0,Eier (Selveier),2816,Gjøvik
Rambergveien 10A,7780000,82,,2015.0,Leilighet,https://www.finn.no/realestate/homes/ad.html?finnkode=295854157,94878,59.2641584,10.4022715,09/05/2023,7.0,Eier (Selveier),3115,Tønsberg
Fagerheimveien 4,2600000,183,,1976.0,Enebolig,https://www.finn.no/realestate/homes/ad.html?finnkode=300728312,14207,61.1334606,11.3597674,09/05/2023,,Eier (Selveier),2450,Rena
Linnkjellveien 6E,2850000,64,,2007.0,Tomannsbolig,https://www.finn.no/realestate/homes/ad.html?finnkode=302470964,44531,58.1095282,7.9632119,09/05/2023,1.0,Eier (Selveier),4623,Kristiansand S
Nedre Storgate 61B,6450000,72,3.0,2018.0,Leilighet,https://www.finn.no/realestate/homes/ad.html?finnkode=298635685,89583,59.742512,10.219075,09/05/2023,4.0,Eier (Selveier),3015,Drammen
Rørosveien,990000,157,4.0,1926.0,Enebolig,https://www.finn.no/realestate/homes/ad.html?finnkode=277020582,6305,63.003649,10.455354,09/05/2023,,Eier (Selveier),1376,Rognes
Spannavegen 57,3690000,206,8.0,1951.0,Enebolig,https://www.finn.no/realestate/homes/ad.html?finnkode=292507344,17912,59.4077682,5.2959343,09/05/2023,3.0,Eier (Selveier),5532,Haugesund
Blunkeslettveien 3C,2500000,96,4.0,1970.0,Rekkehus,https://www.finn.no/realestate/homes/ad.html?finnkode=302470025,26041,59.587758,11.1815501,09/05/2023,2.0,Andel,1809,Askim
Nedre Bjerggate 18,2800000,122,5.0,1900.0,Enebolig,https://www.finn.no/realestate/homes/ad.html?finnkode=302429247,22950,59.4169486,10.4792131,09/05/2023,2.0,Eier (Selveier),3181,Horten
Bruneset 1,2750000,65,3.0,2013.0,Leilighet,https://www.finn.no/realestate/homes/ad.html?finnkode=302361003,42307,58.768244,5.852929,09/05/2023,1.0,Eier (Selveier),4330,Ålgård
RØDSKOGGATA 3,630547,58,3.0,1991.0,Leilighet,https://www.finn.no/realestate/homes/ad.html?finnkode=302254605,10871,59.7459887,10.159764,09/05/2023,3.0,Andel,3048,Drammen
Lomtjønna 3,8500000,260,,2015.0,Enebolig,https://www.finn.no/realestate/homes/ad.html?finnkode=302367319,32692,63.126492,7.796938,09/05/2023,1.0,Eier (Selveier),6518,Kristiansund N
Våkleivskogen 88,2050000,78,,1984.0,Leilighet,https://www.finn.no/realestate/homes/ad.html?finnkode=302469244,26282,60.3282141,5.2896571,09/05/2023,2.0,Andel,5155,Bønes
Landstads gate 47,3250000,29,1.0,2021.0,Leilighet,https://www.finn.no/realestate/homes/ad.html?finnkode=302469086,112068,59.955757,11.053871,09/05/2023,11.0,Eier (Selveier),2000,Lillestrøm
Sagbruksveien 42,5790000,68,3.0,2023.0,Leilighet,https://www.finn.no/realestate/homes/ad.html?finnkode=301973520,85147,59.950287,11.006545,09/05/2023,6.0,Eier (Selveier),2010,Strømmen
Sagbruksveien 44,7200000,88,3.0,2023.0,Leilighet,https://www.finn.no/realestate/homes/ad.html?finnkode=302108817,81818,59.950398,11.006862,09/05/2023,5.0,Eier (Selveier),2010,Strømmen
Hvalstadlia 20,11900000,306,,1985.0,Enebolig,https://www.finn.no/realestate/homes/ad.html?finnkode=300898580,38888,59.8570823,10.4591071,09/05/2023,,Eier (Selveier),1395,Hvalstad
Munkajordtunet 10B,2190000,85,5.0,2008.0,Leilighet,https://www.finn.no/realestate/homes/ad.html?finnkode=302329889,25764,59.2906811,5.2272994,09/05/2023,2.0,Eier (Selveier),4276,Veavågen
Setergårdsveien 87,2150000,139,4.0,1983.0,Enebolig,https://www.finn.no/realestate/homes/ad.html?finnkode=302467451,15467,63.573537,10.3990621,09/05/2023,,Eier (Selveier),7125,Vanvikan
Lindebergåsen 25C,3990000,125,5.0,1978.0,Leilighet,https://www.finn.no/realestate/homes/ad.html?finnkode=298498393,31920,59.929585,10.873461,09/05/2023,3.0,Andel,1071,Oslo
Reinsdyrveien 35B,6190000,156,,1960.0,Enebolig,https://www.finn.no/realestate/homes/ad.html?finnkode=289238693,39679,58.823162,5.731159,09/05/2023,,Eier (Selveier),4323,Sandnes
Vikemarkråsa 10,8300000,229,,2017.0,Tomannsbolig,https://www.finn.no/realestate/homes/ad.html?finnkode=302466918,36244,62.345954,5.862823,09/05/2023,2.0,Eier (Selveier),6065,Ulsteinvik
Grønnegata 9,2650000,227,,1947.0,Tomannsbolig,https://www.finn.no/realestate/homes/ad.html?finnkode=302009269,11674,70.372059,31.113233,09/05/2023,,Eier (Selveier),9950,Vardø
Kleppelundvegen 66,2990000,76,3.0,1992.0,Leilighet,https://www.finn.no/realestate/homes/ad.html?finnkode=302358275,39342,58.776629,5.625739,09/05/2023,1.0,Eier (Selveier),4350,Kleppe
Flatebyveien 19,2800000,242,,1959.0,Tomannsbolig,https://www.finn.no/realestate/homes/ad.html?finnkode=302466147,11570,59.12057,11.454141,09/05/2023,,Eier (Selveier),1792,Tistedal
Rådyrbakken 17,2700000,162,,1980.0,Enebolig,https://www.finn.no/realestate/homes/ad.html?finnkode=302466059,16666,60.9945355,9.2325903,09/05/2023,,Eier (Selveier),2900,Fagernes
Steinåsen 29L,6800000,172,5.0,1994.0,Leilighet,https://www.finn.no/realestate/homes/ad.html?finnkode=302465867,39534,63.3992121,10.4440452,09/05/2023,1.0,Eier (Selveier),7049,Trondheim
Lillehagveien 79,11500000,182,,1954.0,Enebolig,https://www.finn.no/realestate/homes/ad.html?finnkode=297650101,63186,59.900734,10.536432,09/05/2023,,Eier (Selveier),1365,Blommenholm
Freserveien 27,3050000,57,2.0,2017.0,Leilighet,https://www.finn.no/realestate/homes/ad.html?finnkode=300143170,53508,59.902681,10.786945,09/05/2023,1.0,Andel,195,Oslo
Utsiktsveien 46A,1600000,44,2.0,1975.0,Leilighet,https://www.finn.no/realestate/homes/ad.html?finnkode=302465327,36363,59.2703577,11.0888753,09/05/2023,-1.0,Andel,1722,Sarpsborg
Engersand Havn 28,3150000,93,4.0,2018.0,Leilighet,https://www.finn.no/realestate/homes/ad.html?finnkode=302341923,33870,59.7321166,10.3014175,09/05/2023,3.0,Andel,3427,Gullaug
Liebakken 25,4950000,145,4.0,1988.0,Tomannsbolig,https://www.finn.no/realestate/homes/ad.html?finnkode=302263428,34137,59.747844,10.1541513,09/05/2023,2.0,Andel,3048,Drammen
Midtskogen 3B,5950000,92,4.0,2015.0,Leilighet,https://www.finn.no/realestate/homes/ad.html?finnkode=302337423,64673,59.712197,10.822947,09/05/2023,5.0,Eier (Selveier),1423,Ski
Kongleveien 8,12400000,265,,1965.0,Enebolig,https://www.finn.no/realestate/homes/ad.html?finnkode=302384774,46792,59.2813937,10.4174948,09/05/2023,2.0,Eier (Selveier),3117,Tønsberg
Skjæret 5,4850000,98,3.0,2009.0,Leilighet,https://www.finn.no/realestate/homes/ad.html?finnkode=302376283,49489,59.8963056,10.3086432,09/05/2023,4.0,Eier (Selveier),3410,Sylling
Engersand Havn 24,1900000,46,2.0,2018.0,Leilighet,https://www.finn.no/realestate/homes/ad.html?finnkode=302334635,41304,59.7324152,10.3012152,09/05/2023,1.0,Andel,3427,Gullaug
Saudagata 31B,3290000,66,3.0,1905.0,Leilighet,https://www.finn.no/realestate/homes/ad.html?finnkode=302373598,49848,58.9671399,5.7417156,09/05/2023,1.0,Eier (Selveier),4012,Stavanger
Fjellveien 16,6900000,219,,1949.0,Enebolig,https://www.finn.no/realestate/homes/ad.html?finnkode=302368481,31506,59.2495268,10.4116825,09/05/2023,2.0,Eier (Selveier),3121,Nøtterøy
Vestsideveien 139B,5300000,192,4.0,1982.0,Enebolig,https://www.finn.no/realestate/homes/ad.html?finnkode=302339806,27604,59.8175964,10.2079903,09/05/2023,2.0,Eier (Selveier),3405,Lier
Ingiers vei 15,10800000,171,,1963.0,Enebolig,https://www.finn.no/realestate/homes/ad.html?finnkode=302443768,63157,59.852138,10.789911,09/05/2023,,Eier (Selveier),1167,Oslo
Haxthausens gate 9,5950000,55,2.0,1897.0,Leilighet,https://www.finn.no/realestate/homes/ad.html?finnkode=302408320,108181,59.9177049,10.7144006,09/05/2023,5.0,Eier (Selveier),263,Oslo
Knut Bjørhuus vei 20,4500000,116,5.0,1959.0,Tomannsbolig,https://www.finn.no/realestate/homes/ad.html?finnkode=302388126,38793,59.7579921,10.1499983,09/05/2023,3.0,Eier (Selveier),3025,Drammen
Conrad Mohrs veg 34F,2890000,65,3.0,1957.0,Leilighet,https://www.finn.no/realestate/homes/ad.html?finnkode=302357951,44461,60.3499354,5.3423842,09/05/2023,2.0,Andel,5072,Bergen
Prestmosvegen 13J,2490000,52,2.0,2006.0,Leilighet,https://www.finn.no/realestate/homes/ad.html?finnkode=302413747,47884,60.2245726,11.0187602,09/05/2023,2.0,Eier (Selveier),2030,Nannestad
Stongafjellsvegen 58Q,1490000,61,3.0,2008.0,Leilighet,https://www.finn.no/realestate/homes/ad.html?finnkode=302464694,24426,60.4057729,5.2110091,09/05/2023,,Andel,5301,Kleppestø
Kalfarveien 66,2860000,52,2.0,2006.0,Leilighet,https://www.finn.no/realestate/homes/ad.html?finnkode=302350993,55000,60.3869367,5.3468377,09/05/2023,5.0,Andel,5022,Bergen
Aasta Hansteens veg 7B,9500000,284,11.0,1966.0,Enebolig,https://www.finn.no/realestate/homes/ad.html?finnkode=292264477,33450,63.4263061,10.4409998,09/05/2023,1.0,Eier (Selveier),7046,Trondheim
Hellestvedtveien 180,1550000,101,,,Enebolig,https://www.finn.no/realestate/homes/ad.html?finnkode=302440074,15346,59.0965013,9.5321251,09/05/2023,,Eier (Selveier),3965,Herre
Elias Smiths vei 20A,4550000,44,2.0,2020.0,Leilighet,https://www.finn.no/realestate/homes/ad.html?finnkode=301940535,103409,59.891374,10.517591,09/05/2023,7.0,Eier (Selveier),1337,Sandvika
Skaustadvegen 38A,1490000,92,,1968.0,Rekkehus,https://www.finn.no/realestate/homes/ad.html?finnkode=302438871,16195,59.1040691,9.6566105,09/05/2023,,Andel,3937,Porsgrunn
Munkedamsveien 86B,6600000,74,3.0,1936.0,Leilighet,https://www.finn.no/realestate/homes/ad.html?finnkode=291761978,89189,59.911257,10.712734,09/05/2023,3.0,Andel,270,Oslo
Eskelandsgeilen 2,1200000,32,2.0,1989.0,Leilighet,https://www.finn.no/realestate/homes/ad.html?finnkode=302461203,37500,58.9904264,5.6698775,09/05/2023,1.0,Andel,4028,Stavanger
Dronningens gate 12,5350000,48,,2003.0,Leilighet,https://www.finn.no/realestate/homes/ad.html?finnkode=302460294,111458,59.909142,10.745263,09/05/2023,6.0,Eier (Selveier),152,Oslo
Fagerliveien,3690000,67,2.0,2023.0,Leilighet,https://www.finn.no/realestate/homes/ad.html?finnkode=302453255,55074,59.2244877,10.9577955,09/05/2023,1.0,Eier (Selveier),1605,Fredrikstad
Møllevegen 28,3490000,164,4.0,1978.0,Enebolig,https://www.finn.no/realestate/homes/ad.html?finnkode=301824495,21280,59.3392485,5.2775042,09/05/2023,,Eier (Selveier),4262,Avaldsnes
Holtervegen 223,6490000,320,,1937.0,Enebolig,https://www.finn.no/realestate/homes/ad.html?finnkode=302455346,20281,60.141151,11.051989,09/05/2023,3.0,Eier (Selveier),2034,Holter
Sigurd Hoels vei 9,6700000,76,3.0,2018.0,Leilighet,https://www.finn.no/realestate/homes/ad.html?finnkode=302455164,88157,59.916245,10.78644,09/05/2023,1.0,Eier (Selveier),655,Oslo
Marcus Thranes gate 13,2850000,19,1.0,1937.0,Leilighet,https://www.finn.no/realestate/homes/ad.html?finnkode=302453193,150000,59.931957,10.761617,09/05/2023,2.0,Andel,473,Oslo
Fjellstuveien 23 E,5500000,154,5.0,1981.0,Rekkehus,https://www.finn.no/realestate/homes/ad.html?finnkode=302453133,35714,59.953454,10.935391,09/05/2023,,Eier (Selveier),982,Oslo
Hamangskogen 86,4890000,85,,1984.0,Leilighet,https://www.finn.no/realestate/homes/ad.html?finnkode=297849100,57529,59.896483,10.506483,09/05/2023,3.0,Eier (Selveier),1338,Sandvika
Karisvingen 41,5390000,81,3.0,2017.0,Leilighet,https://www.finn.no/realestate/homes/ad.html?finnkode=302451047,66543,69.654986,18.927898,09/05/2023,2.0,Eier (Selveier),9012,Tromsø
Dalsbergstien 22A,2850000,17,2.0,1997.0,Leilighet,https://www.finn.no/realestate/homes/ad.html?finnkode=302449931,167647,59.922634,10.734217,09/05/2023,2.0,Andel,170,Oslo
Sigurd Weisæths vei 7E,7990000,145,,2021.0,Enebolig,https://www.finn.no/realestate/homes/ad.html?finnkode=278415558,55103,59.952527,10.93196,09/05/2023,,Eier (Selveier),981,Oslo
Fridtjof Nansens vei 5,1690000,55,3.0,2009.0,Leilighet,https://www.finn.no/realestate/homes/ad.html?finnkode=299852172,30727,67.2761756,14.3830427,09/05/2023,4.0,Andel,8003,Bodø
Vannverksveien 18A,4200000,131,5.0,1960.0,Tomannsbolig,https://www.finn.no/realestate/homes/ad.html?finnkode=302447786,32061,59.2924726,11.1140614,09/05/2023,,Eier (Selveier),1727,Sarpsborg
Brekkeåsveien 3,3990000,198,,1979.0,Enebolig,https://www.finn.no/realestate/homes/ad.html?finnkode=297842447,20151,59.4111786,10.2817206,09/05/2023,,Eier (Selveier),3178,Våle
Parkgata 12,2890000,63,,1920.0,Leilighet,https://www.finn.no/realestate/homes/ad.html?finnkode=302446827,45873,62.4724989,6.1614671,09/05/2023,3.0,Eier (Selveier),6003,Ålesund
Spireaveien 4C,7300000,82,4.0,2018.0,Leilighet,https://www.finn.no/realestate/homes/ad.html?finnkode=302446860,89024,59.935049,10.8015728,09/05/2023,1.0,Eier (Selveier),580,Oslo
Heggelibakken 75,12900000,175,4.0,1978.0,Enebolig,https://www.finn.no/realestate/homes/ad.html?finnkode=302351064,73714,59.940718,10.694546,09/05/2023,,Eier (Selveier),374,Oslo
Kretaveien 48,6750000,152,,2019.0,Enebolig,https://www.finn.no/realestate/homes/ad.html?finnkode=268679019,44407,68.21328,14.498577,09/05/2023,,Eier (Selveier),8310,Kabelvåg
C. A. Pihls gate 1,24000000,217,,1928.0,Leilighet,https://www.finn.no/realestate/homes/ad.html?finnkode=302443821,110599,59.9167586,10.7012652,09/05/2023,3.0,Eier (Selveier),273,Oslo
Kamperhaugveien 19,2090000,90,4.0,1860.0,Enebolig,https://www.finn.no/realestate/homes/ad.html?finnkode=302388544,23222,59.103834,9.552398,09/05/2023,,Eier (Selveier),3965,Herre
Åslandhellinga 3,3490000,56,3.0,1984.0,Leilighet,https://www.finn.no/realestate/homes/ad.html?finnkode=302443120,62321,59.822051,10.841947,09/05/2023,1.0,Eier (Selveier),1274,Oslo
Kleivavegen 25A,1890000,231,8.0,1967.0,Enebolig,https://www.finn.no/realestate/homes/ad.html?finnkode=302440488,8181,60.072808,6.537149,09/05/2023,3.0,Eier (Selveier),5750,Odda
Kjelsåsveien 92C,12800000,127,7.0,1947.0,Bygård/Flermannsbolig,https://www.finn.no/realestate/homes/ad.html?finnkode=301689711,100787,59.957318,10.787596,09/05/2023,,Eier (Selveier),491,Oslo
Frysjaveien 10B,3600000,40,1.0,1959.0,Leilighet,https://www.finn.no/realestate/homes/ad.html?finnkode=302440472,90000,59.962018,10.768178,09/05/2023,3.0,Andel,882,Oslo
Sagmyrvegen 13,3990000,144,,2006.0,Enebolig,https://www.finn.no/realestate/homes/ad.html?finnkode=302439374,27708,63.3093122,10.4338269,09/05/2023,,Eier (Selveier),7549,Tanem
Oksval terrasse 12A,6200000,108,,1969.0,Rekkehus,https://www.finn.no/realestate/homes/ad.html?finnkode=293835123,57407,59.8571633,10.6685823,09/05/2023,2.0,Eier (Selveier),1456,Nesoddtangen
Tulipanveien 26,3900000,83,3.0,1975.0,Leilighet,https://www.finn.no/realestate/homes/ad.html?finnkode=302363235,46987,59.9157781,10.9655199,09/05/2023,4.0,Andel,1475,Finstadjordet
Østvegen 19B,3950000,118,,2019.0,Tomannsbolig,https://www.finn.no/realestate/homes/ad.html?finnkode=301793880,33474,60.721745,10.625575,09/05/2023,,Eier (Selveier),2835,Raufoss
Huk aveny 13,23900000,137,,2003.0,Leilighet,https://www.finn.no/realestate/homes/ad.html?finnkode=274171823,174452,59.906494,10.692104,09/05/2023,3.0,Eier (Selveier),287,Oslo
Høgdaveien 8 c,10000000,194,5.0,1958.0,Tomannsbolig,https://www.finn.no/realestate/homes/ad.html?finnkode=302350657,51546,59.889188,10.811632,09/05/2023,,Eier (Selveier),680,Oslo
Trompetveien 14,4300000,174,,1938.0,Enebolig,https://www.finn.no/realestate/homes/ad.html?finnkode=302436876,24712,59.2939566,11.0911305,09/05/2023,,Eier (Selveier),1710,Sarpsborg
Gjesdalveien 34,2740000,122,2.0,1987.0,Leilighet,https://www.finn.no/realestate/homes/ad.html?finnkode=301810218,22459,58.8504843,5.7333001,09/05/2023,5.0,Eier (Selveier),4306,Sandnes
Heistadtangen 5B,2790000,71,4.0,1992.0,Leilighet,https://www.finn.no/realestate/homes/ad.html?finnkode=302173021,39295,59.0767097,9.695016,09/05/2023,1.0,Eier (Selveier),3941,Porsgrunn
Håkons vei 53B,9750000,134,4.0,2014.0,Enebolig,https://www.finn.no/realestate/homes/ad.html?finnkode=302316537,72761,59.9344928,10.9464034,09/05/2023,,Eier (Selveier),1470,Lørenskog
Hølbekken 15D,3690000,96,4.0,1998.0,Leilighet,https://www.finn.no/realestate/homes/ad.html?finnkode=302332488,38437,63.3526967,10.3831477,09/05/2023,2.0,Eier (Selveier),7092,Tiller
Pilestredet 29A,8390000,94,3.0,1988.0,Leilighet,https://www.finn.no/realestate/homes/ad.html?finnkode=302345679,89255,59.918389,10.737099,09/05/2023,6.0,Eier (Selveier),176,Oslo
Ragnhild Jølsens veg 42B,3690000,82,4.0,1964.0,Leilighet,https://www.finn.no/realestate/homes/ad.html?finnkode=302431060,45000,59.9381448,11.023589,09/05/2023,1.0,Andel,2006,Løvenstad
Arnes vei 1C,7600000,107,4.0,1990.0,Rekkehus,https://www.finn.no/realestate/homes/ad.html?finnkode=301658042,71028,59.948561,10.788265,09/05/2023,,Eier (Selveier),488,Oslo
Nørvegata 28 B,2450000,78,3.0,1955.0,Leilighet,https://www.finn.no/realestate/homes/ad.html?finnkode=302379673,31410,62.4707579,6.2052131,09/05/2023,2.0,Andel,6008,Ålesund
Ringedammen 4,5250000,78,4.0,1949.0,Tomannsbolig,https://www.finn.no/realestate/homes/ad.html?finnkode=302400734,67307,59.6715841,10.6258513,09/05/2023,2.0,Eier (Selveier),1443,Drøbak
Niels Juels gate 22A,14000000,125,,1986.0,Leilighet,https://www.finn.no/realestate/homes/ad.html?finnkode=302435674,112000,59.914096,10.71072,09/05/2023,3.0,Eier (Selveier),272,Oslo
Høienhaldgata 5,4950000,125,,1997.0,Leilighet,https://www.finn.no/realestate/homes/ad.html?finnkode=302435069,39600,59.432682,10.662887,09/05/2023,,Eier (Selveier),1532,Moss
Dolvikhaugene 138,5000000,141,,1955.0,Enebolig,https://www.finn.no/realestate/homes/ad.html?finnkode=302434682,35460,60.3108224,5.2739661,09/05/2023,,Eier (Selveier),5252,Søreidgrend
Thorn Dønhaugs vei 96,5800000,138,6.0,2006.0,Enebolig,https://www.finn.no/realestate/homes/ad.html?finnkode=302413864,42028,59.824352,10.831532,09/05/2023,,Andel,1271,Oslo
Lindebergåsen 19 B,4290000,99,4.0,1978.0,Leilighet,https://www.finn.no/realestate/homes/ad.html?finnkode=302433994,43333,59.92829,10.871502,09/05/2023,1.0,Andel,1071,Oslo
Damtråkka 2,12650000,267,,1984.0,Enebolig,https://www.finn.no/realestate/homes/ad.html?finnkode=300916185,47378,59.899694,10.520301,09/05/2023,,Eier (Selveier),1338,Sandvika
Åsheimveien 54,4750000,177,,1956.0,Enebolig,https://www.finn.no/realestate/homes/ad.html?finnkode=302382794,26836,59.6164962,10.4535696,09/05/2023,3.0,Eier (Selveier),3490,Klokkarstua
Grøttboveien 24,1590000,38,3.0,1973.0,Leilighet,https://www.finn.no/realestate/homes/ad.html?finnkode=302384831,41842,59.5924275,11.1725166,09/05/2023,1.0,Andel,1807,Askim
Hjelmelandsgata 11,2890000,65,3.0,1910.0,Tomannsbolig,https://www.finn.no/realestate/homes/ad.html?finnkode=302433033,44461,58.9657843,5.7409214,09/05/2023,1.0,Eier (Selveier),4012,Stavanger
Sars' gate 54,3850000,36,2.0,1940.0,Leilighet,https://www.finn.no/realestate/homes/ad.html?finnkode=302424450,106944,59.922943,10.77311,09/05/2023,2.0,Andel,564,Oslo
Dyrgravveien 20B,1270000,45,2.0,1973.0,Leilighet,https://www.finn.no/realestate/homes/ad.html?finnkode=302376122,28222,59.684177,9.62826,09/05/2023,2.0,Andel,3617,Kongsberg
Ekornvegen 12A,3000000,121,4.0,1957.0,Tomannsbolig,https://www.finn.no/realestate/homes/ad.html?finnkode=302377183,24793,60.8018449,10.6609256,09/05/2023,3.0,Eier (Selveier),2819,Gjøvik
Øvrelida 18,8950000,276,,2011.0,Enebolig,https://www.finn.no/realestate/homes/ad.html?finnkode=302375747,32427,62.1937142,6.1572336,09/05/2023,2.0,Eier (Selveier),6154,Ørsta
Uelands gate 20,4200000,42,2.0,1937.0,Leilighet,https://www.finn.no/realestate/homes/ad.html?finnkode=302370434,100000,59.926569,10.749774,09/05/2023,4.0,Eier (Selveier),175,Oslo
Litlaskarstien 39,4290000,124,5.0,2017.0,Rekkehus,https://www.finn.no/realestate/homes/ad.html?finnkode=295210834,34596,60.489223,5.388309,09/05/2023,3.0,Eier (Selveier),5111,Breistein
Lørenveien 69C,8490000,91,4.0,2020.0,Leilighet,https://www.finn.no/realestate/homes/ad.html?finnkode=302430328,93296,59.928359,10.799526,09/05/2023,4.0,Eier (Selveier),585,Oslo
Ole Irgens' vei 56,4590000,75,3.0,1948.0,Leilighet,https://www.finn.no/realestate/homes/ad.html?finnkode=301827021,61200,60.389208,5.349361,09/05/2023,2.0,Eier (Selveier),5019,Bergen
P.A. Iversens vei 14,7990000,256,10.0,1962.0,Enebolig,https://www.finn.no/realestate/homes/ad.html?finnkode=300851886,31210,59.9585939,10.9877952,09/05/2023,3.0,Eier (Selveier),2013,Skjetten
Neuberggata 3B,7990000,66,3.0,1898.0,Leilighet,https://www.finn.no/realestate/homes/ad.html?finnkode=302354221,121060,59.924916,10.714244,09/05/2023,5.0,Eier (Selveier),367,Oslo
Børjerlia 9,12850000,321,,2003.0,Enebolig,https://www.finn.no/realestate/homes/ad.html?finnkode=297861471,40031,59.9543568,10.4798018,09/05/2023,,Eier (Selveier),1350,Lommedalen
Messepromenaden 4,5100000,46,2.0,2006.0,Leilighet,https://www.finn.no/realestate/homes/ad.html?finnkode=302349904,110869,59.920754,10.681041,09/05/2023,5.0,Eier (Selveier),279,Oslo
C. E. Holters vei 7E,1900000,68,,1957.0,Leilighet,https://www.finn.no/realestate/homes/ad.html?finnkode=301667964,27941,59.2722749,11.0875187,09/05/2023,1.0,Andel,1725,Sarpsborg
Bjerkealléen 33B,23000000,333,,1964.0,Enebolig,https://www.finn.no/realestate/homes/ad.html?finnkode=302428150,69069,59.898226,10.591066,09/05/2023,,Eier (Selveier),1363,Høvik
Kirkevikvegen 102,2390000,44,2.0,1942.0,Enebolig,https://www.finn.no/realestate/homes/ad.html?finnkode=302427216,54318,60.4888785,5.2053802,09/05/2023,,Eier (Selveier),5307,Ask
Linnesstranda 39N,6500000,124,6.0,2018.0,Enebolig,https://www.finn.no/realestate/homes/ad.html?finnkode=302359669,52419,59.749043,10.275467,09/05/2023,3.0,Eier (Selveier),3426,Gullaug
Øragata 14A,1390000,64,,2006.0,Leilighet,https://www.finn.no/realestate/homes/ad.html?finnkode=295543436,21718,63.2898755,9.087877,09/05/2023,3.0,Andel,7200,Kyrksæterøra
Rognstadvegen 54,3950000,225,,1960.0,Enebolig,https://www.finn.no/realestate/homes/ad.html?finnkode=302426601,17555,60.4172099,10.5634179,09/05/2023,2.0,Eier (Selveier),2770,Jaren
Vallaheiane 65,6490000,160,,1955.0,Enebolig,https://www.finn.no/realestate/homes/ad.html?finnkode=302426253,40562,60.2933018,5.3853686,09/05/2023,,Eier (Selveier),5227,Nesttun
Sagbruksveien 48,8400000,103,4.0,2023.0,Leilighet,https://www.finn.no/realestate/homes/ad.html?finnkode=299411055,81553,59.950519,11.007585,09/05/2023,3.0,Eier (Selveier),2010,Strømmen
Rundhaugvegen 4,5200000,384,,1969.0,Enebolig,https://www.finn.no/realestate/homes/ad.html?finnkode=301827261,13541,60.238122,10.369202,09/05/2023,3.0,Eier (Selveier),3520,Jevnaker
Ole Vigs gate 2,5750000,70,,1930.0,Leilighet,https://www.finn.no/realestate/homes/ad.html?finnkode=302424989,82142,60.385949,5.321471,09/05/2023,3.0,Eier (Selveier),5006,Bergen
Moskedalen 23,2390000,122,4.0,1990.0,Tomannsbolig,https://www.finn.no/realestate/homes/ad.html?finnkode=301908855,19590,58.2561978,7.9926566,09/05/2023,1.0,Eier (Selveier),4708,Vennesla
Åstveitveien 37 Øvre,10490000,102,,2023.0,Leilighet,https://www.finn.no/realestate/homes/ad.html?finnkode=302424664,102843,60.451371,5.301241,09/05/2023,3.0,Eier (Selveier),5106,Ervik
Ole Vigs gate 2,3790000,41,,1930.0,Leilighet,https://www.finn.no/realestate/homes/ad.html?finnkode=302424230,92439,60.385949,5.321471,09/05/2023,2.0,Eier (Selveier),5006,Bergen
Åstveitveien 37 Øvre,8290000,88,,2023.0,Leilighet,https://www.finn.no/realestate/homes/ad.html?finnkode=302424016,94204,60.451371,5.301241,09/05/2023,3.0,Eier (Selveier),5106,Ervik
Ole Vigs gate 2,2390000,24,,1930.0,Leilighet,https://www.finn.no/realestate/homes/ad.html?finnkode=302423934,99583,60.385949,5.321471,09/05/2023,2.0,Eier (Selveier),5006,Bergen
Silurveien 13,3990000,55,2.0,1962.0,Leilighet,https://www.finn.no/realestate/homes/ad.html?finnkode=295579988,72545,59.928393,10.65652,09/05/2023,1.0,Eier (Selveier),380,Oslo
Einars vei 26,6600000,65,3.0,1953.0,Leilighet,https://www.finn.no/realestate/homes/ad.html?finnkode=302350807,101538,59.922129,10.782209,09/05/2023,4.0,Andel,575,Oslo
Sandviksveien 49C,2950000,55,3.0,1918.0,Leilighet,https://www.finn.no/realestate/homes/ad.html?finnkode=302408183,53636,60.408866,5.3236245,09/05/2023,1.0,Andel,5036,Bergen
Kallerudvegen 12 A,2500000,68,3.0,1964.0,Leilighet,https://www.finn.no/realestate/homes/ad.html?finnkode=302323968,36764,60.785835,10.682515,09/05/2023,3.0,Andel,2815,Gjøvik
Spikkelia 2D,2250000,73,,2020.0,Rekkehus,https://www.finn.no/realestate/homes/ad.html?finnkode=302422796,30821,58.417393,8.642622,09/05/2023,,Eier (Selveier),4821,Rykene
Øverlands gate 4,4590000,150,,1950.0,Tomannsbolig,https://www.finn.no/realestate/homes/ad.html?finnkode=302422538,30600,63.4712101,10.9311755,09/05/2023,,Eier (Selveier),7500,Stjørdal
Haugeløkka 19,2400000,58,,2002.0,Leilighet,https://www.finn.no/realestate/homes/ad.html?finnkode=302338679,41379,59.247936,10.998035,09/05/2023,2.0,Andel,1661,Rolvsøy
Liaveien 19,5250000,89,4.0,2001.0,Leilighet,https://www.finn.no/realestate/homes/ad.html?finnkode=301516070,58988,59.8122105,10.7962006,09/05/2023,1.0,Eier (Selveier),1410,Kolbotn
Soltunvegen 2B,6190000,141,3.0,1986.0,Enebolig,https://www.finn.no/realestate/homes/ad.html?finnkode=302421036,43900,69.6617347,18.9287829,09/05/2023,,Eier (Selveier),9016,Tromsø
Wilhelmsmyrvegen 7B,3650000,77,4.0,1962.0,Leilighet,https://www.finn.no/realestate/homes/ad.html?finnkode=302421040,47402,63.3570827,10.3512822,09/05/2023,1.0,Andel,7088,Heimdal
Bakketunet 1,3500000,65,3.0,2015.0,Leilighet,https://www.finn.no/realestate/homes/ad.html?finnkode=302397931,53846,60.0655789,11.1324718,09/05/2023,1.0,Eier (Selveier),2040,Kløfta
Kreklingsvingen 6,10500000,260,7.0,2002.0,Enebolig,https://www.finn.no/realestate/homes/ad.html?finnkode=302379593,40384,59.763153,10.863185,09/05/2023,3.0,Eier (Selveier),1405,Langhus
Fougners vei 22,4550000,63,2.0,1988.0,Leilighet,https://www.finn.no/realestate/homes/ad.html?finnkode=277600261,72222,59.927747,10.78319,09/05/2023,3.0,Eier (Selveier),567,Oslo
Dakotaveien 50,2500000,209,,1976.0,Enebolig,https://www.finn.no/realestate/homes/ad.html?finnkode=302419891,11961,60.0699969,10.1932568,09/05/2023,,Eier (Selveier),3530,Røyse
Workinntoppen 7,5900000,75,3.0,2020.0,Leilighet,https://www.finn.no/realestate/homes/ad.html?finnkode=302419195,78666,69.66483,18.933308,09/05/2023,4.0,Eier (Selveier),9016,Tromsø
Skolegata 5,1900000,103,,1940.0,Leilighet,https://www.finn.no/realestate/homes/ad.html?finnkode=302419119,18446,63.6870878,9.6643255,09/05/2023,2.0,Eier (Selveier),7130,Brekstad
Lervikveien 29E,3790000,79,4.0,2022.0,Leilighet,https://www.finn.no/realestate/homes/ad.html?finnkode=296917791,47974,59.268659,10.767528,09/05/2023,2.0,Eier (Selveier),1626,Manstad
Kirkebirkeland 73 B,5290000,151,5.0,2003.0,Rekkehus,https://www.finn.no/realestate/homes/ad.html?finnkode=302419139,35033,60.3045096,5.3784597,09/05/2023,,Eier (Selveier),5227,Nesttun
Tømmerslepa 13B,1690000,47,2.0,2002.0,Leilighet,https://www.finn.no/realestate/homes/ad.html?finnkode=302277536,35957,58.8241706,5.7526062,09/05/2023,1.0,Andel,4325,Sandnes
Ombergveien 12 C,11200000,164,4.0,1960.0,Rekkehus,https://www.finn.no/realestate/homes/ad.html?finnkode=295610963,68292,59.920891,10.638775,09/05/2023,,Eier (Selveier),283,Oslo
Lassebakken 3,2850000,47,2.0,,Leilighet,https://www.finn.no/realestate/homes/ad.html?finnkode=302388777,60638,59.7375918,10.1849826,09/05/2023,2.0,Eier (Selveier),3046,Drammen
Dalvangvegen 35,2250000,234,,1959.0,Enebolig,https://www.finn.no/realestate/homes/ad.html?finnkode=300390007,9615,60.6296858,12.0588933,09/05/2023,,Eier (Selveier),2270,Flisa
Alnagata 11,4250000,87,5.0,1861.0,Leilighet,https://www.finn.no/realestate/homes/ad.html?finnkode=302417520,48850,59.903255,10.772629,09/05/2023,4.0,Andel,192,Oslo
Østerudvegen 40,2990000,52,2.0,2018.0,Leilighet,https://www.finn.no/realestate/homes/ad.html?finnkode=301843015,57500,60.079922,11.13809,09/05/2023,2.0,Eier (Selveier),2040,Kløfta
Zetlitz' gate 1A,7890000,88,3.0,1880.0,Leilighet,https://www.finn.no/realestate/homes/ad.html?finnkode=297498440,89659,59.920109,10.741799,09/05/2023,4.0,Andel,165,Oslo
Skuiveien 197,7900000,115,,2021.0,Tomannsbolig,https://www.finn.no/realestate/homes/ad.html?finnkode=302415618,68695,59.907969,10.477556,09/05/2023,,Eier (Selveier),1339,Vøyenenga
Oddenveien 7B,4450000,57,3.0,1962.0,Leilighet,https://www.finn.no/realestate/homes/ad.html?finnkode=302372554,78070,59.895225,10.565977,09/05/2023,2.0,Eier (Selveier),1363,Høvik
Øvre Sætveithagen 40,1200000,50,2.0,2002.0,Enebolig,https://www.finn.no/realestate/homes/ad.html?finnkode=302373692,24000,60.267407,6.236682,09/05/2023,2.0,Eier (Selveier),5627,Jondal
Grefsenveien 5 A,4200000,59,2.0,1933.0,Leilighet,https://www.finn.no/realestate/homes/ad.html?finnkode=302415237,71186,59.941217,10.771401,09/05/2023,3.0,Aksje,482,Oslo
Møllergata 52,525000,11,,,Garasje/Parkering,https://www.finn.no/realestate/homes/ad.html?finnkode=302414626,47727,59.918964,10.751664,09/05/2023,,Eier (Selveier),179,Oslo
Kilenveien 56,7950000,77,,2017.0,Leilighet,https://www.finn.no/realestate/homes/ad.html?finnkode=302414396,103246,59.907258,10.624397,09/05/2023,,Eier (Selveier),1366,Lysaker
Raubekkgata 31,1550000,44,,2020.0,Leilighet,https://www.finn.no/realestate/homes/ad.html?finnkode=302414016,35227,60.801173,11.0339,09/05/2023,4.0,Andel,2316,Hamar
Vallefaret 11,4950000,74,3.0,1953.0,Leilighet,https://www.finn.no/realestate/homes/ad.html?finnkode=302413867,66891,59.918922,10.80209,09/05/2023,4.0,Andel,663,Oslo
Ulvestien 2A,2790000,78,4.0,1970.0,Leilighet,https://www.finn.no/realestate/homes/ad.html?finnkode=302366662,35769,59.416313,10.458685,09/05/2023,2.0,Andel,3188,Horten
Maridalsveien 73A,7000000,59,3.0,1856.0,Leilighet,https://www.finn.no/realestate/homes/ad.html?finnkode=302384905,118644,59.931393,10.755093,09/05/2023,3.0,Eier (Selveier),458,Oslo
Hellemyrbakken 20,2250000,89,4.0,1966.0,Leilighet,https://www.finn.no/realestate/homes/ad.html?finnkode=301985699,25280,58.1440273,7.9430957,09/05/2023,1.0,Eier (Selveier),4628,Kristiansand S
Kirkegata 4,2300000,55,2.0,2004.0,Leilighet,https://www.finn.no/realestate/homes/ad.html?finnkode=302405706,41818,59.1316188,10.2218244,09/05/2023,3.0,Eier (Selveier),3211,Sandefjord
Sandakerveien 10L,4100000,35,2.0,1935.0,Leilighet,https://www.finn.no/realestate/homes/ad.html?finnkode=301647131,117142,59.932223,10.758895,09/05/2023,5.0,Andel,473,Oslo
Stauperveien 2,4250000,188,6.0,1976.0,Enebolig,https://www.finn.no/realestate/homes/ad.html?finnkode=302407371,22606,59.115038,10.3914943,09/05/2023,1.0,Eier (Selveier),3145,Tjøme
Anne-Kath. Parows veg 33,3990000,60,3.0,2021.0,Leilighet,https://www.finn.no/realestate/homes/ad.html?finnkode=302366115,66500,63.36051,10.366574,09/05/2023,5.0,Eier (Selveier),7075,Tiller
Dragkistelia 26D,2050000,66,,2006.0,Leilighet,https://www.finn.no/realestate/homes/ad.html?finnkode=302411083,31060,59.489016,10.690476,09/05/2023,1.0,Andel,1539,Moss
Ormerudveien 4A,7190000,85,3.0,2017.0,Leilighet,https://www.finn.no/realestate/homes/ad.html?finnkode=302367142,84588,59.81157,10.804581,09/05/2023,5.0,Eier (Selveier),1410,Kolbotn
Thurmanns gate 12A,9700000,105,4.0,1998.0,Leilighet,https://www.finn.no/realestate/homes/ad.html?finnkode=301946704,92380,59.935698,10.752868,09/05/2023,,Eier (Selveier),461,Oslo
Almerket 8,4000000,83,3.0,2016.0,Leilighet,https://www.finn.no/realestate/homes/ad.html?finnkode=302349483,48192,60.0700118,6.5492102,09/05/2023,2.0,Eier (Selveier),5750,Odda
Øvrefoss 8F,3900000,32,2.0,1939.0,Leilighet,https://www.finn.no/realestate/homes/ad.html?finnkode=302377662,121875,59.927825,10.757338,09/05/2023,2.0,Aksje,555,Oslo
Christian Schous vei 3C,7200000,104,,1995.0,Leilighet,https://www.finn.no/realestate/homes/ad.html?finnkode=290363328,69230,59.945616,10.800675,09/05/2023,1.0,Eier (Selveier),588,Oslo
Lillebergsvingen 13,5200000,67,3.0,1953.0,Leilighet,https://www.finn.no/realestate/homes/ad.html?finnkode=301526245,77611,59.919246,10.800068,09/05/2023,3.0,Andel,662,Oslo
Smiegata 11,3990000,98,3.0,2003.0,Leilighet,https://www.finn.no/realestate/homes/ad.html?finnkode=301773695,40714,58.7351051,5.6450468,09/05/2023,3.0,Eier (Selveier),4340,Bryne
Dronning Ingrids plass 1,3300000,36,2.0,1969.0,Leilighet,https://www.finn.no/realestate/homes/ad.html?finnkode=302407527,91666,59.919735,10.781284,09/05/2023,3.0,Andel,576,Oslo
Ragnhilds vei 1F,3500000,40,2.0,2021.0,Leilighet,https://www.finn.no/realestate/homes/ad.html?finnkode=301735805,87500,59.927168,10.952291,09/05/2023,5.0,Andel,1473,Lørenskog
Kristian brenners vei 101,2590000,70,2.0,1979.0,Leilighet,https://www.finn.no/realestate/homes/ad.html?finnkode=302406969,37000,59.7610881,10.1337441,09/05/2023,3.0,Andel,3029,Drammen
Nedre Økland 1,2200000,232,4.0,1950.0,Enebolig,https://www.finn.no/realestate/homes/ad.html?finnkode=301926587,9482,59.6424603,5.3846081,09/05/2023,,Eier (Selveier),5551,Auklandshamn
Vavollen 30,2950000,178,4.0,1979.0,Enebolig,https://www.finn.no/realestate/homes/ad.html?finnkode=302397429,16573,60.3819077,6.1936391,09/05/2023,2.0,Eier (Selveier),5610,Øystese
Lystadgrenda 40,480000,70,,1970.0,Enebolig,https://www.finn.no/realestate/homes/ad.html?finnkode=302398431,6857,60.2899613,11.6794617,09/05/2023,,Eier (Selveier),2100,Skarnes
Bakkehaugveien 8 B,14990000,182,6.0,2017.0,Enebolig,https://www.finn.no/realestate/homes/ad.html?finnkode=302405698,82362,59.950313,10.755789,09/05/2023,,Eier (Selveier),873,Oslo
Kristins vei 20,3500000,48,2.0,1966.0,Leilighet,https://www.finn.no/realestate/homes/ad.html?finnkode=302405874,72916,59.914559,10.833853,09/05/2023,1.0,Andel,669,Oslo
Enerhauggata 3,3750000,40,2.0,1963.0,Leilighet,https://www.finn.no/realestate/homes/ad.html?finnkode=301818806,93750,59.91308,10.767862,09/05/2023,10.0,Andel,651,Oslo
Langekra 33,5970000,198,,2013.0,Enebolig,https://www.finn.no/realestate/homes/ad.html?finnkode=286670664,30151,63.3090721,10.1726649,09/05/2023,,Eier (Selveier),7350,Buvika
Skippergata 3,2350000,31,,2019.0,Leilighet,https://www.finn.no/realestate/homes/ad.html?finnkode=302231926,75806,59.416329,10.4863999,09/05/2023,3.0,Eier (Selveier),3187,Horten
Pilestredet park 36,5350000,47,2.0,1938.0,Leilighet,https://www.finn.no/realestate/homes/ad.html?finnkode=302405117,113829,59.920056,10.736596,09/05/2023,4.0,Eier (Selveier),176,Oslo
Svarttjønnheia 162B,2550000,96,,,Tomannsbolig,https://www.finn.no/realestate/homes/ad.html?finnkode=302404614,26562,58.1731851,7.856912,09/05/2023,2.0,Eier (Selveier),4645,Nodeland
Grenåveien 42,5200000,96,3.0,1995.0,Leilighet,https://www.finn.no/realestate/homes/ad.html?finnkode=290496528,54166,59.6657986,10.6462801,09/05/2023,1.0,Eier (Selveier),1447,Drøbak
Jacob Aalls gate 31,9900000,115,4.0,1903.0,Leilighet,https://www.finn.no/realestate/homes/ad.html?finnkode=302352877,86086,59.930066,10.721578,09/05/2023,2.0,Eier (Selveier),364,Oslo
Båhus gate 14A,4790000,78,3.0,1890.0,Leilighet,https://www.finn.no/realestate/homes/ad.html?finnkode=301954835,61410,63.4311254,10.4165619,09/05/2023,1.0,Eier (Selveier),7014,Trondheim
Bjørnsons vei 16I,3490000,69,,1961.0,Rekkehus,https://www.finn.no/realestate/homes/ad.html?finnkode=302403330,50579,59.2760973,10.4246467,09/05/2023,1.0,Eier (Selveier),3117,Tønsberg
Nordre gate 13,5200000,52,3.0,1890.0,Leilighet,https://www.finn.no/realestate/homes/ad.html?finnkode=302280114,100000,59.921028,10.756495,09/05/2023,4.0,Andel,551,Oslo
Ullern allé 131,8500000,116,,1981.0,Leilighet,https://www.finn.no/realestate/homes/ad.html?finnkode=300203497,73275,59.930361,10.655061,09/05/2023,3.0,Eier (Selveier),381,Oslo
Fuglehauggata 13B,5190000,57,4.0,1889.0,Leilighet,https://www.finn.no/realestate/homes/ad.html?finnkode=301017426,91052,59.925098,10.710639,09/05/2023,3.0,Eier (Selveier),260,Oslo
Etterstadsletta 41B,5380000,67,3.0,1948.0,Leilighet,https://www.finn.no/realestate/homes/ad.html?finnkode=302401070,80298,59.91156,10.801172,09/05/2023,3.0,Andel,660,Oslo
Frognerkroken 8,2900000,123,4.0,2004.0,Tomannsbolig,https://www.finn.no/realestate/homes/ad.html?finnkode=302395653,23577,59.2129288,9.6224528,09/05/2023,,Eier (Selveier),3715,Skien
Kjæråsen 28,3100000,99,,2014.0,Enebolig,https://www.finn.no/realestate/homes/ad.html?finnkode=301923821,31313,58.3136945,8.5404653,09/05/2023,2.0,Eier (Selveier),4887,Grimstad
Hvitsteinbakken 24,9700000,313,7.0,1927.0,Enebolig,https://www.finn.no/realestate/homes/ad.html?finnkode=300895871,30990,59.4882927,10.3023351,09/05/2023,,Eier (Selveier),3085,Holmestrand
Tøyengata 37A,4890000,57,5.0,1904.0,Leilighet,https://www.finn.no/realestate/homes/ad.html?finnkode=299296402,85789,59.91475,10.769275,09/05/2023,2.0,Eier (Selveier),578,Oslo
Honnebakken 11,2950000,108,,2014.0,Tomannsbolig,https://www.finn.no/realestate/homes/ad.html?finnkode=302398214,27314,60.949058,10.622716,09/05/2023,,Eier (Selveier),2836,Biri
Prestegårdsjordet 5,6200000,318,,1955.0,Enebolig,https://www.finn.no/realestate/homes/ad.html?finnkode=301684244,19496,59.7446089,10.3840205,09/05/2023,,Eier (Selveier),3440,Røyken
Holmenveien 8B,10900000,129,4.0,2012.0,Leilighet,https://www.finn.no/realestate/homes/ad.html?finnkode=302397981,84496,59.942478,10.700847,09/05/2023,1.0,Eier (Selveier),374,Oslo
Mellomila 22,3490000,86,,1998.0,Leilighet,https://www.finn.no/realestate/homes/ad.html?finnkode=302397908,40581,63.431236,10.369249,09/05/2023,2.0,Andel,7018,Trondheim
Industrigata 30,14990000,136,5.0,1890.0,Leilighet,https://www.finn.no/realestate/homes/ad.html?finnkode=301947253,110220,59.925637,10.718915,09/05/2023,2.0,Andel,357,Oslo
Presthaugvegen 1A,1990000,64,3.0,1969.0,Leilighet,https://www.finn.no/realestate/homes/ad.html?finnkode=301929526,31093,59.4169104,5.292148,09/05/2023,3.0,Andel,5521,Haugesund
Fjordveien 79B,5250000,74,,1963.0,Leilighet,https://www.finn.no/realestate/homes/ad.html?finnkode=302396335,70945,59.893428,10.572141,09/05/2023,3.0,Eier (Selveier),1363,Høvik
Lille Øvregaten 23,2300000,26,2.0,1890.0,Leilighet,https://www.finn.no/realestate/homes/ad.html?finnkode=301515015,88461,60.3947265,5.3301056,09/05/2023,,Eier (Selveier),5018,Bergen
Heistad brygge 12,3400000,59,3.0,2020.0,Leilighet,https://www.finn.no/realestate/homes/ad.html?finnkode=301660203,57627,59.076481,9.694099,09/05/2023,1.0,Eier (Selveier),3941,Porsgrunn
Jonas Lies vei 1B,5800000,123,4.0,,Rekkehus,https://www.finn.no/realestate/homes/ad.html?finnkode=302370939,47154,59.800504,10.814687,09/05/2023,3.0,Eier (Selveier),1412,Sofiemyr
Kalvaneset 72,6500000,169,5.0,1957.0,Enebolig,https://www.finn.no/realestate/homes/ad.html?finnkode=301932814,38461,60.2258231,5.2998396,09/05/2023,,Eier (Selveier),5244,Fana
Refstadveien 40,4970000,67,,2012.0,Leilighet,https://www.finn.no/realestate/homes/ad.html?finnkode=302395197,74179,59.941996,10.807068,09/05/2023,3.0,Eier (Selveier),589,Oslo
Thereses gate 25,5250000,44,2.0,1874.0,Leilighet,https://www.finn.no/realestate/homes/ad.html?finnkode=277433304,119318,59.928509,10.732138,09/05/2023,4.0,Eier (Selveier),452,Oslo
Briggveien 47H,1990000,69,,1974.0,Leilighet,https://www.finn.no/realestate/homes/ad.html?finnkode=302394185,28840,58.1044317,7.9491712,09/05/2023,1.0,Andel,4624,Kristiansand S
Olleveien 25A,16800000,266,,1966.0,Enebolig,https://www.finn.no/realestate/homes/ad.html?finnkode=281136700,63157,59.893338,10.790533,09/05/2023,,Eier (Selveier),1182,Oslo
Friggs vei 1,7400000,171,6.0,1969.0,Enebolig,https://www.finn.no/realestate/homes/ad.html?finnkode=302370272,43274,59.6848747,10.6520477,09/05/2023,2.0,Eier (Selveier),1445,Drøbak
Nedre bommen 35,5200000,121,5.0,2003.0,Enebolig,https://www.finn.no/realestate/homes/ad.html?finnkode=302393667,42975,59.17781,10.9377,09/05/2023,2.0,Eier (Selveier),1675,Kråkerøy
Mjelkåsveien 15B,800000,83,1.0,1988.0,Leilighet,https://www.finn.no/realestate/homes/ad.html?finnkode=302393354,9638,59.1006726,9.0470978,09/05/2023,2.0,Andel,3750,Drangedal
Aukeveien 118A,5500000,148,,1920.0,Enebolig,https://www.finn.no/realestate/homes/ad.html?finnkode=301923599,37162,59.7530184,10.4656555,09/05/2023,,Eier (Selveier),3472,Bødalen
Rådyrstien 6,8650000,157,5.0,1974.0,Enebolig,https://www.finn.no/realestate/homes/ad.html?finnkode=298882663,55095,59.859305,10.818846,09/05/2023,2.0,Eier (Selveier),1164,Oslo
Sommerbakken 15A,8790000,202,6.0,1958.0,Enebolig,https://www.finn.no/realestate/homes/ad.html?finnkode=302372655,43514,58.941072,5.6807911,09/05/2023,,Eier (Selveier),4041,Hafrsfjord
Øvreveien 26,1400000,93,,2009.0,Leilighet,https://www.finn.no/realestate/homes/ad.html?finnkode=302386762,15053,69.0670935,18.5170179,09/05/2023,2.0,Andel,9325,Bardufoss
Bieveien 20,4990000,178,7.0,1972.0,Enebolig,https://www.finn.no/realestate/homes/ad.html?finnkode=302392184,28033,58.3538981,8.5924457,09/05/2023,2.0,Eier (Selveier),4878,Grimstad
Søvikhaugen 56,4690000,162,,1965.0,Enebolig,https://www.finn.no/realestate/homes/ad.html?finnkode=298824585,28950,60.3128684,5.2937728,09/05/2023,,Eier (Selveier),5251,Søreidgrend
Ulsholtveien 54C,3950000,64,3.0,1993.0,Leilighet,https://www.finn.no/realestate/homes/ad.html?finnkode=301962320,61718,59.943796,10.892846,09/05/2023,1.0,Eier (Selveier),1053,Oslo
Oscar Omdals gate 6,2800000,81,4.0,1961.0,Leilighet,https://www.finn.no/realestate/homes/ad.html?finnkode=302367318,34567,58.9476706,5.7185253,09/05/2023,1.0,Andel,4019,Stavanger
Finn Thorsagers vei 4,7950000,65,3.0,2019.0,Leilighet,https://www.finn.no/realestate/homes/ad.html?finnkode=302390788,122307,59.898695,10.609759,09/05/2023,5.0,Eier (Selveier),1360,Fornebu
Jonsokveien 2A,29000000,404,,1900.0,Enebolig,https://www.finn.no/realestate/homes/ad.html?finnkode=299645678,71782,59.9072324,10.5964998,09/05/2023,3.0,Eier (Selveier),1369,Stabekk
Mosvevegen 8B,3480000,77,3.0,2005.0,Leilighet,https://www.finn.no/realestate/homes/ad.html?finnkode=301806328,45194,61.1244558,10.4471192,09/05/2023,2.0,Andel,2619,Lillehammer
John Giævers gate 8,6100000,186,6.0,1936.0,Enebolig,https://www.finn.no/realestate/homes/ad.html?finnkode=274829720,32795,69.6430086,18.9393824,09/05/2023,,Eier (Selveier),9007,Tromsø
Toftes gate 57B,4320000,39,2.0,1880.0,Leilighet,https://www.finn.no/realestate/homes/ad.html?finnkode=301934973,110769,59.922973,10.760874,09/05/2023,3.0,Eier (Selveier),552,Oslo
Maries gate 12B,8150000,90,4.0,1940.0,Leilighet,https://www.finn.no/realestate/homes/ad.html?finnkode=302389265,90555,59.928175,10.713016,09/05/2023,1.0,Eier (Selveier),368,Oslo
Bestum skolevei 1C,24500000,297,,2009.0,Enebolig,https://www.finn.no/realestate/homes/ad.html?finnkode=302388726,82491,59.922077,10.655292,09/05/2023,,Eier (Selveier),280,Oslo
Nebbeveien 7,2890000,93,3.0,1973.0,Leilighet,https://www.finn.no/realestate/homes/ad.html?finnkode=302388701,31075,60.353538,5.293978,09/05/2023,2.0,Andel,5144,Fyllingsdalen
Gamle Grav vei 20,9800000,137,6.0,1969.0,Tomannsbolig,https://www.finn.no/realestate/homes/ad.html?finnkode=281822235,71532,59.929189,10.599698,09/05/2023,,Eier (Selveier),1357,Bekkestua
Vollenlia 105D,4190000,64,3.0,2003.0,Leilighet,https://www.finn.no/realestate/homes/ad.html?finnkode=301940541,65468,59.8050456,10.484107,09/05/2023,1.0,Eier (Selveier),1390,Vollen
Marcus Thranes gate 8,5900000,72,3.0,1916.0,Leilighet,https://www.finn.no/realestate/homes/ad.html?finnkode=302365510,81944,59.932474,10.760286,09/05/2023,4.0,Andel,473,Oslo
Grenseveien 26,6500000,142,7.0,2012.0,Rekkehus,https://www.finn.no/realestate/homes/ad.html?finnkode=302387820,45774,59.723583,10.809413,09/05/2023,,Eier (Selveier),1406,Ski
Liaveien 38,9200000,230,9.0,1970.0,Enebolig,https://www.finn.no/realestate/homes/ad.html?finnkode=290841503,40000,59.6617172,10.8110775,09/05/2023,2.0,Eier (Selveier),1435,Ås
Grindbråtan 21C,3200000,100,4.0,1977.0,Rekkehus,https://www.finn.no/realestate/homes/ad.html?finnkode=301899944,32000,60.09113,10.866904,09/05/2023,,Andel,1484,Hakadal
Grimseidåsen 17,7500000,240,5.0,2015.0,Enebolig,https://www.finn.no/realestate/homes/ad.html?finnkode=302023256,31250,60.2698681,5.2740193,09/05/2023,2.0,Eier (Selveier),5239,Rådal
Bergsvevegen 2,2950000,159,,1980.0,Enebolig,https://www.finn.no/realestate/homes/ad.html?finnkode=299283196,18553,60.8164978,11.3416606,09/05/2023,2.0,Eier (Selveier),2340,Løten
Bryggekanten 2H,9000000,150,5.0,2000.0,Leilighet,https://www.finn.no/realestate/homes/ad.html?finnkode=301935871,60000,59.4346939,10.6542452,09/05/2023,4.0,Eier (Selveier),1531,Moss
Strandvegen 102D,4100000,61,3.0,2015.0,Leilighet,https://www.finn.no/realestate/homes/ad.html?finnkode=301833630,67213,69.6371663,18.9350334,09/05/2023,4.0,Eier (Selveier),9006,Tromsø
Storflata 1,2490000,93,,1969.0,Leilighet,https://www.finn.no/realestate/homes/ad.html?finnkode=301792580,26774,63.377283,10.362338,09/05/2023,10.0,Andel,7029,Trondheim
Lilleakerveien 52B,13000000,239,,1972.0,Enebolig,https://www.finn.no/realestate/homes/ad.html?finnkode=302385932,54393,59.924075,10.639165,09/05/2023,,Eier (Selveier),284,Oslo
Nordlifaret 16,3700000,82,3.0,1969.0,Leilighet,https://www.finn.no/realestate/homes/ad.html?finnkode=301910460,45121,59.9218417,10.962426,09/05/2023,1.0,Andel,1473,Lørenskog
Nattlandsfjellet 15B,6800000,277,,1988.0,Enebolig,https://www.finn.no/realestate/homes/ad.html?finnkode=302385432,24548,60.34618,5.3647129,09/05/2023,,Eier (Selveier),5098,Bergen
Valhalls gate 10B,2550000,41,3.0,2017.0,Enebolig,https://www.finn.no/realestate/homes/ad.html?finnkode=282800723,62195,59.215305,10.9351849,09/05/2023,1.0,Eier (Selveier),1608,Fredrikstad
Reinveien 12,3900000,136,4.0,1975.0,Tomannsbolig,https://www.finn.no/realestate/homes/ad.html?finnkode=302384680,28676,68.4368709,17.4537739,09/05/2023,2.0,Eier (Selveier),8515,Narvik
Hoffselvpromenaden 2,5250000,47,,2007.0,Leilighet,https://www.finn.no/realestate/homes/ad.html?finnkode=302383627,111702,59.921052,10.679517,09/05/2023,7.0,Eier (Selveier),279,Oslo
Sogstijordet 1G,5170000,80,3.0,2005.0,Rekkehus,https://www.finn.no/realestate/homes/ad.html?finnkode=301919103,64625,59.6567396,10.6409909,09/05/2023,2.0,Eier (Selveier),1446,Drøbak
Paal Bergs vei 34,3490000,55,2.0,1971.0,Leilighet,https://www.finn.no/realestate/homes/ad.html?finnkode=302382871,63454,59.925209,10.486977,09/05/2023,3.0,Andel,1348,Rykkinn
Prost Refsums veg 21,3150000,56,2.0,1972.0,Leilighet,https://www.finn.no/realestate/homes/ad.html?finnkode=302342596,56250,59.9395259,11.0562527,09/05/2023,1.0,Andel,2005,Rælingen
Sogstieika 18B,7900000,134,4.0,2008.0,Enebolig,https://www.finn.no/realestate/homes/ad.html?finnkode=301931599,58955,59.6560852,10.6394502,09/05/2023,3.0,Eier (Selveier),1446,Drøbak
Schæffers gate 3A,4750000,50,2.0,1898.0,Leilighet,https://www.finn.no/realestate/homes/ad.html?finnkode=302107094,95000,59.921233,10.762016,09/05/2023,4.0,Andel,558,Oslo
Brusemyrtoppen 5A,2200000,104,4.0,1978.0,Rekkehus,https://www.finn.no/realestate/homes/ad.html?finnkode=302370707,21153,59.2742103,11.1739725,09/05/2023,2.0,Andel,1739,Borgenhaugen
Lørenveien 63A,5700000,53,3.0,2019.0,Leilighet,https://www.finn.no/realestate/homes/ad.html?finnkode=302382271,107547,59.928843,10.798208,09/05/2023,8.0,Eier (Selveier),585,Oslo
Stangeløkkveien 10,1790000,75,3.0,1953.0,Leilighet,https://www.finn.no/realestate/homes/ad.html?finnkode=302362970,23866,59.126416,11.3753617,09/05/2023,1.0,Andel,1778,Halden
Falla 14,6800000,206,6.0,1920.0,Enebolig,https://www.finn.no/realestate/homes/ad.html?finnkode=277584845,33009,59.1768347,11.1505101,09/05/2023,3.0,Eier (Selveier),1747,Skjeberg
Ulefossvegen 120,1750000,166,,1938.0,Enebolig,https://www.finn.no/realestate/homes/ad.html?finnkode=289801926,10542,59.1981527,9.5702581,09/05/2023,2.0,Eier (Selveier),3728,Skien
Aslakveien 26B,5599000,105,4.0,2019.0,Leilighet,https://www.finn.no/realestate/homes/ad.html?finnkode=302363982,53323,59.938555,10.650026,09/05/2023,1.0,Andel,753,Oslo
Nordre Skrenten 1A,3000000,78,3.0,1973.0,Leilighet,https://www.finn.no/realestate/homes/ad.html?finnkode=302333514,38461,59.8129433,10.809129,09/05/2023,-1.0,Eier (Selveier),1413,Tårnåsen
Ballblomen 4,4680000,137,4.0,1982.0,Enebolig,https://www.finn.no/realestate/homes/ad.html?finnkode=302334320,34160,59.7092149,10.1545451,09/05/2023,,Andel,3032,Drammen
Ladeveien 18,2990000,36,2.0,2020.0,Leilighet,https://www.finn.no/realestate/homes/ad.html?finnkode=302380465,83055,63.442276,10.435116,09/05/2023,,Eier (Selveier),7066,Trondheim
