address,price,area,rooms,year,type,url,price_per_m2,lat,lon,date,floor,ownership,postal_code,city
Knuts vei 7 Våler i,7750000,205,,2021.0,Enebolig,https://www.finn.no/realestate/homes/ad.html?finnkode=299792924,37804,59.499157,10.853164,02/05/2023,,Eier (Selveier),1592,Østfold
Storgata 159,2200000,186,,1946.0,Enebolig,https://www.finn.no/realestate/homes/ad.html?finnkode=301576295,11827,59.046349,10.055051,02/05/2023,3.0,Eier (Selveier),3262,Larvik
Krakhellevegen,2250000,223,,1991.0,Enebolig,https://www.finn.no/realestate/homes/ad.html?finnkode=300747717,10089,61.124037,4.912916,02/05/2023,2.0,Eier (Selveier),1142,Hardbakke
Laberget 96,6690000,100,3.0,2008.0,Leilighet,https://www.finn.no/realestate/homes/ad.html?finnkode=293843816,66900,58.917237,5.738358,02/05/2023,11.0,Eier (Selveier),4020,Stavanger
Lundaveien 57,6190000,155,4.0,1989.0,Enebolig,https://www.finn.no/realestate/homes/ad.html?finnkode=301500825,39935,59.704831,10.1628366,02/05/2023,3.0,Eier (Selveier),3032,Drammen
Tante Ulrikkes vei 40A,3490000,95,4.0,1970.0,Leilighet,https://www.finn.no/realestate/homes/ad.html?finnkode=300924865,36736,59.960317,10.919313,02/05/2023,3.0,Andel,984,Oslo
Blindernveien 4,6200000,66,3.0,1959.0,Leilighet,https://www.finn.no/realestate/homes/ad.html?finnkode=301511688,93939,59.935342,10.725395,02/05/2023,6.0,Eier (Selveier),361,Oslo
Orreveien 2,2250000,222,,1980.0,Enebolig,https://www.finn.no/realestate/homes/ad.html?finnkode=301579698,10135,59.0999091,9.0480566,02/05/2023,2.0,Eier (Selveier),3750,Drangedal
Øvre Strandgate 35,2350000,31,,1876.0,Leilighet,https://www.finn.no/realestate/homes/ad.html?finnkode=301529744,75806,58.9708736,5.7276309,02/05/2023,3.0,Eier (Selveier),4005,Stavanger
Selma Ellefsens vei 11F,2490000,78,3.0,2021.0,Leilighet,https://www.finn.no/realestate/homes/ad.html?finnkode=301578991,31923,59.926552,10.809668,02/05/2023,12.0,Andel,581,Oslo
Jebeveien 11,6590000,140,5.0,1932.0,Leilighet,https://www.finn.no/realestate/homes/ad.html?finnkode=301520323,47071,63.433951,10.43382,02/05/2023,2.0,Eier (Selveier),7043,Trondheim
Ensjøveien 26 A,4750000,67,3.0,1949.0,Leilighet,https://www.finn.no/realestate/homes/ad.html?finnkode=301578290,70895,59.912963,10.791858,02/05/2023,2.0,Eier (Selveier),661,Oslo
Tiurveien 49B,3290000,75,3.0,1991.0,Leilighet,https://www.finn.no/realestate/homes/ad.html?finnkode=297030427,43866,58.9533836,5.6758323,02/05/2023,1.0,Eier (Selveier),4042,Hafrsfjord
Sandeveien 19,5200000,177,5.0,1966.0,Enebolig,https://www.finn.no/realestate/homes/ad.html?finnkode=301575564,29378,59.0176721,5.5935149,02/05/2023,,Eier (Selveier),4071,Randaberg
Svalevegen 21,3850000,163,5.0,1974.0,Enebolig,https://www.finn.no/realestate/homes/ad.html?finnkode=301577611,23619,59.2262834,9.5485989,02/05/2023,,Eier (Selveier),3742,Skien
Øystein Møylas veg 12,3290000,63,,1960.0,Leilighet,https://www.finn.no/realestate/homes/ad.html?finnkode=301573332,52222,63.4056993,10.4029761,02/05/2023,3.0,Eier (Selveier),7031,Trondheim
Verven 3,5990000,71,,2021.0,Leilighet,https://www.finn.no/realestate/homes/ad.html?finnkode=301576439,84366,58.14557,8.010886,02/05/2023,2.0,Eier (Selveier),4608,Kristiansand S
Stakkevollvegen 98X,3250000,74,4.0,2006.0,Leilighet,https://www.finn.no/realestate/homes/ad.html?finnkode=278729238,43918,69.6672507,18.9682963,02/05/2023,5.0,Andel,9010,Tromsø
Kalfarveien 80,2190000,43,,1860.0,Leilighet,https://www.finn.no/realestate/homes/ad.html?finnkode=301575400,50930,60.3860414,5.3492616,02/05/2023,,Andel,5022,Bergen
Prinsengata 4G,3190000,89,3.0,1999.0,Leilighet,https://www.finn.no/realestate/homes/ad.html?finnkode=301483655,35842,63.2889249,9.0872962,02/05/2023,1.0,Eier (Selveier),7200,Kyrksæterøra
Gjærbrøndveien 40,3250000,136,,1962.0,Enebolig,https://www.finn.no/realestate/homes/ad.html?finnkode=301574635,23897,58.3491774,8.5585702,02/05/2023,,Eier (Selveier),4886,Grimstad
Tollbodallmenningen 35,2690000,35,2.0,1959.0,Leilighet,https://www.finn.no/realestate/homes/ad.html?finnkode=285687413,76857,60.3983947,5.3090196,02/05/2023,,Andel,5005,Bergen
Eikelundveien 21,6500000,92,4.0,1963.0,Leilighet,https://www.finn.no/realestate/homes/ad.html?finnkode=301141448,70652,59.9433,10.801399,02/05/2023,3.0,Eier (Selveier),588,Oslo
Ragnhilds vei 1C,4790000,64,3.0,2021.0,Leilighet,https://www.finn.no/realestate/homes/ad.html?finnkode=301376929,74843,59.927167,10.95275,02/05/2023,7.0,Andel,1473,Lørenskog
Semsbyveien 82E,2200000,60,2.0,2002.0,Leilighet,https://www.finn.no/realestate/homes/ad.html?finnkode=301571486,36666,59.2829876,10.3302737,02/05/2023,1.0,Eier (Selveier),3170,Sem
Gaustadveien 4D,4350000,55,2.0,1964.0,Leilighet,https://www.finn.no/realestate/homes/ad.html?finnkode=301572124,79090,59.953984,10.716694,02/05/2023,-1.0,Andel,372,Oslo
Theodor Dahls veg 4C,4100000,94,3.0,2022.0,Leilighet,https://www.finn.no/realestate/homes/ad.html?finnkode=300861594,43617,58.779642,5.720507,02/05/2023,2.0,Eier (Selveier),4355,Kvernaland
Granåsveien 9,3890000,213,,1984.0,Enebolig,https://www.finn.no/realestate/homes/ad.html?finnkode=301571202,18262,59.1927738,9.9834847,02/05/2023,,Eier (Selveier),3282,Kvelde
Adjunkt Arentz gate vest 5A,2820000,73,3.0,1991.0,Leilighet,https://www.finn.no/realestate/homes/ad.html?finnkode=288151375,38630,59.213756,9.605128,02/05/2023,1.0,Eier (Selveier),3717,Skien
Søndre Dølibekken 8,2990000,51,2.0,2021.0,Leilighet,https://www.finn.no/realestate/homes/ad.html?finnkode=301544340,58627,60.134112,11.162836,02/05/2023,4.0,Eier (Selveier),2050,Jessheim
Einarvikgata 5,3100000,63,,1988.0,Leilighet,https://www.finn.no/realestate/homes/ad.html?finnkode=301569217,49206,62.47447,6.1594698,02/05/2023,3.0,Eier (Selveier),6002,Ålesund
Starrmyra 8,2250000,68,2.0,1983.0,Leilighet,https://www.finn.no/realestate/homes/ad.html?finnkode=301507422,33088,63.360359,10.391229,02/05/2023,4.0,Andel,7091,Tiller
Einar Bergs veg 2 C,3325000,88,3.0,2013.0,Leilighet,https://www.finn.no/realestate/homes/ad.html?finnkode=271312219,37784,63.4636275,11.1137717,02/05/2023,2.0,Eier (Selveier),7520,Hegra
Ullern allé 11,7500000,107,,1983.0,Leilighet,https://www.finn.no/realestate/homes/ad.html?finnkode=301566797,70093,59.927199,10.643613,02/05/2023,2.0,Eier (Selveier),381,Oslo
Kleists gate 4,3490000,65,2.0,1983.0,Leilighet,https://www.finn.no/realestate/homes/ad.html?finnkode=301565717,53692,63.4300856,10.3679219,02/05/2023,4.0,Eier (Selveier),7018,Trondheim
Brushanevegen 29,2650000,104,3.0,1977.0,Leilighet,https://www.finn.no/realestate/homes/ad.html?finnkode=301564146,25480,63.3438381,10.3367505,02/05/2023,1.0,Andel,7082,Kattem
Kalfarveien 20C,4190000,54,,2022.0,Leilighet,https://www.finn.no/realestate/homes/ad.html?finnkode=301563873,77592,60.389643,5.339118,02/05/2023,,Eier (Selveier),5018,Bergen
Rostockgata 82,7190000,54,3.0,2023.0,Leilighet,https://www.finn.no/realestate/homes/ad.html?finnkode=295988003,133148,59.905099,10.760257,02/05/2023,4.0,Eier (Selveier),194,Oslo
Ingeborg Markens veg 69,5750000,253,5.0,1986.0,Enebolig,https://www.finn.no/realestate/homes/ad.html?finnkode=299523326,22727,63.4010932,10.0790197,02/05/2023,3.0,Eier (Selveier),7070,Bosberg
Vetrlidsallmenningen 25,5790000,90,,1876.0,Leilighet,https://www.finn.no/realestate/homes/ad.html?finnkode=301560435,64333,60.396356,5.328869,02/05/2023,2.0,Eier (Selveier),5014,Bergen
Strandpromenaden 162,3050000,84,3.0,1967.0,Leilighet,https://www.finn.no/realestate/homes/ad.html?finnkode=300251316,36309,59.4252675,10.6304358,02/05/2023,2.0,Andel,1516,Moss
Glassperleveien 115,3190000,66,3.0,2003.0,Leilighet,https://www.finn.no/realestate/homes/ad.html?finnkode=301560379,48333,58.9046966,5.7222569,02/05/2023,2.0,Eier (Selveier),4032,Stavanger
Skipperveien 14,5500000,293,,1965.0,Enebolig,https://www.finn.no/realestate/homes/ad.html?finnkode=301560383,18771,68.2418017,14.5806434,02/05/2023,,Eier (Selveier),8300,Svolvær
Gudridflaten 93,2990000,83,,2002.0,Leilighet,https://www.finn.no/realestate/homes/ad.html?finnkode=301559931,36024,60.2058635,5.4551211,02/05/2023,2.0,Eier (Selveier),5210,Os
Brattåsveien 57,3290000,137,,1959.0,Enebolig,https://www.finn.no/realestate/homes/ad.html?finnkode=301559256,24014,59.1976912,10.3919645,02/05/2023,,Eier (Selveier),3140,Nøtterøy
Rathkes gate 16A,3990000,39,2.0,1903.0,Leilighet,https://www.finn.no/realestate/homes/ad.html?finnkode=300679753,102307,59.921754,10.765354,02/05/2023,1.0,Andel,558,Oslo
Bevervegen 25,6290000,175,7.0,1963.0,Tomannsbolig,https://www.finn.no/realestate/homes/ad.html?finnkode=301558519,35942,60.3018017,5.3344761,02/05/2023,3.0,Eier (Selveier),5236,Rådal
Grorudveien 39C,3750000,72,3.0,1981.0,Leilighet,https://www.finn.no/realestate/homes/ad.html?finnkode=301536424,52083,59.95473,10.878766,02/05/2023,1.0,Andel,976,Oslo
General Laakes vei 4,6490000,123,4.0,1970.0,Rekkehus,https://www.finn.no/realestate/homes/ad.html?finnkode=301458687,52764,59.9510911,11.0181287,02/05/2023,2.0,Eier (Selveier),2010,Strømmen
Dåpanveien 40,4600000,135,6.0,2005.0,Enebolig,https://www.finn.no/realestate/homes/ad.html?finnkode=301537917,34074,59.0381281,9.9917501,02/05/2023,2.0,Eier (Selveier),3265,Larvik
Conradis vei 6 A,5100000,80,4.0,1963.0,Leilighet,https://www.finn.no/realestate/homes/ad.html?finnkode=301557585,63750,59.902213,10.529408,02/05/2023,2.0,Andel,1338,Sandvika
Aurfaret 11,4500000,92,,2012.0,Leilighet,https://www.finn.no/realestate/homes/ad.html?finnkode=299667748,48913,59.9282409,11.4473178,02/05/2023,1.0,Eier (Selveier),1930,Aurskog
Rolf Presthus vei 79,7400000,109,4.0,2007.0,Leilighet,https://www.finn.no/realestate/homes/ad.html?finnkode=301509825,67889,59.769871,10.826105,02/05/2023,3.0,Eier (Selveier),1415,Oppegård
Langengen 2,7990000,87,,2015.0,Leilighet,https://www.finn.no/realestate/homes/ad.html?finnkode=301555549,91839,59.9119854,10.7918509,02/05/2023,4.0,Eier (Selveier),661,Oslo
Sundvorvegen 116,1790000,149,7.0,1928.0,Enebolig,https://www.finn.no/realestate/homes/ad.html?finnkode=301536497,12013,60.18439,5.765804,02/05/2023,3.0,Eier (Selveier),5645,Sævareid
Gubbeskogveien 14,7950000,238,,1962.0,Enebolig,https://www.finn.no/realestate/homes/ad.html?finnkode=255696887,33403,59.4144116,10.6723175,02/05/2023,,Eier (Selveier),1526,Moss
Jarlsborgveien 3E,21500000,283,8.0,2014.0,Enebolig,https://www.finn.no/realestate/homes/ad.html?finnkode=301523620,75971,59.930753,10.673857,02/05/2023,,Eier (Selveier),377,Oslo
Himmelberget 18B,4200000,91,,2012.0,Leilighet,https://www.finn.no/realestate/homes/ad.html?finnkode=301546660,46153,59.222826,10.9091735,02/05/2023,1.0,Eier (Selveier),1621,Gressvik
Vardeveien 70A,2790000,88,4.0,1966.0,Leilighet,https://www.finn.no/realestate/homes/ad.html?finnkode=301518655,31704,60.340767,5.272198,02/05/2023,4.0,Andel,5141,Fyllingsdalen
Inges gate 26,3990000,65,3.0,1953.0,Leilighet,https://www.finn.no/realestate/homes/ad.html?finnkode=297357996,61384,59.9525616,11.0710645,02/05/2023,2.0,Eier (Selveier),2004,Lillestrøm
Hønsveien 69A,3450000,51,,,Leilighet,https://www.finn.no/realestate/homes/ad.html?finnkode=301553278,67647,59.843592,10.458483,02/05/2023,-1.0,Eier (Selveier),1384,Asker
Lavaløkka 20A,7990000,204,6.0,2017.0,Enebolig,https://www.finn.no/realestate/homes/ad.html?finnkode=287382668,39166,59.7268409,10.3625053,02/05/2023,2.0,Eier (Selveier),3442,Hyggen
Neslia 42,1990000,131,4.0,1977.0,Rekkehus,https://www.finn.no/realestate/homes/ad.html?finnkode=300752253,15190,60.0004151,5.984512,02/05/2023,2.0,Andel,5470,Rosendal
Torggata 13,2300000,162,4.0,1947.0,Enebolig,https://www.finn.no/realestate/homes/ad.html?finnkode=297481990,14197,59.1112423,9.6442011,02/05/2023,2.0,Eier (Selveier),3936,Porsgrunn
Toftes gate 32,8700000,103,5.0,1894.0,Leilighet,https://www.finn.no/realestate/homes/ad.html?finnkode=301440080,84466,59.926838,10.761258,02/05/2023,4.0,Andel,556,Oslo
Saglunden 5,2650000,43,2.0,2017.0,Leilighet,https://www.finn.no/realestate/homes/ad.html?finnkode=301507767,61627,60.207518,10.720318,02/05/2023,3.0,Eier (Selveier),2743,Harestua
Bygdøynesveien 26,17950000,130,4.0,2019.0,Leilighet,https://www.finn.no/realestate/homes/ad.html?finnkode=261009944,138076,59.901898,10.694223,02/05/2023,1.0,Eier (Selveier),286,Oslo
Holtet 17,3500000,85,4.0,1990.0,Rekkehus,https://www.finn.no/realestate/homes/ad.html?finnkode=301539184,41176,59.7310071,10.3279304,02/05/2023,1.0,Andel,3430,Spikkestad
Vettrelia 3,6890000,140,,1967.0,Tomannsbolig,https://www.finn.no/realestate/homes/ad.html?finnkode=301548565,49214,59.8266125,10.4677812,02/05/2023,,Eier (Selveier),1392,Vettre
Mørtelverksbakken 19,5990000,78,4.0,2018.0,Leilighet,https://www.finn.no/realestate/homes/ad.html?finnkode=291796680,76794,59.935954,10.806934,02/05/2023,2.0,Eier (Selveier),580,Oslo
Prinsegata 17,2190000,86,,1980.0,Leilighet,https://www.finn.no/realestate/homes/ad.html?finnkode=301547618,25465,59.051856,10.030253,02/05/2023,2.0,Andel,3256,Larvik
Såvegen 5,3300000,50,2.0,2007.0,Leilighet,https://www.finn.no/realestate/homes/ad.html?finnkode=301547439,66000,60.1418928,11.1644994,02/05/2023,1.0,Eier (Selveier),2050,Jessheim
Skogvegen 8A,950000,109,,1970.0,Tomannsbolig,https://www.finn.no/realestate/homes/ad.html?finnkode=289605746,8715,61.7755552,5.2882764,02/05/2023,,Eier (Selveier),6723,Svelgen
Postveien 140,2190000,65,2.0,1985.0,Leilighet,https://www.finn.no/realestate/homes/ad.html?finnkode=301547150,33692,58.8656715,5.7346439,02/05/2023,4.0,Andel,4317,Sandnes
Mullersgate 21,2290000,42,,,Leilighet,https://www.finn.no/realestate/homes/ad.html?finnkode=301547008,54523,61.770726,9.543225,02/05/2023,,Eier (Selveier),2670,Otta
Hegermanns gate 13B,3300000,58,,1922.0,Leilighet,https://www.finn.no/realestate/homes/ad.html?finnkode=301546973,56896,59.934584,10.76634,02/05/2023,2.0,Andel,478,Oslo
Solheimveien 3B,2550000,102,,1991.0,Tomannsbolig,https://www.finn.no/realestate/homes/ad.html?finnkode=301546832,25000,58.2549813,8.3818667,02/05/2023,1.0,Eier (Selveier),4790,Lillesand
Morvikveien 59,3490000,218,3.0,1900.0,Enebolig,https://www.finn.no/realestate/homes/ad.html?finnkode=301546314,16009,60.4682976,5.2780446,02/05/2023,2.0,Eier (Selveier),5122,Morvik
Sondrevegen 2H,13000000,168,4.0,1971.0,Leilighet,https://www.finn.no/realestate/homes/ad.html?finnkode=301546223,77380,59.934752,10.66013,02/05/2023,,Eier (Selveier),378,Oslo
Fridtjof Nansens vei 6A,10950000,118,,2020.0,Leilighet,https://www.finn.no/realestate/homes/ad.html?finnkode=301241287,92796,63.423845,10.35985,02/05/2023,1.0,Eier (Selveier),7020,Trondheim
Engersand Havn 10,1900000,60,,2016.0,Leilighet,https://www.finn.no/realestate/homes/ad.html?finnkode=301534203,31666,59.7336759,10.3020855,02/05/2023,5.0,Andel,3427,Gullaug
Etterstadgata 22,5800000,78,3.0,1951.0,Leilighet,https://www.finn.no/realestate/homes/ad.html?finnkode=301545708,74358,59.908045,10.792881,02/05/2023,3.0,Aksje,658,Oslo
Saturnveien 52,5500000,95,,1967.0,Enebolig,https://www.finn.no/realestate/homes/ad.html?finnkode=301545196,57894,59.3017658,11.1483459,02/05/2023,,Eier (Selveier),1734,Hafslundsøy
Sangenvegen 3,3950000,79,3.0,2015.0,Leilighet,https://www.finn.no/realestate/homes/ad.html?finnkode=300705475,50000,60.7943354,11.0625028,02/05/2023,1.0,Eier (Selveier),2317,Hamar
Sagveien 3,6300000,203,,1988.0,Enebolig,https://www.finn.no/realestate/homes/ad.html?finnkode=279455144,31034,59.739335,10.597872,02/05/2023,,Eier (Selveier),1454,Fagerstrand
Tranavegen 32,1350000,65,3.0,2004.0,Leilighet,https://www.finn.no/realestate/homes/ad.html?finnkode=300878135,20769,64.0106062,11.5118665,02/05/2023,,Andel,7713,Steinkjer
Bjørnlivegen 19,6450000,261,,1949.0,Enebolig,https://www.finn.no/realestate/homes/ad.html?finnkode=259512163,24712,59.1327975,9.6636342,02/05/2023,,Eier (Selveier),3917,Porsgrunn
Tastagata 27,3250000,87,4.0,1955.0,Leilighet,https://www.finn.no/realestate/homes/ad.html?finnkode=301432545,37356,58.9778439,5.7165822,02/05/2023,1.0,Eier (Selveier),4007,Stavanger
Godmyrstien 1C,2790000,75,2.0,1952.0,Leilighet,https://www.finn.no/realestate/homes/ad.html?finnkode=301543173,37200,58.9340468,5.7277999,02/05/2023,1.0,Eier (Selveier),4018,Stavanger
Johan Berentsens vei 60,1100000,37,1.0,1933.0,Leilighet,https://www.finn.no/realestate/homes/ad.html?finnkode=297014338,29729,60.391578,5.2818041,02/05/2023,2.0,Eier (Selveier),5163,Laksevåg
Hjorthehaven 50,8750000,180,,1997.0,Tomannsbolig,https://www.finn.no/realestate/homes/ad.html?finnkode=301542686,48611,59.896582,10.489172,02/05/2023,,Eier (Selveier),1336,Sandvika
Kjørrgrova 2,3100000,160,5.0,1943.0,Enebolig,https://www.finn.no/realestate/homes/ad.html?finnkode=297386199,19375,60.5235354,5.5136943,02/05/2023,2.0,Eier (Selveier),5282,Lonevåg
Krokstien 3C,2050000,82,,1971.0,Leilighet,https://www.finn.no/realestate/homes/ad.html?finnkode=295565962,25000,59.2797228,11.0484613,02/05/2023,,Andel,1718,Greåker
Bragernes torg 12,3990000,61,2.0,1868.0,Leilighet,https://www.finn.no/realestate/homes/ad.html?finnkode=301492323,65409,59.743561,10.205069,02/05/2023,4.0,Eier (Selveier),3017,Drammen
Åsas vei 17,4180000,226,,1986.0,Enebolig,https://www.finn.no/realestate/homes/ad.html?finnkode=298818404,18495,58.9168173,5.8688193,02/05/2023,,Eier (Selveier),4311,Hommersåk
Basbergveien 14C,3190000,68,3.0,1995.0,Leilighet,https://www.finn.no/realestate/homes/ad.html?finnkode=301335294,46911,59.2834613,10.4635876,02/05/2023,2.0,Eier (Selveier),3114,Tønsberg
Togstadvegen 260C,2700000,129,,2016.0,Tomannsbolig,https://www.finn.no/realestate/homes/ad.html?finnkode=300865598,20930,60.230579,11.628267,02/05/2023,,Eier (Selveier),2100,Skarnes
Saxegaardsgata 3A,2400000,23,2.0,1894.0,Leilighet,https://www.finn.no/realestate/homes/ad.html?finnkode=301541051,104347,59.904621,10.766429,02/05/2023,2.0,Andel,192,Oslo
Underlia 2,9750000,124,,2009.0,Leilighet,https://www.finn.no/realestate/homes/ad.html?finnkode=301540699,78629,59.7518606,10.1851676,02/05/2023,3.0,Eier (Selveier),3021,Drammen
Byrkjelandsvegen 32,2950000,181,,1980.0,Enebolig,https://www.finn.no/realestate/homes/ad.html?finnkode=301187769,16298,60.3476573,6.1757344,02/05/2023,2.0,Eier (Selveier),5600,Norheimsund
Kunnskapsveien 76A,3850000,70,3.0,2011.0,Leilighet,https://www.finn.no/realestate/homes/ad.html?finnkode=301512288,55000,59.7510606,10.335955,02/05/2023,1.0,Eier (Selveier),3430,Spikkestad
Vollenetoppen 8,1090000,57,2.0,2009.0,Leilighet,https://www.finn.no/realestate/homes/ad.html?finnkode=301539430,19122,58.4655449,8.7834243,02/05/2023,2.0,Andel,4842,Arendal
St. Olavs gate 22,3900000,119,,2014.0,Leilighet,https://www.finn.no/realestate/homes/ad.html?finnkode=301539418,32773,60.7955846,11.078928,02/05/2023,4.0,Andel,2317,Hamar
Rogagaten 2,2690000,50,2.0,1947.0,Leilighet,https://www.finn.no/realestate/homes/ad.html?finnkode=301519003,53800,60.3759837,5.3325984,02/05/2023,1.0,Aksje,5055,Bergen
Dannevigsveien 10A,2960000,30,2.0,1894.0,Leilighet,https://www.finn.no/realestate/homes/ad.html?finnkode=301538693,98666,59.936803,10.754198,02/05/2023,2.0,Andel,463,Oslo
Beverveien 20,4900000,279,7.0,1983.0,Enebolig,https://www.finn.no/realestate/homes/ad.html?finnkode=301182637,17562,59.55462,11.352918,02/05/2023,3.0,Eier (Selveier),1850,Mysen
Sjøenvegen 24,1990000,183,8.0,1958.0,Enebolig,https://www.finn.no/realestate/homes/ad.html?finnkode=238027088,10874,59.2570977,5.1824316,02/05/2023,3.0,Eier (Selveier),4270,Åkrehamn
Furuveien 14,7500000,128,4.0,1967.0,Enebolig,https://www.finn.no/realestate/homes/ad.html?finnkode=301179856,58593,59.9322427,10.9558289,02/05/2023,,Eier (Selveier),1470,Lørenskog
Solørvegen,1500000,131,,1950.0,Enebolig,https://www.finn.no/realestate/homes/ad.html?finnkode=301538447,11450,60.4666892,12.0646731,02/05/2023,,Eier (Selveier),1173,Kirkenær
Teglverkstunet 4A,2100000,28,2.0,1974.0,Leilighet,https://www.finn.no/realestate/homes/ad.html?finnkode=300669345,75000,63.415857,10.448741,02/05/2023,3.0,Andel,7069,Trondheim
Kompaniveien 6 Gamle,1500000,48,2.0,2022.0,Leilighet,https://www.finn.no/realestate/homes/ad.html?finnkode=301514633,31250,59.207716,10.996743,02/05/2023,2.0,Andel,1639,Fredrikstad
Sverdrups gate 1C,3100000,27,1.0,1895.0,Leilighet,https://www.finn.no/realestate/homes/ad.html?finnkode=301538028,114814,59.919597,10.76277,02/05/2023,4.0,Andel,559,Oslo
Bjørnstjerne Bjørnsons gate 18,4500000,180,,1968.0,Enebolig,https://www.finn.no/realestate/homes/ad.html?finnkode=301488210,25000,58.851027,5.722426,02/05/2023,2.0,Eier (Selveier),4319,Sandnes
Hamangskogen 75,4550000,69,2.0,1983.0,Leilighet,https://www.finn.no/realestate/homes/ad.html?finnkode=301537753,65942,59.896073,10.508699,02/05/2023,3.0,Eier (Selveier),1338,Sandvika
Bakken 16,4990000,190,5.0,1967.0,Enebolig,https://www.finn.no/realestate/homes/ad.html?finnkode=300890514,26263,58.8588762,5.7689045,02/05/2023,,Eier (Selveier),4328,Sandnes
Conradis gate 1B,3900000,35,2.0,1900.0,Leilighet,https://www.finn.no/realestate/homes/ad.html?finnkode=300879631,111428,59.920337,10.766567,02/05/2023,2.0,Eier (Selveier),559,Oslo
Krikane 21,2000000,69,,2007.0,Leilighet,https://www.finn.no/realestate/homes/ad.html?finnkode=301537556,28985,62.3913078,6.5940846,02/05/2023,1.0,Eier (Selveier),6230,Sykkylven
Heiveien 8B,790000,55,,1973.0,Leilighet,https://www.finn.no/realestate/homes/ad.html?finnkode=301536892,14363,58.717213,9.2248,02/05/2023,1.0,Andel,4956,Risør
Clarks gate 6A,2700000,66,,2003.0,Leilighet,https://www.finn.no/realestate/homes/ad.html?finnkode=301536862,40909,58.9993524,9.7490874,02/05/2023,2.0,Eier (Selveier),3970,Langesund
Statsrådvegen 25C Eidsvoll,4990000,115,,2019.0,Tomannsbolig,https://www.finn.no/realestate/homes/ad.html?finnkode=282286249,43391,60.284329,11.154381,02/05/2023,,Eier (Selveier),2074,Verk
Arenessmauet 1,2365000,58,2.0,1990.0,Leilighet,https://www.finn.no/realestate/homes/ad.html?finnkode=292984659,40775,58.451412,6.002245,02/05/2023,4.0,Eier (Selveier),4370,Egersund
Fjellstadveien 7B,8690000,202,,1969.0,Enebolig,https://www.finn.no/realestate/homes/ad.html?finnkode=281316143,43019,59.858889,10.484648,02/05/2023,,Eier (Selveier),1394,Nesbru
Eldsbakkane 41,6350000,157,5.0,1996.0,Rekkehus,https://www.finn.no/realestate/homes/ad.html?finnkode=301535956,40445,60.3096519,5.2774334,02/05/2023,,Eier (Selveier),5253,Sandsli
Arnestadbakkane 26,3300000,191,,1985.0,Enebolig,https://www.finn.no/realestate/homes/ad.html?finnkode=301535874,17277,61.764582,6.166524,02/05/2023,,Eier (Selveier),6823,Sandane
Dampsaga allé 48,3490000,41,2.0,2020.0,Leilighet,https://www.finn.no/realestate/homes/ad.html?finnkode=300877423,85121,60.14282,11.178373,02/05/2023,6.0,Eier (Selveier),2053,Jessheim
Bårddalslivegen 17,3125000,142,6.0,2009.0,Tomannsbolig,https://www.finn.no/realestate/homes/ad.html?finnkode=281464803,22007,60.5329843,4.8704729,02/05/2023,,Eier (Selveier),5337,Rong
Bliksrudstubben 38A,4700000,162,4.0,1983.0,Enebolig,https://www.finn.no/realestate/homes/ad.html?finnkode=301530593,29012,60.091071,10.868058,02/05/2023,,Eier (Selveier),1484,Hakadal
Kyrkjebønsvegen 14B,3150000,55,3.0,2003.0,Leilighet,https://www.finn.no/realestate/homes/ad.html?finnkode=300847570,57272,60.8639843,8.5532402,02/05/2023,2.0,Eier (Selveier),3560,Hemsedal
Augedalsvegen 55,2600000,95,,1950.0,Enebolig,https://www.finn.no/realestate/homes/ad.html?finnkode=301534865,27368,60.4205587,10.5010264,02/05/2023,,Eier (Selveier),2760,Brandbu
Halvdan Svartes gate 38A,24000000,317,7.0,1916.0,Tomannsbolig,https://www.finn.no/realestate/homes/ad.html?finnkode=293663495,75709,59.922233,10.696127,02/05/2023,,Eier (Selveier),268,Oslo
Midtveien 55,4800000,71,3.0,2019.0,Leilighet,https://www.finn.no/realestate/homes/ad.html?finnkode=301534504,67605,59.935226,10.827534,02/05/2023,2.0,Andel,598,Oslo
Løytnant Møllers veg 23,2800000,153,5.0,1964.0,Tomannsbolig,https://www.finn.no/realestate/homes/ad.html?finnkode=300883009,18300,60.3307254,11.2684279,02/05/2023,,Eier (Selveier),2080,Eidsvoll
Jeppevegen 3,2790000,182,,1949.0,Enebolig,https://www.finn.no/realestate/homes/ad.html?finnkode=300861945,15329,59.395619,5.2910224,02/05/2023,,Eier (Selveier),5538,Haugesund
Brøsetvegen 186B,1150000,39,,1971.0,Leilighet,https://www.finn.no/realestate/homes/ad.html?finnkode=301534307,29487,63.4102168,10.4420349,02/05/2023,5.0,Andel,7050,Trondheim
Feltspatveien 31,4000000,54,2.0,1957.0,Leilighet,https://www.finn.no/realestate/homes/ad.html?finnkode=300002543,74074,59.869714,10.820844,02/05/2023,4.0,Andel,1155,Oslo
Terneveien 21,3500000,170,,1958.0,Enebolig,https://www.finn.no/realestate/homes/ad.html?finnkode=301503351,20588,65.4611258,12.199014,02/05/2023,,Eier (Selveier),8904,Brønnøysund
Vestre vei 93A,28000000,209,,1903.0,Enebolig,https://www.finn.no/realestate/homes/ad.html?finnkode=301532967,133971,59.8584172,10.5150697,02/05/2023,,Eier (Selveier),1397,Nesøya
Sykehusvegen 23E,1290000,37,,1964.0,Leilighet,https://www.finn.no/realestate/homes/ad.html?finnkode=301532837,34864,59.129055,9.656286,02/05/2023,2.0,Andel,3924,Porsgrunn
Kongens gate 80,2990000,55,2.0,1912.0,Leilighet,https://www.finn.no/realestate/homes/ad.html?finnkode=301532697,54363,58.147675,8.005004,02/05/2023,1.0,Eier (Selveier),4608,Kristiansand S
Blåbæråsen 63,630000,51,,2016.0,Leilighet,https://www.finn.no/realestate/homes/ad.html?finnkode=276760658,12352,58.242723,8.344862,02/05/2023,2.0,Andel,4790,Lillesand
Østreheimsveien 2,8480000,127,4.0,1974.0,Tomannsbolig,https://www.finn.no/realestate/homes/ad.html?finnkode=300922945,66771,59.946374,10.810974,02/05/2023,,Eier (Selveier),590,Oslo
Kjærnesveien 20C,6190000,114,5.0,2022.0,Rekkehus,https://www.finn.no/realestate/homes/ad.html?finnkode=301531628,54298,59.736959,10.741934,02/05/2023,2.0,Eier (Selveier),1407,Vinterbro
Dambakken 7,4100000,270,2.0,1973.0,Enebolig,https://www.finn.no/realestate/homes/ad.html?finnkode=301531060,15185,58.9051639,9.3885953,02/05/2023,2.0,Eier (Selveier),3790,Helle
Hals' gate 10B,1700000,49,2.0,1972.0,Leilighet,https://www.finn.no/realestate/homes/ad.html?finnkode=301531025,34693,59.286836,11.114852,02/05/2023,1.0,Andel,1707,Sarpsborg
Stemlandveien 16,4250000,273,9.0,2007.0,Enebolig,https://www.finn.no/realestate/homes/ad.html?finnkode=300350891,15567,67.2867879,15.1315905,02/05/2023,,Eier (Selveier),8215,Valnesfjord
Grenlandsgata 3,4500000,288,,1953.0,Enebolig,https://www.finn.no/realestate/homes/ad.html?finnkode=301530600,15625,59.140055,9.66332,02/05/2023,,Eier (Selveier),3912,Porsgrunn
Lindal 17 B,2950000,117,,1976.0,Enebolig,https://www.finn.no/realestate/homes/ad.html?finnkode=300853457,25213,59.2669639,11.1662624,02/05/2023,,Andel,1739,Borgenhaugen
Snølia 5,4180000,56,3.0,2021.0,Leilighet,https://www.finn.no/realestate/homes/ad.html?finnkode=292499878,74642,59.946703,10.952525,02/05/2023,4.0,Eier (Selveier),1470,Lørenskog
Gjerlovs veg 1,9390000,240,,1988.0,Enebolig,https://www.finn.no/realestate/homes/ad.html?finnkode=300976832,39125,63.3541226,10.3783131,02/05/2023,,Eier (Selveier),7092,Tiller
Kvamsveien 49,1250000,227,,1958.0,Tomannsbolig,https://www.finn.no/realestate/homes/ad.html?finnkode=273864498,5506,63.0474071,9.707828,02/05/2023,,Eier (Selveier),7336,Meldal
Johan Paulsens vei 10,2000000,68,,1968.0,Leilighet,https://www.finn.no/realestate/homes/ad.html?finnkode=301529588,29411,59.266625,11.140043,02/05/2023,2.0,Andel,1738,Borgenhaugen
Michael Krohns gate 71,7980000,94,,2011.0,Leilighet,https://www.finn.no/realestate/homes/ad.html?finnkode=301529645,84893,60.380892,5.319954,02/05/2023,,Eier (Selveier),5057,Bergen
Eckersbergs gate 53A,15290000,115,4.0,1914.0,Leilighet,https://www.finn.no/realestate/homes/ad.html?finnkode=297498815,132956,59.921757,10.71061,02/05/2023,5.0,Eier (Selveier),256,Oslo
Kvistveien 16A,6690000,134,,2022.0,Tomannsbolig,https://www.finn.no/realestate/homes/ad.html?finnkode=280364126,49925,59.291103,10.470517,02/05/2023,,Eier (Selveier),3114,Tønsberg
Vestveien 55,7200000,94,3.0,2020.0,Leilighet,https://www.finn.no/realestate/homes/ad.html?finnkode=276843919,76595,59.855484,10.660969,02/05/2023,5.0,Andel,1452,Nesoddtangen
Skolsegglia 24,3700000,53,2.0,2005.0,Leilighet,https://www.finn.no/realestate/homes/ad.html?finnkode=276997713,69811,60.0020314,11.0196887,02/05/2023,4.0,Eier (Selveier),2019,Skedsmokorset
Tolsrødveien 29,3200000,218,,1985.0,Enebolig,https://www.finn.no/realestate/homes/ad.html?finnkode=300600357,14678,59.299991,10.084083,02/05/2023,,Eier (Selveier),3158,Andebu
Lauvåsveien 20,2990000,156,,2016.0,Enebolig,https://www.finn.no/realestate/homes/ad.html?finnkode=297669338,19166,64.299015,10.523818,02/05/2023,,Eier (Selveier),7740,Steinsdalen
Østbyveien 2D,3380000,85,,2002.0,Leilighet,https://www.finn.no/realestate/homes/ad.html?finnkode=294969002,39764,59.0535181,10.1222521,02/05/2023,2.0,Eier (Selveier),3280,Tjodalyng
Østhusvegen 83,2290000,225,7.0,1954.0,Enebolig,https://www.finn.no/realestate/homes/ad.html?finnkode=301487124,10177,59.2972547,5.2249257,02/05/2023,,Eier (Selveier),4276,Veavågen
Sandviksveien 92,2050000,38,2.0,2006.0,Leilighet,https://www.finn.no/realestate/homes/ad.html?finnkode=298833136,53947,60.4140149,5.3209887,02/05/2023,1.0,Andel,5035,Bergen
DØNNUMSKIA 172,2900000,274,,1953.0,Enebolig,https://www.finn.no/realestate/homes/ad.html?finnkode=299396197,10583,60.3123185,11.2142273,02/05/2023,,Eier (Selveier),2080,Eidsvoll
Kjellestadbakken 27,2700000,159,5.0,1959.0,Enebolig,https://www.finn.no/realestate/homes/ad.html?finnkode=300869325,16981,59.039312,9.7018079,02/05/2023,3.0,Eier (Selveier),3960,Stathelle
Lågerødåsen 20C,3450000,82,,2016.0,Leilighet,https://www.finn.no/realestate/homes/ad.html?finnkode=301526595,42073,59.2357917,10.3092528,02/05/2023,2.0,Eier (Selveier),3160,Stokke
Wessels gate 8,5950000,82,,1914.0,Leilighet,https://www.finn.no/realestate/homes/ad.html?finnkode=301526459,72560,60.3849953,5.3214341,02/05/2023,2.0,Andel,5006,Bergen
Store Skippergate 35A,3490000,68,,1949.0,Leilighet,https://www.finn.no/realestate/homes/ad.html?finnkode=300757660,51323,58.9685652,5.740502,02/05/2023,2.0,Eier (Selveier),4013,Stavanger
Lauritz Hervigs vei 51B,1990000,69,3.0,1973.0,Leilighet,https://www.finn.no/realestate/homes/ad.html?finnkode=301515698,28840,59.718449,10.2265864,02/05/2023,6.0,Andel,3035,Drammen
Paul Fjermstads veg 25,4390000,76,,1947.0,Leilighet,https://www.finn.no/realestate/homes/ad.html?finnkode=300859823,57763,63.4212789,10.4246804,02/05/2023,,Eier (Selveier),7052,Trondheim
Nygata 14,2790000,102,,1827.0,Enebolig,https://www.finn.no/realestate/homes/ad.html?finnkode=253166549,27352,59.0518874,9.7063696,02/05/2023,,Eier (Selveier),3950,Brevik
Seljeveien 7D,5460000,114,5.0,1961.0,Rekkehus,https://www.finn.no/realestate/homes/ad.html?finnkode=260041099,47894,59.8526877,10.658165,02/05/2023,3.0,Eier (Selveier),1452,Nesoddtangen
Nordahl Griegs gate 9 Mo i,900000,34,2.0,1959.0,Leilighet,https://www.finn.no/realestate/homes/ad.html?finnkode=299794281,26470,66.3102325,14.1385887,02/05/2023,2.0,Andel,8622,Rana
Billingstadlia 6,4300000,55,2.0,2005.0,Leilighet,https://www.finn.no/realestate/homes/ad.html?finnkode=301223483,78181,59.8752119,10.4890555,02/05/2023,2.0,Eier (Selveier),1396,Billingstad
Bonesvegen 2,3750000,59,3.0,2022.0,Leilighet,https://www.finn.no/realestate/homes/ad.html?finnkode=301524420,63559,63.416931,10.476476,02/05/2023,3.0,Eier (Selveier),7047,Trondheim
Wergelands gate 1A,2500000,69,3.0,1952.0,Leilighet,https://www.finn.no/realestate/homes/ad.html?finnkode=300854993,36231,60.7993941,10.69046,02/05/2023,1.0,Andel,2821,Gjøvik
Bruneset 24A,5720000,167,6.0,2011.0,Tomannsbolig,https://www.finn.no/realestate/homes/ad.html?finnkode=301501996,34251,58.7694134,5.8517873,02/05/2023,,Eier (Selveier),4330,Ålgård
Bokfinken 5,2200000,218,4.0,1985.0,Enebolig,https://www.finn.no/realestate/homes/ad.html?finnkode=300929757,10091,60.5780706,9.115872,02/05/2023,1.0,Eier (Selveier),3540,Nesbyen
Enoks vei 30,3750000,55,2.0,1971.0,Leilighet,https://www.finn.no/realestate/homes/ad.html?finnkode=301522933,68181,59.896597,10.788009,02/05/2023,2.0,Andel,1181,Oslo
Dovresvingen 1,25500000,422,,1896.0,Enebolig,https://www.finn.no/realestate/homes/ad.html?finnkode=279867858,60426,59.885442,10.791931,02/05/2023,,Eier (Selveier),1184,Oslo
Bankvegen 4,2500000,221,7.0,1961.0,Enebolig,https://www.finn.no/realestate/homes/ad.html?finnkode=299783831,11312,62.9079781,6.9129364,02/05/2023,,Eier (Selveier),6430,Bud
Heiamyro 11,2900000,74,3.0,2014.0,Leilighet,https://www.finn.no/realestate/homes/ad.html?finnkode=300863867,39189,59.863415,5.754792,02/05/2023,4.0,Eier (Selveier),5460,Husnes
Røyrmyr 47,2750000,118,5.0,2015.0,Tomannsbolig,https://www.finn.no/realestate/homes/ad.html?finnkode=301501571,23305,58.5059963,8.6156497,02/05/2023,2.0,Eier (Selveier),4820,Froland
Vollabakken 5B,3100000,50,2.0,1955.0,Leilighet,https://www.finn.no/realestate/homes/ad.html?finnkode=301486599,62000,63.423468,10.4013085,02/05/2023,2.0,Andel,7030,Trondheim
Niels Juels gate 10,6500000,57,2.0,1893.0,Leilighet,https://www.finn.no/realestate/homes/ad.html?finnkode=301291101,114035,59.912396,10.709957,02/05/2023,1.0,Eier (Selveier),272,Oslo
Elvegata 28,4900000,125,5.0,1928.0,Tomannsbolig,https://www.finn.no/realestate/homes/ad.html?finnkode=296510334,39200,58.1505306,7.9999987,02/05/2023,2.0,Eier (Selveier),4614,Kristiansand S
Stertebakke 7B,2250000,63,2.0,1979.0,Leilighet,https://www.finn.no/realestate/homes/ad.html?finnkode=301379871,35714,59.6663169,9.6698524,02/05/2023,1.0,Andel,3612,Kongsberg
Strømsveien 81,3190000,61,3.0,1920.0,Leilighet,https://www.finn.no/realestate/homes/ad.html?finnkode=301512371,52295,59.9507795,11.0114843,02/05/2023,3.0,Eier (Selveier),2010,Strømmen
Haugsbakken 8,2900000,1540,7.0,1970.0,Enebolig,https://www.finn.no/realestate/homes/ad.html?finnkode=301520910,1883,60.3900534,10.5679757,02/05/2023,2.0,Eier (Selveier),2770,Jaren
Solbergveien 45,5500000,128,,2010.0,Enebolig,https://www.finn.no/realestate/homes/ad.html?finnkode=301519960,42968,59.7697323,10.0768126,02/05/2023,,Eier (Selveier),3057,Solbergelva
Vinterbro terrasse 13 A,6900000,135,6.0,2020.0,Tomannsbolig,https://www.finn.no/realestate/homes/ad.html?finnkode=297524073,51111,59.73524,10.763934,02/05/2023,,Eier (Selveier),1407,Vinterbro
Åsterudveien 12,12600000,290,,1985.0,Enebolig,https://www.finn.no/realestate/homes/ad.html?finnkode=292192621,43448,59.923663,10.559086,02/05/2023,,Eier (Selveier),1344,Haslum
Elmholt allé 14,8990000,94,3.0,1995.0,Leilighet,https://www.finn.no/realestate/homes/ad.html?finnkode=301515790,95638,59.923217,10.66891,02/05/2023,2.0,Eier (Selveier),275,Oslo
Elgtråkket 146B,4350000,101,4.0,2007.0,Enebolig,https://www.finn.no/realestate/homes/ad.html?finnkode=301230816,43069,60.0331855,11.1276767,02/05/2023,,Eier (Selveier),2016,Frogner
Workinntoppen 7,6900000,77,3.0,2020.0,Leilighet,https://www.finn.no/realestate/homes/ad.html?finnkode=269736006,89610,69.66483,18.933308,02/05/2023,4.0,Eier (Selveier),9016,Tromsø
Sannervegen 20,3490000,240,,1970.0,Enebolig,https://www.finn.no/realestate/homes/ad.html?finnkode=301519910,14541,60.7240457,11.1928796,02/05/2023,,Eier (Selveier),2335,Stange
Rundtomsvingen 15,3890000,144,4.0,1864.0,Enebolig,https://www.finn.no/realestate/homes/ad.html?finnkode=300908057,27013,59.729219,10.225415,02/05/2023,2.0,Eier (Selveier),3041,Drammen
Torskroken 11,3550000,76,3.0,2004.0,Leilighet,https://www.finn.no/realestate/homes/ad.html?finnkode=300458014,46710,59.8233108,10.1991432,02/05/2023,2.0,Eier (Selveier),3404,Lier
Tøyengata 22,4400000,51,3.0,1890.0,Leilighet,https://www.finn.no/realestate/homes/ad.html?finnkode=301508639,86274,59.913816,10.766461,02/05/2023,2.0,Eier (Selveier),190,Oslo
Laberget 65A,2890000,57,2.0,2006.0,Leilighet,https://www.finn.no/realestate/homes/ad.html?finnkode=301519095,50701,58.916026,5.736665,02/05/2023,1.0,Eier (Selveier),4020,Stavanger
Austrheimsvegen 81,1190000,120,6.0,,Enebolig,https://www.finn.no/realestate/homes/ad.html?finnkode=258952951,9916,59.300467,4.903944,02/05/2023,3.0,Eier (Selveier),5547,Utsira
Osternesvegen 117,1200000,179,4.0,1973.0,Enebolig,https://www.finn.no/realestate/homes/ad.html?finnkode=300719251,6703,59.960891,5.325285,02/05/2023,,Eier (Selveier),5419,Fitjar
Kirkeveien 15,15000000,215,,1935.0,Tomter,https://www.finn.no/realestate/homes/ad.html?finnkode=301518362,69767,59.6683633,10.7727137,02/05/2023,,Eier (Selveier),1433,Ås
Ådlandslio 78,2400000,96,4.0,1975.0,Rekkehus,https://www.finn.no/realestate/homes/ad.html?finnkode=301518236,25000,59.793618,5.5068347,02/05/2023,2.0,Andel,5416,Stord
Brundalen 17B,3450000,90,4.0,2013.0,Leilighet,https://www.finn.no/realestate/homes/ad.html?finnkode=301518220,38333,63.4197474,10.4824411,02/05/2023,4.0,Eier (Selveier),7058,Jakobsli
Hovseterveien 66A,5950000,90,4.0,1975.0,Leilighet,https://www.finn.no/realestate/homes/ad.html?finnkode=301518140,66111,59.949996,10.652709,02/05/2023,4.0,Andel,768,Oslo
Lørenveien 63B,5500000,54,3.0,2019.0,Leilighet,https://www.finn.no/realestate/homes/ad.html?finnkode=300589717,101851,59.928665,10.798149,02/05/2023,5.0,Eier (Selveier),585,Oslo
Tjernslia 63,11490000,258,,1991.0,Enebolig,https://www.finn.no/realestate/homes/ad.html?finnkode=280377887,44534,59.9777771,10.9414712,02/05/2023,3.0,Eier (Selveier),1481,Hagan
Nordsundveien 15,3250000,188,6.0,1981.0,Enebolig,https://www.finn.no/realestate/homes/ad.html?finnkode=294224425,17287,63.1140323,7.7521343,02/05/2023,,Eier (Selveier),6516,Kristiansund N
Bråvann platå 23,1790000,85,,2005.0,Tomannsbolig,https://www.finn.no/realestate/homes/ad.html?finnkode=301517659,21058,58.1154922,7.9341527,02/05/2023,,Andel,4624,Kristiansand S
Korsegårdveien 67,2460000,67,,1959.0,Tomannsbolig,https://www.finn.no/realestate/homes/ad.html?finnkode=289093257,36716,59.5897782,11.1931884,02/05/2023,,Eier (Selveier),1812,Askim
Ulstadløkkveien 16,2690000,48,2.0,1918.0,Leilighet,https://www.finn.no/realestate/homes/ad.html?finnkode=299649636,56041,63.4380161,10.4261821,02/05/2023,2.0,Andel,7067,Trondheim
Elsters gate 1,2800000,46,3.0,1928.0,Leilighet,https://www.finn.no/realestate/homes/ad.html?finnkode=301516846,60869,60.3736928,5.3434018,02/05/2023,2.0,Andel,5059,Bergen
Nordslettvegen 75,2150000,34,1.0,1980.0,Leilighet,https://www.finn.no/realestate/homes/ad.html?finnkode=301341585,63235,63.386144,10.400198,02/05/2023,1.0,Eier (Selveier),7038,Trondheim
Einerskaret 22,4260000,266,,1975.0,Enebolig,https://www.finn.no/realestate/homes/ad.html?finnkode=290814191,16015,63.0910719,7.8106967,02/05/2023,2.0,Eier (Selveier),6521,Frei
Sandgata 28,3100000,37,1.0,2008.0,Leilighet,https://www.finn.no/realestate/homes/ad.html?finnkode=298643155,83783,63.4318513,10.3857869,02/05/2023,4.0,Eier (Selveier),7012,Trondheim
Lyngvollveien 6,7250000,103,3.0,1968.0,Enebolig,https://www.finn.no/realestate/homes/ad.html?finnkode=301234316,70388,58.9372153,5.7258652,02/05/2023,1.0,Eier (Selveier),4017,Stavanger
Hylliveien 25,2350000,79,,1990.0,Leilighet,https://www.finn.no/realestate/homes/ad.html?finnkode=300862705,29746,59.6176676,11.0762405,02/05/2023,,Andel,1820,Spydeberg
Moltestien 6,2200000,189,,,Enebolig,https://www.finn.no/realestate/homes/ad.html?finnkode=300852312,11640,60.6610269,10.6759932,02/05/2023,2.0,Eier (Selveier),2846,Bøverbru
Ullernveien 83,8200000,123,5.0,1961.0,Rekkehus,https://www.finn.no/realestate/homes/ad.html?finnkode=301516017,66666,59.927809,10.656598,02/05/2023,,Eier (Selveier),280,Oslo
Øyenveien 10,3750000,128,,2005.0,Enebolig,https://www.finn.no/realestate/homes/ad.html?finnkode=301499381,29296,59.6630159,10.9955668,02/05/2023,,Andel,1825,Tomter
Strandvegen 104B,3230000,80,3.0,2003.0,Leilighet,https://www.finn.no/realestate/homes/ad.html?finnkode=292382952,40375,69.6361354,18.9342131,02/05/2023,3.0,Andel,9006,Tromsø
Kvernstua 3,3380000,50,2.0,2020.0,Leilighet,https://www.finn.no/realestate/homes/ad.html?finnkode=300852332,67600,60.045845,10.873869,02/05/2023,3.0,Eier (Selveier),1482,Nittedal
Gulleråsveien 30C,10800000,110,,1984.0,Leilighet,https://www.finn.no/realestate/homes/ad.html?finnkode=301515177,98181,59.959469,10.696721,02/05/2023,,Eier (Selveier),779,Oslo
Kønndokkvegen 3,1890000,129,,1974.0,Enebolig,https://www.finn.no/realestate/homes/ad.html?finnkode=282172812,14651,59.4216201,9.1349461,02/05/2023,2.0,Eier (Selveier),3811,Hørte
Stålveien 2,6990000,268,,1993.0,Enebolig,https://www.finn.no/realestate/homes/ad.html?finnkode=301034242,26082,59.2460531,10.4675425,02/05/2023,,Eier (Selveier),3124,Tønsberg
Frederik Stangs gate 43,12390000,108,,1930.0,Leilighet,https://www.finn.no/realestate/homes/ad.html?finnkode=299241418,114722,59.918605,10.709195,02/05/2023,3.0,Eier (Selveier),264,Oslo
Hålandsdalen 59,1790000,182,4.0,1959.0,Enebolig,https://www.finn.no/realestate/homes/ad.html?finnkode=301487128,9835,59.1485349,5.2421246,02/05/2023,,Eier (Selveier),4280,Skudeneshavn
Tørrhaugveien 45,4490000,248,5.0,1989.0,Enebolig,https://www.finn.no/realestate/homes/ad.html?finnkode=300432173,18104,59.9932565,10.0248041,02/05/2023,2.0,Eier (Selveier),3370,Vikersund
Tunvegen 4A,5690000,140,,2001.0,Tomannsbolig,https://www.finn.no/realestate/homes/ad.html?finnkode=300582391,40642,59.9338277,11.0668544,02/05/2023,,Eier (Selveier),2008,Fjerdingby
Rådyrfaret 4,1600000,72,2.0,1965.0,Leilighet,https://www.finn.no/realestate/homes/ad.html?finnkode=301514005,22222,59.126977,11.3677796,02/05/2023,3.0,Andel,1781,Halden
Vestsideveien 665,4200000,228,6.0,1974.0,Enebolig,https://www.finn.no/realestate/homes/ad.html?finnkode=299798461,18421,60.145245,9.721199,02/05/2023,2.0,Eier (Selveier),3535,Krøderen
Kristian Bakkens veg 15C,2200000,91,3.0,1973.0,Leilighet,https://www.finn.no/realestate/homes/ad.html?finnkode=301513577,24175,60.8039748,11.0389318,02/05/2023,4.0,Andel,2316,Hamar
Feltspatveien 8,5450000,165,5.0,2001.0,Enebolig,https://www.finn.no/realestate/homes/ad.html?finnkode=294330643,33030,60.1133713,10.8642621,02/05/2023,2.0,Andel,1487,Hakadal
Stathelleveien 9,3690000,213,,1952.0,Enebolig,https://www.finn.no/realestate/homes/ad.html?finnkode=296509756,17323,59.0091871,9.7441819,02/05/2023,,Eier (Selveier),3970,Langesund
Stokkbekken 165,2290000,28,2.0,2016.0,Leilighet,https://www.finn.no/realestate/homes/ad.html?finnkode=300932859,81785,63.414653,10.481998,02/05/2023,4.0,Eier (Selveier),7048,Trondheim
Ødenesveien 4,2490000,192,4.0,1959.0,Enebolig,https://www.finn.no/realestate/homes/ad.html?finnkode=300868921,12968,59.9833322,9.8927572,02/05/2023,2.0,Eier (Selveier),3370,Vikersund
Karisvingen 41,4790000,70,3.0,2017.0,Leilighet,https://www.finn.no/realestate/homes/ad.html?finnkode=301513193,68428,69.654986,18.927898,02/05/2023,1.0,Eier (Selveier),9012,Tromsø
Vårstien 25,2900000,130,,1965.0,Enebolig,https://www.finn.no/realestate/homes/ad.html?finnkode=301512920,22307,59.1139998,11.4205715,02/05/2023,,Eier (Selveier),1793,Tistedal
Fursetvegen 7,2100000,219,,1955.0,Enebolig,https://www.finn.no/realestate/homes/ad.html?finnkode=301512198,9589,62.2943243,6.9021423,02/05/2023,,Eier (Selveier),6200,Stranda
Parkveien 88,3950000,86,3.0,2001.0,Leilighet,https://www.finn.no/realestate/homes/ad.html?finnkode=300862397,45930,67.2817049,14.3957558,02/05/2023,4.0,Andel,8005,Bodø
Thorleif Haugs vei 3,15900000,150,,2003.0,Leilighet,https://www.finn.no/realestate/homes/ad.html?finnkode=301510340,106000,59.9706,10.670434,02/05/2023,,Eier (Selveier),791,Oslo
Ålgårdsveien 10,3990000,212,4.0,1967.0,Enebolig,https://www.finn.no/realestate/homes/ad.html?finnkode=301509470,18820,58.771423,5.85004,02/05/2023,,Eier (Selveier),4331,Ålgård
Strømdal terrasse 62,4790000,323,6.0,1960.0,Enebolig,https://www.finn.no/realestate/homes/ad.html?finnkode=301472067,14829,59.2089492,9.5780563,02/05/2023,2.0,Eier (Selveier),3718,Skien
Skøyenåsveien 24,3400000,53,2.0,1955.0,Leilighet,https://www.finn.no/realestate/homes/ad.html?finnkode=301509377,64150,59.897323,10.841609,02/05/2023,3.0,Andel,686,Oslo
Kristiansands gate 11C,5200000,55,3.0,1955.0,Leilighet,https://www.finn.no/realestate/homes/ad.html?finnkode=301032759,94545,59.938797,10.754213,02/05/2023,1.0,Eier (Selveier),463,Oslo
Claude Monets alle 21,6650000,91,,1997.0,Leilighet,https://www.finn.no/realestate/homes/ad.html?finnkode=297772555,73076,59.889432,10.522319,02/05/2023,4.0,Eier (Selveier),1338,Sandvika
Bekkjarvikveien 80,6750000,244,,1954.0,Enebolig,https://www.finn.no/realestate/homes/ad.html?finnkode=301507973,27663,60.4609006,5.2774197,02/05/2023,,Eier (Selveier),5114,Tertnes
Emil Korsmos vei 10,4500000,66,3.0,1958.0,Leilighet,https://www.finn.no/realestate/homes/ad.html?finnkode=301503204,68181,59.89798,10.80841,02/05/2023,2.0,Andel,678,Oslo
Arteidveien 34,3990000,171,5.0,1962.0,Enebolig,https://www.finn.no/realestate/homes/ad.html?finnkode=300785960,23333,60.048874,11.140642,02/05/2023,,Eier (Selveier),2040,Kløfta
Hovslagervegen 17A,4600000,105,3.0,1972.0,Leilighet,https://www.finn.no/realestate/homes/ad.html?finnkode=300993261,43809,61.1320028,10.454383,02/05/2023,2.0,Andel,2619,Lillehammer
Store Landfall øvre 9,3690000,80,3.0,1935.0,Tomannsbolig,https://www.finn.no/realestate/homes/ad.html?finnkode=293953277,46125,59.7536333,10.1513963,02/05/2023,2.0,Eier (Selveier),3025,Drammen
Olsvikstallen 21,2990000,111,,1982.0,Leilighet,https://www.finn.no/realestate/homes/ad.html?finnkode=297489767,26936,60.3862349,5.2172742,02/05/2023,4.0,Andel,5184,Olsvik
Sofienberggata 11 A,5700000,59,,1898.0,Leilighet,https://www.finn.no/realestate/homes/ad.html?finnkode=301506447,96610,59.922078,10.760251,02/05/2023,4.0,Eier (Selveier),551,Oslo
Bogstadveien 72a,7700000,77,3.0,1986.0,Leilighet,https://www.finn.no/realestate/homes/ad.html?finnkode=301506292,100000,59.929056,10.714278,02/05/2023,3.0,Eier (Selveier),366,Oslo
Fagerheimgaten 30,3950000,99,4.0,1850.0,Leilighet,https://www.finn.no/realestate/homes/ad.html?finnkode=286648121,39898,59.2641266,10.3979191,02/05/2023,2.0,Eier (Selveier),3115,Tønsberg
Granittveien 3E,1890000,61,2.0,1973.0,Leilighet,https://www.finn.no/realestate/homes/ad.html?finnkode=300887802,30983,59.64513,9.637925,02/05/2023,3.0,Andel,3615,Kongsberg
Moksheimtunet 27,4190000,149,5.0,2015.0,Enebolig,https://www.finn.no/realestate/homes/ad.html?finnkode=279490053,28120,59.3624389,5.3127026,02/05/2023,,Eier (Selveier),5545,Vormedal
Presteveien 6D,7950000,111,4.0,2018.0,Leilighet,https://www.finn.no/realestate/homes/ad.html?finnkode=290072907,71621,59.908939,10.558724,02/05/2023,2.0,Eier (Selveier),1344,Haslum
Ullerudfaret 33,5500000,111,4.0,1990.0,Rekkehus,https://www.finn.no/realestate/homes/ad.html?finnkode=301275438,49549,59.6660599,10.6526415,02/05/2023,2.0,Eier (Selveier),1447,Drøbak
Sørhallet 21,5900000,333,5.0,1987.0,Enebolig,https://www.finn.no/realestate/homes/ad.html?finnkode=300776707,17717,59.4319751,5.2861047,02/05/2023,,Eier (Selveier),5518,Haugesund
Åsmarkvegen,1800000,257,,1938.0,Enebolig,https://www.finn.no/realestate/homes/ad.html?finnkode=301505052,7003,60.9888191,10.7927405,02/05/2023,2.0,Eier (Selveier),1032,Næroset
Øvre Tverrgate 6,2690000,43,2.0,1946.0,Leilighet,https://www.finn.no/realestate/homes/ad.html?finnkode=301504425,62558,59.748537,10.011157,02/05/2023,2.0,Eier (Selveier),3050,Mjøndalen
Høyvegen 22,4690000,91,3.0,2013.0,Leilighet,https://www.finn.no/realestate/homes/ad.html?finnkode=300865830,51538,63.3501979,10.3280298,02/05/2023,,Eier (Selveier),7089,Heimdal
Nordbygdavegen 359,4990000,197,,1915.0,Gårdsbruk/Småbruk,https://www.finn.no/realestate/homes/ad.html?finnkode=301503804,25329,59.3275305,9.0890771,02/05/2023,2.0,Eier (Selveier),3825,Lunde
Vestre Karmøyveg 319A,3490000,82,6.0,2018.0,Leilighet,https://www.finn.no/realestate/homes/ad.html?finnkode=299430596,42560,59.256722,5.193203,02/05/2023,3.0,Eier (Selveier),4270,Åkrehamn
Pareliusveien 19C,14500000,193,,,Tomannsbolig,https://www.finn.no/realestate/homes/ad.html?finnkode=297676486,75129,59.878434,10.781548,02/05/2023,,Eier (Selveier),1177,Oslo
Fjordgata 12,1750000,96,,2018.0,Leilighet,https://www.finn.no/realestate/homes/ad.html?finnkode=273123895,18229,68.7983434,16.5434096,02/05/2023,3.0,Andel,9405,Harstad
Jongsstubben 17,5290000,91,4.0,1963.0,Leilighet,https://www.finn.no/realestate/homes/ad.html?finnkode=301412368,58131,59.889126,10.512843,02/05/2023,1.0,Eier (Selveier),1337,Sandvika
Opalveien 19D,3200000,122,4.0,2002.0,Rekkehus,https://www.finn.no/realestate/homes/ad.html?finnkode=301501339,26229,59.1452491,11.3953066,02/05/2023,,Andel,1784,Halden
Haganjordet 8,5250000,89,,2008.0,Leilighet,https://www.finn.no/realestate/homes/ad.html?finnkode=301501288,58988,59.912391,10.4917739,02/05/2023,3.0,Eier (Selveier),1351,Rud
Myklabergbakken 40,1800000,117,4.0,2011.0,Leilighet,https://www.finn.no/realestate/homes/ad.html?finnkode=301499921,15384,58.9055104,5.6678236,02/05/2023,3.0,Andel,4052,Røyneberg
Munkerudveien 28F,14200000,182,6.0,2019.0,Enebolig,https://www.finn.no/realestate/homes/ad.html?finnkode=276878708,78021,59.86131,10.806855,02/05/2023,,Eier (Selveier),1163,Oslo
Øvre Rømmesbakkan 21D,4690000,115,5.0,2022.0,Tomannsbolig,https://www.finn.no/realestate/homes/ad.html?finnkode=289263351,40782,63.29954,9.854548,02/05/2023,2.0,Eier (Selveier),7300,Orkanger
Kornenga 17,3900000,121,,2004.0,Rekkehus,https://www.finn.no/realestate/homes/ad.html?finnkode=299270824,32231,59.225766,10.993124,02/05/2023,2.0,Eier (Selveier),1651,Sellebakk
C. A. Torstensens vei 52A,14000000,266,,1941.0,Enebolig,https://www.finn.no/realestate/homes/ad.html?finnkode=301499863,52631,59.936255,10.676868,02/05/2023,,Eier (Selveier),379,Oslo
Aspelund 15,5700000,99,,2012.0,Leilighet,https://www.finn.no/realestate/homes/ad.html?finnkode=301499790,57575,59.7459196,10.3338874,02/05/2023,3.0,Eier (Selveier),3430,Spikkestad
Fjellveien 11,10700000,218,3.0,1963.0,Enebolig,https://www.finn.no/realestate/homes/ad.html?finnkode=285139451,49082,67.2941256,14.4166858,02/05/2023,2.0,Eier (Selveier),8012,Bodø
Otto Valstads vei 59,3430000,45,,1976.0,Leilighet,https://www.finn.no/realestate/homes/ad.html?finnkode=301499560,76222,59.8513595,10.4511626,02/05/2023,2.0,Eier (Selveier),1395,Hvalstad
Kubbedalen 29A,3190000,84,3.0,2012.0,Leilighet,https://www.finn.no/realestate/homes/ad.html?finnkode=287915889,37976,60.355552,5.1400915,02/05/2023,1.0,Eier (Selveier),5350,Brattholmen
Mellomila 72,3090000,63,2.0,2002.0,Leilighet,https://www.finn.no/realestate/homes/ad.html?finnkode=301335743,49047,63.431589,10.359228,02/05/2023,2.0,Andel,7018,Trondheim
Austmannavegen 6B,1390000,90,3.0,1967.0,Leilighet,https://www.finn.no/realestate/homes/ad.html?finnkode=212412232,15444,59.3956875,5.2997573,02/05/2023,3.0,Andel,5537,Haugesund
Ullern allé 115,7500000,117,4.0,1981.0,Leilighet,https://www.finn.no/realestate/homes/ad.html?finnkode=301498258,64102,59.92873,10.653351,02/05/2023,2.0,Eier (Selveier),381,Oslo
Gamle Kroervei 92,2790000,61,2.0,1981.0,Leilighet,https://www.finn.no/realestate/homes/ad.html?finnkode=298757170,45737,59.6605562,10.820393,02/05/2023,2.0,Andel,1435,Ås
St. Jørgens gate 6,3590000,48,3.0,1933.0,Leilighet,https://www.finn.no/realestate/homes/ad.html?finnkode=300886322,74791,60.392151,5.3347918,02/05/2023,4.0,Eier (Selveier),5018,Bergen
Løvaasveien 4,3650000,90,5.0,1955.0,Tomannsbolig,https://www.finn.no/realestate/homes/ad.html?finnkode=290825564,40555,63.3377373,10.3649977,02/05/2023,2.0,Eier (Selveier),7093,Tiller
Lervikveien 101,7500000,195,,1970.0,Enebolig,https://www.finn.no/realestate/homes/ad.html?finnkode=301496052,38461,59.2696364,10.7490883,02/05/2023,,Eier (Selveier),1626,Manstad
Lørenveien 57,8000000,87,4.0,2018.0,Leilighet,https://www.finn.no/realestate/homes/ad.html?finnkode=301302173,91954,59.92916,10.796742,02/05/2023,4.0,Eier (Selveier),585,Oslo
Nygata 3,2950000,96,5.0,1874.0,Enebolig,https://www.finn.no/realestate/homes/ad.html?finnkode=300757715,30729,63.3120421,9.8559162,02/05/2023,2.0,Eier (Selveier),7300,Orkanger
Risasjøvegen 305,5400000,208,,1979.0,Gårdsbruk/Småbruk,https://www.finn.no/realestate/homes/ad.html?finnkode=301495421,25961,60.7613038,5.0637473,02/05/2023,2.0,Eier (Selveier),5955,Lindås
Hestehoven 23D,4940000,80,,2022.0,Leilighet,https://www.finn.no/realestate/homes/ad.html?finnkode=265867256,61750,59.608725,10.447742,02/05/2023,2.0,Eier (Selveier),3490,Klokkarstua
Herregårdsveien 79A,7800000,90,3.0,1984.0,Leilighet,https://www.finn.no/realestate/homes/ad.html?finnkode=301495243,86666,59.842405,10.777177,02/05/2023,1.0,Andel,1168,Oslo
Eilert Sundts gate 40,3690000,30,,1963.0,Leilighet,https://www.finn.no/realestate/homes/ad.html?finnkode=301494963,123000,59.923281,10.72051,02/05/2023,6.0,Eier (Selveier),355,Oslo
Moaveien 11A,1980000,57,,1963.0,Leilighet,https://www.finn.no/realestate/homes/ad.html?finnkode=298028022,34736,59.2223692,10.2840413,02/05/2023,1.0,Andel,3160,Stokke
Arnebråtveien 59,4950000,60,3.0,1954.0,Leilighet,https://www.finn.no/realestate/homes/ad.html?finnkode=300847069,82500,59.950612,10.66873,02/05/2023,2.0,Eier (Selveier),771,Oslo
Rostockgata 70,10590000,85,4.0,2023.0,Leilighet,https://www.finn.no/realestate/homes/ad.html?finnkode=300889408,124588,59.905794,10.760411,02/05/2023,3.0,Eier (Selveier),194,Oslo
Apeltunvegen 2F,13500000,143,4.0,2022.0,Leilighet,https://www.finn.no/realestate/homes/ad.html?finnkode=301494078,94405,60.311555,5.355364,02/05/2023,7.0,Eier (Selveier),5222,Nesttun
Apeltunvegen 2F,4560000,65,3.0,2022.0,Leilighet,https://www.finn.no/realestate/homes/ad.html?finnkode=301493986,70153,60.311555,5.355364,02/05/2023,4.0,Eier (Selveier),5222,Nesttun
Jutulveien 11A,1600000,36,1.0,1964.0,Leilighet,https://www.finn.no/realestate/homes/ad.html?finnkode=299657851,44444,59.2963213,11.107117,02/05/2023,2.0,Andel,1709,Sarpsborg
Meieriveien 10,2990000,74,3.0,2002.0,Leilighet,https://www.finn.no/realestate/homes/ad.html?finnkode=301493609,40405,59.5528761,11.3281419,02/05/2023,4.0,Eier (Selveier),1850,Mysen
Bjørnefaret 24A/B,5850000,211,7.0,1986.0,Enebolig,https://www.finn.no/realestate/homes/ad.html?finnkode=300584469,27725,59.2681043,11.1772486,02/05/2023,2.0,Eier (Selveier),1739,Borgenhaugen
Jerikoveien 1,2990000,46,2.0,1977.0,Leilighet,https://www.finn.no/realestate/homes/ad.html?finnkode=301428642,65000,59.932769,10.881372,02/05/2023,4.0,Andel,1067,Oslo
Breivikvegen 1A,4990000,87,3.0,2019.0,Leilighet,https://www.finn.no/realestate/homes/ad.html?finnkode=301492422,57356,62.465483,6.3459,02/05/2023,4.0,Eier (Selveier),6018,Ålesund
Åsstubben 66,10690000,107,4.0,1984.0,Leilighet,https://www.finn.no/realestate/homes/ad.html?finnkode=277364234,99906,59.931098,10.653576,02/05/2023,2.0,Eier (Selveier),381,Oslo
Kirkeveien 71,10950000,137,5.0,1915.0,Leilighet,https://www.finn.no/realestate/homes/ad.html?finnkode=299425940,79927,59.930582,10.720327,02/05/2023,4.0,Eier (Selveier),364,Oslo
Snertingdalsvegen,950000,199,,1963.0,Enebolig,https://www.finn.no/realestate/homes/ad.html?finnkode=249245478,4773,60.907717,10.3169761,02/05/2023,2.0,Eier (Selveier),2267,Snertingdal
Bankgata 14,2690000,28,1.0,2017.0,Leilighet,https://www.finn.no/realestate/homes/ad.html?finnkode=280523645,96071,67.281618,14.389402,02/05/2023,4.0,Eier (Selveier),8005,Bodø
Rødbergveien 73,5500000,74,4.0,1971.0,Leilighet,https://www.finn.no/realestate/homes/ad.html?finnkode=301436720,74324,59.944886,10.82894,02/05/2023,2.0,Andel,591,Oslo
Ulvefaret 37,5090000,142,4.0,1982.0,Rekkehus,https://www.finn.no/realestate/homes/ad.html?finnkode=300193713,35845,59.9307345,11.0445587,02/05/2023,2.0,Andel,2014,Blystadlia
Stalsberg terrasse 14,3390000,58,2.0,1965.0,Leilighet,https://www.finn.no/realestate/homes/ad.html?finnkode=301402859,58448,59.9540534,11.0170899,02/05/2023,1.0,Andel,2010,Strømmen
Enebakkveien 20A,3250000,33,2.0,1936.0,Leilighet,https://www.finn.no/realestate/homes/ad.html?finnkode=301364336,98484,59.907024,10.782758,02/05/2023,3.0,Andel,657,Oslo
Solbakken 25 Eidsvoll,7150000,198,6.0,2022.0,Enebolig,https://www.finn.no/realestate/homes/ad.html?finnkode=301379113,36111,60.281086,11.152361,02/05/2023,3.0,Eier (Selveier),2074,Verk
Harald Sohlbergs vei 14,3190000,81,3.0,1971.0,Leilighet,https://www.finn.no/realestate/homes/ad.html?finnkode=301296212,39382,59.935408,10.923207,02/05/2023,2.0,Andel,1064,Oslo
Lokes vei 19,2690000,129,4.0,1983.0,Enebolig,https://www.finn.no/realestate/homes/ad.html?finnkode=275896627,20852,58.4776336,8.75331,02/05/2023,2.0,Eier (Selveier),4846,Arendal
Bankveien 3C,5800000,89,3.0,1960.0,Rekkehus,https://www.finn.no/realestate/homes/ad.html?finnkode=301363056,65168,59.928587,10.590678,02/05/2023,2.0,Eier (Selveier),1362,Hosle
Feldbergkroken 5,2600000,213,,1968.0,Enebolig,https://www.finn.no/realestate/homes/ad.html?finnkode=301399958,12206,60.242641,10.4158535,02/05/2023,1.0,Eier (Selveier),3520,Jevnaker
Lotheveien 3,4050000,95,3.0,1980.0,Leilighet,https://www.finn.no/realestate/homes/ad.html?finnkode=300116686,42631,60.3795117,5.3223802,02/05/2023,3.0,Andel,5057,Bergen
Stadionveien 5,2190000,42,2.0,1922.0,Leilighet,https://www.finn.no/realestate/homes/ad.html?finnkode=300837172,52142,60.384394,5.298786,02/05/2023,3.0,Eier (Selveier),5162,Laksevåg
Øvrefoss 7A,11500000,107,4.0,1898.0,Leilighet,https://www.finn.no/realestate/homes/ad.html?finnkode=301430476,107476,59.927599,10.758078,02/05/2023,3.0,Andel,555,Oslo
Sorenskriver Bulls gate 14,1350000,45,,2005.0,Leilighet,https://www.finn.no/realestate/homes/ad.html?finnkode=301465636,30000,62.4761257,6.1587029,02/05/2023,3.0,Andel,6002,Ålesund
Landåslien 70,3100000,64,4.0,1955.0,Leilighet,https://www.finn.no/realestate/homes/ad.html?finnkode=300197394,48437,60.3634573,5.3746549,02/05/2023,1.0,Eier (Selveier),5097,Bergen
Vesthavnveien 2,8990000,182,,1980.0,Enebolig,https://www.finn.no/realestate/homes/ad.html?finnkode=293487264,49395,59.887796,10.491609,02/05/2023,,Eier (Selveier),1341,Slependen
Kirkeveien 54,3990000,39,,1918.0,Leilighet,https://www.finn.no/realestate/homes/ad.html?finnkode=301463218,102307,59.928036,10.713707,02/05/2023,5.0,Eier (Selveier),368,Oslo
Grefsenveien 48A,5500000,59,3.0,1996.0,Leilighet,https://www.finn.no/realestate/homes/ad.html?finnkode=301151000,93220,59.944936,10.776648,02/05/2023,1.0,Eier (Selveier),485,Oslo
Harald Hårfagres gate 5D,7000000,60,,1925.0,Leilighet,https://www.finn.no/realestate/homes/ad.html?finnkode=301462076,116666,59.930222,10.717202,02/05/2023,4.0,Eier (Selveier),363,Oslo
Njålveien 17B,16950000,232,,1984.0,Enebolig,https://www.finn.no/realestate/homes/ad.html?finnkode=301462031,73060,59.915436,10.612451,02/05/2023,,Eier (Selveier),1368,Stabekk
Rindebakken,3150000,70,3.0,2023.0,Leilighet,https://www.finn.no/realestate/homes/ad.html?finnkode=301461315,45000,58.897364,9.32084,02/05/2023,,Eier (Selveier),3770,Kragerø
Nils Collett Vogts vei 8E,16900000,222,7.0,1976.0,Enebolig,https://www.finn.no/realestate/homes/ad.html?finnkode=270136595,76126,59.960858,10.650976,02/05/2023,,Eier (Selveier),766,Oslo
Engeveien 14,4600000,100,3.0,1929.0,Leilighet,https://www.finn.no/realestate/homes/ad.html?finnkode=287399981,46000,60.3680675,5.3654313,02/05/2023,,Eier (Selveier),5096,Bergen
Mannsverk 32,2590000,53,1.0,1959.0,Leilighet,https://www.finn.no/realestate/homes/ad.html?finnkode=301460373,48867,60.353772,5.365572,02/05/2023,1.0,Aksje,5094,Bergen
Kvitungevegen 35,6000000,187,7.0,1982.0,Enebolig,https://www.finn.no/realestate/homes/ad.html?finnkode=301458725,32085,69.6903689,18.8523984,02/05/2023,,Eier (Selveier),9100,Kvaløysletta
Vårveien 75,11900000,179,4.0,2022.0,Tomannsbolig,https://www.finn.no/realestate/homes/ad.html?finnkode=301458041,66480,59.894116,10.800287,02/05/2023,,Eier (Selveier),1182,Oslo
Sæ 28,3100000,99,3.0,2007.0,Leilighet,https://www.finn.no/realestate/homes/ad.html?finnkode=301457103,31313,59.7827969,5.4980727,02/05/2023,1.0,Eier (Selveier),5417,Stord
Gina Krogs vei 11A,3700000,69,,1960.0,Leilighet,https://www.finn.no/realestate/homes/ad.html?finnkode=294440198,53623,59.876388,10.815634,02/05/2023,3.0,Aksje,1153,Oslo
Uelands gate 69,5900000,74,4.0,1948.0,Leilighet,https://www.finn.no/realestate/homes/ad.html?finnkode=301399993,79729,59.939537,10.750529,02/05/2023,1.0,Andel,462,Oslo
Markenrudveien 12,3350000,80,3.0,2018.0,Leilighet,https://www.finn.no/realestate/homes/ad.html?finnkode=300979649,41875,59.591656,10.03868,02/05/2023,1.0,Eier (Selveier),3095,Eidsfoss
Nedre Skogvei 5,6700000,74,,1989.0,Leilighet,https://www.finn.no/realestate/homes/ad.html?finnkode=301451195,90540,59.920107,10.657699,02/05/2023,,Eier (Selveier),281,Oslo
Strandengveien 89,13800000,245,,1988.0,Enebolig,https://www.finn.no/realestate/homes/ad.html?finnkode=278015334,56326,59.8079101,10.4719954,02/05/2023,,Eier (Selveier),1390,Vollen
Harbitzalléen 33,4800000,41,2.0,2019.0,Leilighet,https://www.finn.no/realestate/homes/ad.html?finnkode=301449887,117073,59.924996,10.672213,02/05/2023,3.0,Eier (Selveier),275,Oslo
Nattlandsveien 92B,2500000,65,,1957.0,Leilighet,https://www.finn.no/realestate/homes/ad.html?finnkode=301449582,38461,60.3545973,5.3688002,02/05/2023,,Andel,5094,Bergen
Johan Hjorts vei 38,3500000,83,4.0,1960.0,Leilighet,https://www.finn.no/realestate/homes/ad.html?finnkode=301340988,42168,60.3501963,5.3587328,02/05/2023,2.0,Andel,5081,Bergen
Brøttetveien 22,3300000,138,,1981.0,Enebolig,https://www.finn.no/realestate/homes/ad.html?finnkode=301380950,23913,60.2405235,10.4249737,02/05/2023,1.0,Eier (Selveier),3520,Jevnaker
Langbølgen 44,4950000,78,3.0,1965.0,Leilighet,https://www.finn.no/realestate/homes/ad.html?finnkode=301447097,63461,59.864449,10.815769,02/05/2023,2.0,Andel,1150,Oslo
Vollsveien 149,13490000,292,8.0,1965.0,Enebolig,https://www.finn.no/realestate/homes/ad.html?finnkode=301289985,46198,59.94096,10.627155,02/05/2023,,Eier (Selveier),1359,Eiksmarka
Sverres gate 5,4200000,54,3.0,2008.0,Leilighet,https://www.finn.no/realestate/homes/ad.html?finnkode=301410533,77777,59.911038,10.776141,02/05/2023,5.0,Andel,652,Oslo
Strandvegen 112A,2740000,61,3.0,2020.0,Leilighet,https://www.finn.no/realestate/homes/ad.html?finnkode=301444703,44918,69.635197,18.929832,02/05/2023,6.0,Andel,9006,Tromsø
Finnsetervegen 37,6500000,192,5.0,2003.0,Enebolig,https://www.finn.no/realestate/homes/ad.html?finnkode=301444707,33854,69.679963,18.7698169,02/05/2023,,Eier (Selveier),9105,Kvaløya
Winston Churchills veg 33,6950000,170,6.0,1970.0,Enebolig,https://www.finn.no/realestate/homes/ad.html?finnkode=301444778,40882,69.6839027,18.9441636,02/05/2023,,Eier (Selveier),9014,Tromsø
Lenangsveien,1450000,80,3.0,1974.0,Enebolig,https://www.finn.no/realestate/homes/ad.html?finnkode=301444673,18125,69.8957448,20.1129974,02/05/2023,,Eier (Selveier),1133,Nord-Lenangen
Hoffsveien 65E,9000000,101,3.0,1989.0,Leilighet,https://www.finn.no/realestate/homes/ad.html?finnkode=289947941,89108,59.933587,10.679598,02/05/2023,1.0,Eier (Selveier),377,Oslo
Peter Møllers vei 2B,5500000,56,3.0,2017.0,Leilighet,https://www.finn.no/realestate/homes/ad.html?finnkode=300899997,98214,59.9299659,10.7918468,02/05/2023,3.0,Eier (Selveier),585,Oslo
Pilestredet Park 39,6790000,67,3.0,2004.0,Leilighet,https://www.finn.no/realestate/homes/ad.html?finnkode=301439125,101343,59.919495,10.736629,02/05/2023,2.0,Eier (Selveier),176,Oslo
Spinnerigaten 9,1900000,44,2.0,2009.0,Leilighet,https://www.finn.no/realestate/homes/ad.html?finnkode=301289030,43181,58.4516207,6.0089197,02/05/2023,2.0,Eier (Selveier),4370,Egersund
Helgesens gate 18,5100000,52,2.0,1880.0,Leilighet,https://www.finn.no/realestate/homes/ad.html?finnkode=300893385,98076,59.924625,10.759513,02/05/2023,4.0,Andel,553,Oslo
Salmakersvenn Marius Jantzens plass 2,18900000,92,,2013.0,Leilighet,https://www.finn.no/realestate/homes/ad.html?finnkode=301437456,205434,59.907566,10.720182,02/05/2023,11.0,Eier (Selveier),252,Oslo
Leyrins gate 3,7500000,85,4.0,2012.0,Leilighet,https://www.finn.no/realestate/homes/ad.html?finnkode=301434608,88235,59.930365,10.794893,02/05/2023,5.0,Eier (Selveier),585,Oslo
Hålogalandsgata 94,3400000,61,3.0,1955.0,Leilighet,https://www.finn.no/realestate/homes/ad.html?finnkode=300865921,55737,67.2783036,14.4049825,02/05/2023,1.0,Andel,8008,Bodø
STORGATA 189 B,1490000,40,,1975.0,Leilighet,https://www.finn.no/realestate/homes/ad.html?finnkode=301419675,37250,59.14677,9.6568607,02/05/2023,2.0,Andel,3915,Porsgrunn
Vallefaret 10,4850000,72,3.0,1953.0,Leilighet,https://www.finn.no/realestate/homes/ad.html?finnkode=301432527,67361,59.918846,10.801049,02/05/2023,1.0,Andel,663,Oslo
Kruttmølleveien 26,3650000,137,4.0,2014.0,Tomannsbolig,https://www.finn.no/realestate/homes/ad.html?finnkode=301431754,26642,59.6596446,9.631842,02/05/2023,,Eier (Selveier),3616,Kongsberg
Knausveien 4,9690000,202,6.0,1961.0,Enebolig,https://www.finn.no/realestate/homes/ad.html?finnkode=301430328,47970,59.705428,10.845912,02/05/2023,,Eier (Selveier),1424,Ski
Henrik Sørensens vei 32,3250000,72,3.0,1971.0,Leilighet,https://www.finn.no/realestate/homes/ad.html?finnkode=300889459,45138,59.93726,10.922437,02/05/2023,1.0,Andel,1065,Oslo
Holtegata 32,13490000,142,5.0,1890.0,Leilighet,https://www.finn.no/realestate/homes/ad.html?finnkode=292064494,95000,59.924246,10.723656,02/05/2023,3.0,Eier (Selveier),355,Oslo
Elgvegen 45,1960000,69,3.0,1991.0,Rekkehus,https://www.finn.no/realestate/homes/ad.html?finnkode=300447351,28405,61.2398459,10.4429946,02/05/2023,1.0,Andel,2636,Øyer
Eckersbergs gate 15 A,4490000,37,2.0,1898.0,Leilighet,https://www.finn.no/realestate/homes/ad.html?finnkode=301427268,121351,59.919793,10.702101,02/05/2023,1.0,Eier (Selveier),266,Oslo
Nordahl Bruns gate 7A,4300000,33,2.0,1890.0,Leilighet,https://www.finn.no/realestate/homes/ad.html?finnkode=301376289,130303,59.919131,10.74246,02/05/2023,2.0,Eier (Selveier),165,Oslo
Mor Go'hjertas vei 12,6800000,76,3.0,1949.0,Leilighet,https://www.finn.no/realestate/homes/ad.html?finnkode=301224459,89473,59.942737,10.7645,02/05/2023,1.0,Andel,469,Oslo
Olaf Schous vei 24,5500000,65,3.0,1936.0,Leilighet,https://www.finn.no/realestate/homes/ad.html?finnkode=301424999,84615,59.932217,10.782768,02/05/2023,3.0,Eier (Selveier),572,Oslo
Dynekilgata 15,4200000,38,2.0,1967.0,Leilighet,https://www.finn.no/realestate/homes/ad.html?finnkode=301421777,110526,59.930952,10.776633,02/05/2023,10.0,Andel,569,Oslo
Hegdehaugsveien 27C,4350000,39,2.0,1853.0,Leilighet,https://www.finn.no/realestate/homes/ad.html?finnkode=301420303,111538,59.921653,10.727582,02/05/2023,1.0,Eier (Selveier),352,Oslo
Dortledhaugen 66,4600000,170,5.0,1987.0,Tomannsbolig,https://www.finn.no/realestate/homes/ad.html?finnkode=301317975,27058,60.3029153,5.3039587,02/05/2023,3.0,Andel,5237,Rådal
Maridalsveien 154A,4990000,52,,1939.0,Leilighet,https://www.finn.no/realestate/homes/ad.html?finnkode=276395891,95961,59.937543,10.755937,02/05/2023,5.0,Eier (Selveier),461,Oslo
Nordalveien 81,4500000,66,,1954.0,Leilighet,https://www.finn.no/realestate/homes/ad.html?finnkode=301414531,68181,59.938073,10.82477,02/05/2023,4.0,Andel,584,Oslo
Hellinga 18,4850000,65,3.0,1957.0,Leilighet,https://www.finn.no/realestate/homes/ad.html?finnkode=301410157,74615,59.870635,10.813429,02/05/2023,4.0,Andel,1150,Oslo
Filerveien 1,4190000,68,3.0,1960.0,Leilighet,https://www.finn.no/realestate/homes/ad.html?finnkode=301406448,61617,59.901868,10.8422,02/05/2023,1.0,Andel,684,Oslo
Ragnar Schjølbergs vei 3 C,1900000,37,2.0,2022.0,Leilighet,https://www.finn.no/realestate/homes/ad.html?finnkode=301399763,51351,67.2868,14.414165,02/05/2023,2.0,Andel,8010,Bodø
Langbråten 113,5600000,124,5.0,2018.0,Rekkehus,https://www.finn.no/realestate/homes/ad.html?finnkode=301404850,45161,60.1403484,11.1587249,02/05/2023,,Eier (Selveier),2063,Jessheim
Evje terrasse 12,11500000,158,,1913.0,Enebolig,https://www.finn.no/realestate/homes/ad.html?finnkode=301131157,72784,59.899374,10.521874,02/05/2023,,Eier (Selveier),1338,Sandvika
Grønvoll allé 20,7500000,82,4.0,2018.0,Leilighet,https://www.finn.no/realestate/homes/ad.html?finnkode=300805768,91463,59.915123,10.797049,02/05/2023,3.0,Eier (Selveier),661,Oslo
Kringveien 9B,7500000,158,6.0,2010.0,Tomannsbolig,https://www.finn.no/realestate/homes/ad.html?finnkode=301388074,47468,59.946001,10.910224,02/05/2023,4.0,Eier (Selveier),1084,Oslo
Stakkevollvegen 31B,5600000,88,4.0,2015.0,Leilighet,https://www.finn.no/realestate/homes/ad.html?finnkode=299390279,63636,69.6648292,18.970969,02/05/2023,2.0,Eier (Selveier),9010,Tromsø
Odins gate 21,15750000,141,5.0,1914.0,Leilighet,https://www.finn.no/realestate/homes/ad.html?finnkode=301394254,111702,59.919934,10.70921,02/05/2023,,Eier (Selveier),266,Oslo
Zetlitz' gate 5A,7690000,77,3.0,1890.0,Leilighet,https://www.finn.no/realestate/homes/ad.html?finnkode=300767523,99870,59.920356,10.741522,02/05/2023,2.0,Eier (Selveier),165,Oslo
Kanonhallveien 40A,7300000,71,3.0,2006.0,Leilighet,https://www.finn.no/realestate/homes/ad.html?finnkode=300910583,102816,59.932279,10.790735,02/05/2023,6.0,Eier (Selveier),585,Oslo
Wessels gate 3B,10500000,136,4.0,1894.0,Leilighet,https://www.finn.no/realestate/homes/ad.html?finnkode=279720920,77205,59.920075,10.742366,02/05/2023,5.0,Eier (Selveier),165,Oslo
Oksenøyveien 39 C,9200000,87,3.0,2020.0,Leilighet,https://www.finn.no/realestate/homes/ad.html?finnkode=272371940,105747,59.904185,10.611366,02/05/2023,1.0,Eier (Selveier),1366,Lysaker
Breistølsveien 12,10490000,180,,1890.0,Leilighet,https://www.finn.no/realestate/homes/ad.html?finnkode=301389991,58277,60.402005,5.329376,02/05/2023,,Eier (Selveier),5034,Bergen
Østvollveien 19,17900000,405,,1984.0,Enebolig,https://www.finn.no/realestate/homes/ad.html?finnkode=271148843,44197,59.851657,10.804825,02/05/2023,,Eier (Selveier),1165,Oslo
Hovdanveien 114,3600000,80,,1950.0,Enebolig,https://www.finn.no/realestate/homes/ad.html?finnkode=301385309,45000,68.0787962,13.1602563,02/05/2023,,Eier (Selveier),8387,Fredvang
St. Halvards vei 23B,3490000,61,3.0,1955.0,Leilighet,https://www.finn.no/realestate/homes/ad.html?finnkode=301383628,57213,60.371445,5.350588,02/05/2023,4.0,Andel,5052,Bergen
Vardeknausen 2,8500000,242,8.0,1995.0,Enebolig,https://www.finn.no/realestate/homes/ad.html?finnkode=281991263,35123,60.0205924,11.0492108,02/05/2023,3.0,Eier (Selveier),2020,Skedsmokorset
Sverdrups gate 22B,4190000,43,2.0,1895.0,Leilighet,https://www.finn.no/realestate/homes/ad.html?finnkode=301383264,97441,59.921131,10.766251,02/05/2023,3.0,Andel,559,Oslo
Baglergaten 8,2550000,24,,1917.0,Leilighet,https://www.finn.no/realestate/homes/ad.html?finnkode=300881661,106250,60.4011457,5.324278,02/05/2023,2.0,Eier (Selveier),5032,Bergen
Lundheimstien 9 Gamle,2990000,69,3.0,2007.0,Leilighet,https://www.finn.no/realestate/homes/ad.html?finnkode=301376944,43333,59.217765,10.98692,02/05/2023,1.0,Andel,1636,Fredrikstad
Koefoedgeilan 2B,3490000,66,3.0,1951.0,Leilighet,https://www.finn.no/realestate/homes/ad.html?finnkode=301016203,52878,63.4295883,10.3661753,02/05/2023,4.0,Andel,7018,Trondheim
Etterstadkroken 7B,7700000,93,4.0,2002.0,Leilighet,https://www.finn.no/realestate/homes/ad.html?finnkode=301374932,82795,59.908687,10.807705,02/05/2023,6.0,Andel,659,Oslo
St. Halvards vei 13A,3390000,58,,1923.0,Tomannsbolig,https://www.finn.no/realestate/homes/ad.html?finnkode=263239739,58448,60.372177,5.351377,02/05/2023,,Eier (Selveier),5052,Bergen
Nordstrandveien 85C,11500000,168,7.0,1991.0,Enebolig,https://www.finn.no/realestate/homes/ad.html?finnkode=300894374,68452,59.861066,10.816228,02/05/2023,1.0,Eier (Selveier),1164,Oslo
Skogveien 5 Mo i,4500000,166,16.0,1949.0,Enebolig,https://www.finn.no/realestate/homes/ad.html?finnkode=301370586,27108,66.3290149,14.1792129,02/05/2023,,Eier (Selveier),8613,Rana
Nordbygrenda 148,6500000,117,5.0,2016.0,Rekkehus,https://www.finn.no/realestate/homes/ad.html?finnkode=301071901,55555,59.9374659,10.9991521,02/05/2023,2.0,Andel,1472,Fjellhamar
Stockfleths gate 41,4500000,40,2.0,1919.0,Leilighet,https://www.finn.no/realestate/homes/ad.html?finnkode=301370656,112500,59.934545,10.752485,02/05/2023,2.0,Andel,461,Oslo
Mannsverk 4,3750000,106,,1958.0,Leilighet,https://www.finn.no/realestate/homes/ad.html?finnkode=301368864,35377,60.353835,5.36689,02/05/2023,4.0,Aksje,5094,Bergen
Ravnedalsveien 21,5690000,189,,1992.0,Rekkehus,https://www.finn.no/realestate/homes/ad.html?finnkode=271493492,30105,58.1525276,7.9731816,02/05/2023,,Eier (Selveier),4616,Kristiansand S
GAMMELVEIEN 15 A,989000,68,3.0,2007.0,Leilighet,https://www.finn.no/realestate/homes/ad.html?finnkode=301338500,14544,63.049057,9.7108292,02/05/2023,1.0,Andel,7336,Meldal
Gladengveien 10,4510000,75,3.0,2015.0,Leilighet,https://www.finn.no/realestate/homes/ad.html?finnkode=301360440,60133,59.917267,10.791414,02/05/2023,3.0,Andel,661,Oslo
Øvrefoss 14A,10990000,118,5.0,1908.0,Leilighet,https://www.finn.no/realestate/homes/ad.html?finnkode=300752722,93135,59.928257,10.758595,02/05/2023,3.0,Andel,555,Oslo
Rosenvinges vei 28,7450000,111,3.0,2023.0,Leilighet,https://www.finn.no/realestate/homes/ad.html?finnkode=298845122,67117,59.419369,10.675972,02/05/2023,5.0,Eier (Selveier),1523,Moss
Moldbakken 5,3380000,66,3.0,1962.0,Leilighet,https://www.finn.no/realestate/homes/ad.html?finnkode=275351292,51212,60.4199422,5.3087939,02/05/2023,1.0,Aksje,5042,Bergen
Holbergs gate 11 B,4000000,40,2.0,1892.0,Leilighet,https://www.finn.no/realestate/homes/ad.html?finnkode=301359132,100000,59.919946,10.73447,02/05/2023,4.0,Eier (Selveier),166,Oslo
Vassveita 1,2390000,227,7.0,1963.0,Enebolig,https://www.finn.no/realestate/homes/ad.html?finnkode=301356182,10528,62.077785,9.136686,02/05/2023,3.0,Eier (Selveier),2660,Dombås
Økern torgvei 16,6500000,76,,2016.0,Leilighet,https://www.finn.no/realestate/homes/ad.html?finnkode=301357124,85526,59.934623,10.806745,02/05/2023,6.0,Eier (Selveier),580,Oslo
Trøgstadveien 5,7500000,94,3.0,2011.0,Leilighet,https://www.finn.no/realestate/homes/ad.html?finnkode=300947346,79787,59.5842851,11.1639365,02/05/2023,5.0,Eier (Selveier),1807,Askim
Grenseveien 57B,7400000,82,4.0,2016.0,Leilighet,https://www.finn.no/realestate/homes/ad.html?finnkode=301215284,90243,59.9214165,10.7930942,02/05/2023,4.0,Eier (Selveier),576,Oslo
Fururabben 17,2750000,31,,1959.0,Leilighet,https://www.finn.no/realestate/homes/ad.html?finnkode=301352477,88709,59.940533,10.614357,02/05/2023,4.0,Eier (Selveier),1361,Østerås
Kringla 6K,4490000,77,,2011.0,Leilighet,https://www.finn.no/realestate/homes/ad.html?finnkode=301350188,58311,61.2350313,7.0791347,02/05/2023,3.0,Eier (Selveier),6856,Sogndal
Skullerudbakken 98,6800000,90,,2013.0,Rekkehus,https://www.finn.no/realestate/homes/ad.html?finnkode=301347257,75555,59.863753,10.836041,02/05/2023,,Eier (Selveier),1188,Oslo
Holsts gate 9,2050000,67,3.0,1953.0,Leilighet,https://www.finn.no/realestate/homes/ad.html?finnkode=300853468,30597,59.6598941,9.64699,02/05/2023,2.0,Andel,3616,Kongsberg
Damfaret 52,24300000,364,9.0,1991.0,Enebolig,https://www.finn.no/realestate/homes/ad.html?finnkode=300907219,66758,59.903525,10.838001,02/05/2023,3.0,Eier (Selveier),682,Oslo
Asperholen 79,1500000,46,2.0,1979.0,Leilighet,https://www.finn.no/realestate/homes/ad.html?finnkode=301339868,32608,58.8656153,5.7620294,02/05/2023,2.0,Andel,4329,Sandnes
Sletteløkka 6B,4500000,88,4.0,1958.0,Leilighet,https://www.finn.no/realestate/homes/ad.html?finnkode=300623531,51136,59.945959,10.842176,02/05/2023,4.0,Eier (Selveier),597,Oslo
Osterhaus' gate 16D,5980000,53,3.0,2003.0,Leilighet,https://www.finn.no/realestate/homes/ad.html?finnkode=300583037,112830,59.917548,10.752752,02/05/2023,7.0,Eier (Selveier),183,Oslo
Spikkestadveien 80E,4290000,121,,1999.0,Leilighet,https://www.finn.no/realestate/homes/ad.html?finnkode=301336857,35454,59.7473663,10.3958631,02/05/2023,2.0,Eier (Selveier),3440,Røyken
Freserveien 29,3000000,63,2.0,2017.0,Leilighet,https://www.finn.no/realestate/homes/ad.html?finnkode=301286473,47619,59.902649,10.787353,02/05/2023,2.0,Andel,195,Oslo
Gamleveien 91,5890000,88,4.0,2020.0,Leilighet,https://www.finn.no/realestate/homes/ad.html?finnkode=301335129,66931,59.918213,10.955849,02/05/2023,5.0,Eier (Selveier),1475,Finstadjordet
Montebelloveien 12B,19500000,312,,1989.0,Enebolig,https://www.finn.no/realestate/homes/ad.html?finnkode=301334741,62500,59.930033,10.66825,02/05/2023,,Eier (Selveier),377,Oslo
Erlends vei 36,3480000,45,2.0,1966.0,Leilighet,https://www.finn.no/realestate/homes/ad.html?finnkode=301334931,77333,59.917814,10.838773,02/05/2023,1.0,Andel,669,Oslo
OALGEVARLUODDA 20 B,2350000,114,4.0,1980.0,Tomannsbolig,https://www.finn.no/realestate/homes/ad.html?finnkode=301317504,20614,69.4751935,25.5043128,02/05/2023,2.0,Eier (Selveier),9730,Karasjok
Toftes gate 61D,5200000,55,2.0,1991.0,Leilighet,https://www.finn.no/realestate/homes/ad.html?finnkode=301331612,94545,59.922516,10.760122,02/05/2023,2.0,Eier (Selveier),552,Oslo
Herslebs gate 21,4350000,41,,2008.0,Leilighet,https://www.finn.no/realestate/homes/ad.html?finnkode=301331020,106097,59.917557,10.764201,02/05/2023,3.0,Andel,560,Oslo
Lensmannstunet 33B,3990000,82,3.0,1994.0,Leilighet,https://www.finn.no/realestate/homes/ad.html?finnkode=301271462,48658,58.9842561,5.6800117,02/05/2023,6.0,Eier (Selveier),4027,Stavanger
Hjortevegen 16C,3800000,125,6.0,1958.0,Rekkehus,https://www.finn.no/realestate/homes/ad.html?finnkode=300595230,30400,60.3026162,5.339891,02/05/2023,3.0,Eier (Selveier),5236,Rådal
Lachmanns vei 10B,17000000,149,,1997.0,Leilighet,https://www.finn.no/realestate/homes/ad.html?finnkode=301328433,114093,59.960875,10.796792,02/05/2023,3.0,Eier (Selveier),495,Oslo
Strandvegen 1C,5590000,77,4.0,2019.0,Leilighet,https://www.finn.no/realestate/homes/ad.html?finnkode=301319847,72597,59.942219,11.059349,02/05/2023,3.0,Eier (Selveier),2005,Rælingen
Haslevollen 8D,15000000,165,6.0,2018.0,Enebolig,https://www.finn.no/realestate/homes/ad.html?finnkode=298809201,90909,59.92574,10.791299,02/05/2023,3.0,Eier (Selveier),579,Oslo
Hegdehaugsveien 5B,7190000,69,3.0,1938.0,Leilighet,https://www.finn.no/realestate/homes/ad.html?finnkode=299421518,104202,59.920112,10.732046,02/05/2023,6.0,Eier (Selveier),352,Oslo
Frederik Glads gate 21A,4600000,46,2.0,1920.0,Leilighet,https://www.finn.no/realestate/homes/ad.html?finnkode=300902242,100000,59.942169,10.774727,02/05/2023,3.0,Eier (Selveier),482,Oslo
Kyrre Grepps gate 4,8250000,90,3.0,1926.0,Leilighet,https://www.finn.no/realestate/homes/ad.html?finnkode=301317111,91666,59.940712,10.776207,02/05/2023,2.0,Andel,481,Oslo
Bentsebrugata 16C,4490000,50,2.0,1944.0,Leilighet,https://www.finn.no/realestate/homes/ad.html?finnkode=300876003,89800,59.935849,10.761736,02/05/2023,1.0,Andel,476,Oslo
Stensberggata 23C,6200000,54,3.0,1896.0,Leilighet,https://www.finn.no/realestate/homes/ad.html?finnkode=301315257,114814,59.921503,10.737611,02/05/2023,3.0,Andel,170,Oslo
Staupslia 50 B,1350000,76,,2019.0,Leilighet,https://www.finn.no/realestate/homes/ad.html?finnkode=282280254,17763,63.749651,11.270077,02/05/2023,2.0,Andel,7603,Levanger
Messepromenaden 10,7700000,72,3.0,2005.0,Leilighet,https://www.finn.no/realestate/homes/ad.html?finnkode=272841617,106944,59.920257,10.680622,02/05/2023,5.0,Eier (Selveier),279,Oslo
Fjellvikbakken 2,6800000,325,,1985.0,Enebolig,https://www.finn.no/realestate/homes/ad.html?finnkode=301310768,20923,59.122696,10.238153,02/05/2023,,Eier (Selveier),3222,Sandefjord
Pontoppidans gate 9B,5250000,58,2.0,1998.0,Leilighet,https://www.finn.no/realestate/homes/ad.html?finnkode=301310070,90517,59.936581,10.753101,02/05/2023,5.0,Andel,462,Oslo
Kirkegata 54,3290000,206,5.0,1956.0,Enebolig,https://www.finn.no/realestate/homes/ad.html?finnkode=288197779,15970,59.1464886,9.6411399,02/05/2023,,Eier (Selveier),3919,Porsgrunn
Gydas vei 87,4400000,125,5.0,1986.0,Rekkehus,https://www.finn.no/realestate/homes/ad.html?finnkode=273531493,35200,59.823053,10.8124634,02/05/2023,,Andel,1413,Tårnåsen
Oalgevárluodda 20 B,2100000,114,4.0,1980.0,Tomannsbolig,https://www.finn.no/realestate/homes/ad.html?finnkode=301282323,18421,69.4751935,25.5043128,02/05/2023,2.0,Eier (Selveier),9730,Karasjok
Rødhettestien 5,2390000,47,2.0,1977.0,Leilighet,https://www.finn.no/realestate/homes/ad.html?finnkode=301307475,50851,69.674721,18.962923,02/05/2023,,Andel,9010,Tromsø
Westye Egebergs gate 7A,8890000,70,3.0,1936.0,Leilighet,https://www.finn.no/realestate/homes/ad.html?finnkode=300912267,127000,59.92273,10.748332,02/05/2023,4.0,Eier (Selveier),172,Oslo
Hellaveien 12E,4690000,80,,2020.0,Leilighet,https://www.finn.no/realestate/homes/ad.html?finnkode=299792096,58625,59.225599,10.40254,02/05/2023,2.0,Eier (Selveier),3140,Nøtterøy
Tors vei 30C,2950000,84,3.0,1966.0,Leilighet,https://www.finn.no/realestate/homes/ad.html?finnkode=301304066,35119,59.725762,10.239693,02/05/2023,4.0,Andel,3040,Drammen
STORGATA 13,2225000,34,1.0,2023.0,Leilighet,https://www.finn.no/realestate/homes/ad.html?finnkode=301295596,65441,60.7177796,11.1923377,02/05/2023,2.0,Eier (Selveier),2335,Stange
Evald Ryghs gate 16 C,6750000,65,3.0,1930.0,Leilighet,https://www.finn.no/realestate/homes/ad.html?finnkode=301302760,103846,59.929275,10.745497,02/05/2023,2.0,Aksje,173,Oslo
Klaus Torgårds vei 16B,7500000,87,3.0,2005.0,Leilighet,https://www.finn.no/realestate/homes/ad.html?finnkode=300919754,86206,59.9519,10.726363,02/05/2023,2.0,Eier (Selveier),372,Oslo
Risaberg terrasse 82,4250000,106,3.0,2014.0,Leilighet,https://www.finn.no/realestate/homes/ad.html?finnkode=301295497,40094,58.9245143,5.6165976,02/05/2023,3.0,Eier (Selveier),4056,Tananger
Rustadgrenda 9,4000000,67,3.0,1963.0,Leilighet,https://www.finn.no/realestate/homes/ad.html?finnkode=300856169,59701,59.873117,10.842896,02/05/2023,3.0,Andel,693,Oslo
Pilestredet park 11C,7740000,99,4.0,1940.0,Leilighet,https://www.finn.no/realestate/homes/ad.html?finnkode=298176835,78181,59.921863,10.740975,02/05/2023,6.0,Andel,176,Oslo
Sigden 5,2790000,114,3.0,2006.0,Tomannsbolig,https://www.finn.no/realestate/homes/ad.html?finnkode=301257310,24473,63.127435,7.8125759,02/05/2023,1.0,Eier (Selveier),6518,Kristiansund N
Brochmanns gate 8A,4890000,52,3.0,,Leilighet,https://www.finn.no/realestate/homes/ad.html?finnkode=301300797,94038,59.94059,10.763169,02/05/2023,3.0,Andel,470,Oslo
Falletvegen 215,2250000,149,4.0,1970.0,Enebolig,https://www.finn.no/realestate/homes/ad.html?finnkode=266292789,15100,60.5444241,11.2582845,02/05/2023,2.0,Eier (Selveier),2338,Espa
Grenseveien 30A,3990000,41,2.0,1940.0,Leilighet,https://www.finn.no/realestate/homes/ad.html?finnkode=301299345,97317,59.924928,10.780427,02/05/2023,2.0,Andel,565,Oslo
Heggdalsringen 61,3090000,42,3.0,2018.0,Leilighet,https://www.finn.no/realestate/homes/ad.html?finnkode=300403244,73571,63.406446,10.450881,02/05/2023,4.0,Eier (Selveier),7049,Trondheim
Carl Lundgrens vei 20,11750000,101,,2019.0,Leilighet,https://www.finn.no/realestate/homes/ad.html?finnkode=301297428,116336,59.920237,10.630927,02/05/2023,4.0,Eier (Selveier),284,Oslo
Darres gate 4,6800000,67,3.0,2021.0,Leilighet,https://www.finn.no/realestate/homes/ad.html?finnkode=301297059,101492,59.927779,10.752248,02/05/2023,4.0,Andel,171,Oslo
Lotheveien 7,2890000,57,3.0,1980.0,Leilighet,https://www.finn.no/realestate/homes/ad.html?finnkode=301297078,50701,60.379672,5.32198,02/05/2023,2.0,Andel,5057,Bergen
Deichmans gate 13,3750000,35,2.0,1890.0,Leilighet,https://www.finn.no/realestate/homes/ad.html?finnkode=301296349,107142,59.918993,10.749483,02/05/2023,2.0,Andel,178,Oslo
Østagløttveien 20A,14900000,424,9.0,1989.0,Enebolig,https://www.finn.no/realestate/homes/ad.html?finnkode=273638564,35141,59.950459,10.988203,02/05/2023,,Eier (Selveier),1464,Fjellhamar
Øvre Halsteinrud terrasse 10A,2400000,64,,2003.0,Leilighet,https://www.finn.no/realestate/homes/ad.html?finnkode=301249542,37500,60.189868,10.1927174,02/05/2023,,Eier (Selveier),3518,Hønefoss
Sars' gate 31B,4500000,53,2.0,1940.0,Leilighet,https://www.finn.no/realestate/homes/ad.html?finnkode=300742525,84905,59.921184,10.771692,02/05/2023,4.0,Aksje,562,Oslo
Ringgata 2D,4250000,51,2.0,1940.0,Leilighet,https://www.finn.no/realestate/homes/ad.html?finnkode=300612199,83333,59.915582,10.774166,02/05/2023,2.0,Aksje,577,Oslo
Niels Juels gate 10,11900000,148,5.0,1893.0,Leilighet,https://www.finn.no/realestate/homes/ad.html?finnkode=301290516,80405,59.912396,10.709957,02/05/2023,1.0,Eier (Selveier),272,Oslo
Erleveien 7B,3300000,70,3.0,1968.0,Leilighet,https://www.finn.no/realestate/homes/ad.html?finnkode=299792452,47142,60.3626297,5.3673981,02/05/2023,4.0,Eier (Selveier),5096,Bergen
Bjørkelunden 4B,2950000,70,3.0,2004.0,Leilighet,https://www.finn.no/realestate/homes/ad.html?finnkode=300893757,42142,61.1304655,10.4430056,02/05/2023,2.0,Eier (Selveier),2619,Lillehammer
Store Åros vei 16,6850000,194,,1967.0,Enebolig,https://www.finn.no/realestate/homes/ad.html?finnkode=301289135,35309,59.7094287,10.5136096,02/05/2023,,Eier (Selveier),3474,Åros
Th. Kittelsens vei 140,4500000,94,4.0,1979.0,Leilighet,https://www.finn.no/realestate/homes/ad.html?finnkode=301248979,47872,59.7714391,10.8003855,02/05/2023,1.0,Eier (Selveier),1415,Oppegård
Maridalsveien 225D,3780000,38,1.0,1940.0,Leilighet,https://www.finn.no/realestate/homes/ad.html?finnkode=301284327,99473,59.944765,10.763283,02/05/2023,2.0,Andel,467,Oslo
Disenveien 27,3850000,45,2.0,1957.0,Leilighet,https://www.finn.no/realestate/homes/ad.html?finnkode=301283526,85555,59.940864,10.794169,02/05/2023,7.0,Andel,587,Oslo
Husebybakken 1B,4500000,56,3.0,1958.0,Leilighet,https://www.finn.no/realestate/homes/ad.html?finnkode=301282598,80357,59.932517,10.668535,02/05/2023,3.0,Andel,379,Oslo
Sundgata 8,2700000,103,3.0,1860.0,Tomannsbolig,https://www.finn.no/realestate/homes/ad.html?finnkode=300898582,26213,61.1083366,10.4613408,02/05/2023,2.0,Eier (Selveier),2609,Lillehammer
Vikersundgata 4B,5200000,80,3.0,2019.0,Leilighet,https://www.finn.no/realestate/homes/ad.html?finnkode=300874043,65000,59.968568,9.998498,02/05/2023,4.0,Eier (Selveier),3370,Vikersund
Hasselstien 2B,2890000,51,2.0,1969.0,Leilighet,https://www.finn.no/realestate/homes/ad.html?finnkode=300897381,56666,60.3558035,5.3459343,02/05/2023,1.0,Eier (Selveier),5067,Bergen
Rygjabakken 3,8500000,344,12.0,1984.0,Enebolig,https://www.finn.no/realestate/homes/ad.html?finnkode=301106229,24709,58.928617,5.730777,02/05/2023,3.0,Eier (Selveier),4020,Stavanger
Kirkeveien 57,3700000,34,2.0,1932.0,Leilighet,https://www.finn.no/realestate/homes/ad.html?finnkode=300869925,108823,59.927927,10.71413,02/05/2023,2.0,Eier (Selveier),368,Oslo
Riddervolds gate 3,11800000,102,4.0,1898.0,Leilighet,https://www.finn.no/realestate/homes/ad.html?finnkode=301278928,115686,59.918762,10.722656,02/05/2023,1.0,Eier (Selveier),256,Oslo
Statsråd Ihlens vei 25,9500000,218,,1929.0,Enebolig,https://www.finn.no/realestate/homes/ad.html?finnkode=272901225,43577,59.9492764,10.9992699,02/05/2023,,Eier (Selveier),1465,Strømmen
Oscars gate 71,22500000,224,8.0,1900.0,Leilighet,https://www.finn.no/realestate/homes/ad.html?finnkode=301277807,100446,59.917393,10.718846,02/05/2023,3.0,Eier (Selveier),256,Oslo
Hovinveien 37C,7100000,79,3.0,2014.0,Leilighet,https://www.finn.no/realestate/homes/ad.html?finnkode=300776429,89873,59.92058,10.790783,02/05/2023,1.0,Eier (Selveier),576,Oslo
Kjølberggata 1C,4500000,55,2.0,1930.0,Leilighet,https://www.finn.no/realestate/homes/ad.html?finnkode=300920300,81818,59.909473,10.777667,02/05/2023,5.0,Aksje,653,Oslo
Grimelundshaugen 41,7990000,71,,1987.0,Leilighet,https://www.finn.no/realestate/homes/ad.html?finnkode=268837819,112535,59.94361,10.695911,02/05/2023,2.0,Eier (Selveier),374,Oslo
Etterstadsletta 64,3850000,42,2.0,1984.0,Leilighet,https://www.finn.no/realestate/homes/ad.html?finnkode=301044596,91666,59.908049,10.804416,02/05/2023,4.0,Eier (Selveier),659,Oslo
Sigurd Hoels vei 63,7350000,78,3.0,2017.0,Leilighet,https://www.finn.no/realestate/homes/ad.html?finnkode=300734954,94230,59.917942,10.788538,02/05/2023,3.0,Eier (Selveier),655,Oslo
Anton Tschudis vei 4B,12450000,185,,1981.0,Enebolig,https://www.finn.no/realestate/homes/ad.html?finnkode=277645195,67297,59.934369,10.817477,02/05/2023,,Eier (Selveier),583,Oslo
Bygdøy allé 33A,6490000,65,,1936.0,Leilighet,https://www.finn.no/realestate/homes/ad.html?finnkode=300864772,99846,59.916891,10.710503,02/05/2023,5.0,Eier (Selveier),262,Oslo
Lørenveien 54C,5950000,60,,2019.0,Leilighet,https://www.finn.no/realestate/homes/ad.html?finnkode=300907414,99166,59.929992,10.796363,02/05/2023,2.0,Andel,585,Oslo
Seljeveien 21,5800000,62,3.0,2012.0,Leilighet,https://www.finn.no/realestate/homes/ad.html?finnkode=300854274,93548,59.928288,10.789187,02/05/2023,1.0,Eier (Selveier),575,Oslo
Vogts gate 49,4400000,41,2.0,1920.0,Leilighet,https://www.finn.no/realestate/homes/ad.html?finnkode=301272024,107317,59.934614,10.76482,02/05/2023,3.0,Andel,477,Oslo
Øvre Bakklandet 11,10000000,193,,1990.0,Enebolig,https://www.finn.no/realestate/homes/ad.html?finnkode=301271655,51813,63.4261658,10.4038261,02/05/2023,,Eier (Selveier),7016,Trondheim
Tennisveien 46,15400000,188,6.0,1994.0,Tomannsbolig,https://www.finn.no/realestate/homes/ad.html?finnkode=296905446,81914,59.956047,10.702331,02/05/2023,,Eier (Selveier),777,Oslo
Eterveien 5,6800000,118,5.0,1970.0,Rekkehus,https://www.finn.no/realestate/homes/ad.html?finnkode=294189870,57627,59.885285,10.837279,02/05/2023,,Andel,690,Oslo
Solstadlia 35,3280000,39,2.0,1891.0,Leilighet,https://www.finn.no/realestate/homes/ad.html?finnkode=300623571,84102,59.8601819,10.4564054,02/05/2023,3.0,Eier (Selveier),1395,Hvalstad
Vallefaret 18,4300000,55,2.0,1953.0,Leilighet,https://www.finn.no/realestate/homes/ad.html?finnkode=301040547,78181,59.919891,10.801481,02/05/2023,5.0,Andel,663,Oslo
Gustav Heibergs gate 4B,2890000,137,4.0,1968.0,Rekkehus,https://www.finn.no/realestate/homes/ad.html?finnkode=301223780,21094,60.8016933,11.0413059,02/05/2023,,Andel,2316,Hamar
Gamle Ringeriksvei 45A,7450000,80,3.0,2010.0,Leilighet,https://www.finn.no/realestate/homes/ad.html?finnkode=301065189,93125,59.9188582,10.5846832,02/05/2023,3.0,Eier (Selveier),1357,Bekkestua
Narntegata 1 Gamle,5490000,149,5.0,1897.0,Enebolig,https://www.finn.no/realestate/homes/ad.html?finnkode=300885155,36845,59.213582,10.966418,02/05/2023,2.0,Eier (Selveier),1636,Fredrikstad
Grenseveien 57C,6690000,72,,2016.0,Leilighet,https://www.finn.no/realestate/homes/ad.html?finnkode=301263523,92916,59.921198,10.7931791,02/05/2023,3.0,Eier (Selveier),576,Oslo
Vestlundveien 9,3450000,92,,2015.0,Rekkehus,https://www.finn.no/realestate/homes/ad.html?finnkode=299768059,37500,59.616574,11.05794,02/05/2023,,Eier (Selveier),1820,Spydeberg
Nedre Gartnergaten 3,3500000,49,2.0,1896.0,Leilighet,https://www.finn.no/realestate/homes/ad.html?finnkode=300872281,71428,60.3930595,5.3175792,02/05/2023,2.0,Andel,5011,Bergen
Torgbakken 12,1795000,150,,1875.0,Enebolig,https://www.finn.no/realestate/homes/ad.html?finnkode=276031591,11966,59.0530004,9.6982169,02/05/2023,,Eier (Selveier),3950,Brevik
Granveien 21B,13800000,315,9.0,1953.0,Enebolig,https://www.finn.no/realestate/homes/ad.html?finnkode=300723675,43809,59.881432,10.794235,02/05/2023,,Eier (Selveier),1178,Oslo
Schleppegrells gate 1,5500000,55,3.0,1896.0,Leilighet,https://www.finn.no/realestate/homes/ad.html?finnkode=300877999,100000,59.927046,10.757622,02/05/2023,3.0,Andel,556,Oslo
Fjellgata 44,4700000,55,2.0,1931.0,Leilighet,https://www.finn.no/realestate/homes/ad.html?finnkode=300777261,85454,59.926765,10.772759,02/05/2023,4.0,Aksje,566,Oslo
Sirevegen 308,1100000,203,,1950.0,Enebolig,https://www.finn.no/realestate/homes/ad.html?finnkode=299490877,5418,60.6761564,8.7702411,02/05/2023,,Eier (Selveier),3579,Torpo
Bøkkerveien 16A,5500000,58,3.0,2017.0,Leilighet,https://www.finn.no/realestate/homes/ad.html?finnkode=300420789,94827,59.928088,10.795879,02/05/2023,2.0,Andel,579,Oslo
Nordre Øverberg 14,22200000,276,,2007.0,Enebolig,https://www.finn.no/realestate/homes/ad.html?finnkode=301256724,80434,59.877865,10.5271743,02/05/2023,,Eier (Selveier),1397,Nesøya
Nesahaugen 3,3700000,165,5.0,1958.0,Enebolig,https://www.finn.no/realestate/homes/ad.html?finnkode=300750032,22424,58.997249,5.783804,02/05/2023,,Eier (Selveier),4076,Vassøy
Engerjordet 32,8250000,121,,1958.0,Rekkehus,https://www.finn.no/realestate/homes/ad.html?finnkode=292662191,68181,59.900774,10.54572,02/05/2023,,Eier (Selveier),1365,Blommenholm
Dalsbergstien 22A,2790000,15,2.0,1997.0,Leilighet,https://www.finn.no/realestate/homes/ad.html?finnkode=288982183,186000,59.922634,10.734217,02/05/2023,2.0,Andel,170,Oslo
Schønings gate 40,8490000,96,3.0,1938.0,Leilighet,https://www.finn.no/realestate/homes/ad.html?finnkode=301254589,88437,59.93109,10.720181,02/05/2023,4.0,Aksje,362,Oslo
Dukenveien 29C,6990000,207,4.0,1928.0,Enebolig,https://www.finn.no/realestate/homes/ad.html?finnkode=301251998,33768,59.212745,10.455112,02/05/2023,,Eier (Selveier),3133,Duken
Eikjolveien 19,8690000,205,,2015.0,Enebolig,https://www.finn.no/realestate/homes/ad.html?finnkode=277361275,42390,59.72533,10.868435,02/05/2023,,Eier (Selveier),1400,Ski
Rektorhaugen 3,4750000,63,2.0,1951.0,Leilighet,https://www.finn.no/realestate/homes/ad.html?finnkode=301248312,75396,59.951859,10.740917,02/05/2023,1.0,Andel,876,Oslo
Marcus Thranes gate 1A,1750000,34,2.0,1965.0,Leilighet,https://www.finn.no/realestate/homes/ad.html?finnkode=300602680,51470,60.7979214,10.6861006,02/05/2023,1.0,Andel,2821,Gjøvik
Erling Skjalgssons gate 1B,7990000,66,3.0,1900.0,Leilighet,https://www.finn.no/realestate/homes/ad.html?finnkode=301243445,121060,59.917676,10.701134,02/05/2023,3.0,Aksje,267,Oslo
Ringduevegen 4B,1990000,128,,1900.0,Enebolig,https://www.finn.no/realestate/homes/ad.html?finnkode=301242460,15546,60.2580926,11.033458,02/05/2023,,Eier (Selveier),2032,Maura
Løbergsjå 24,4390000,242,6.0,1985.0,Enebolig,https://www.finn.no/realestate/homes/ad.html?finnkode=301193118,18140,58.8300826,5.8196345,02/05/2023,3.0,Eier (Selveier),4337,Sandnes
Øydis vei 5,6490000,200,,1978.0,Enebolig,https://www.finn.no/realestate/homes/ad.html?finnkode=301240924,32450,59.288633,10.4281189,02/05/2023,,Eier (Selveier),3122,Tønsberg
Birkeveien 1,8000000,171,4.0,1965.0,Enebolig,https://www.finn.no/realestate/homes/ad.html?finnkode=301060377,46783,59.8427499,10.682584,02/05/2023,2.0,Eier (Selveier),1459,Nesodden
Ridabuvegen 15,4300000,197,,1949.0,Enebolig,https://www.finn.no/realestate/homes/ad.html?finnkode=301237967,21827,60.8048159,11.1265801,02/05/2023,,Eier (Selveier),2322,Ridabu
Evenrødveien 48,4000000,172,,1966.0,Enebolig,https://www.finn.no/realestate/homes/ad.html?finnkode=301237998,23255,59.254779,10.9350731,02/05/2023,,Eier (Selveier),1615,Fredrikstad
St.Croix gate 19,10500000,399,,1934.0,Tomannsbolig,https://www.finn.no/realestate/homes/ad.html?finnkode=300984697,26315,59.210474,10.943668,02/05/2023,,Eier (Selveier),1607,Fredrikstad
Heggeliveien 41 e,21500000,263,,1915.0,Enebolig,https://www.finn.no/realestate/homes/ad.html?finnkode=301236042,81749,59.933414,10.689073,02/05/2023,4.0,Eier (Selveier),375,Oslo
Eivindsholen 13,7990000,283,,1982.0,Enebolig,https://www.finn.no/realestate/homes/ad.html?finnkode=257377040,28233,58.7271312,5.6633226,02/05/2023,,Eier (Selveier),4345,Bryne
Uelands gate 61 K,4950000,56,,1933.0,Leilighet,https://www.finn.no/realestate/homes/ad.html?finnkode=301232981,88392,59.933575,10.75033,02/05/2023,4.0,Eier (Selveier),460,Oslo
Lerkeveien 27,6450000,229,,1963.0,Enebolig,https://www.finn.no/realestate/homes/ad.html?finnkode=300600146,28165,59.944212,10.891401,02/05/2023,,Eier (Selveier),1053,Oslo
Borgveien 4B,4500000,196,,1963.0,Enebolig,https://www.finn.no/realestate/homes/ad.html?finnkode=294332260,22959,68.7832297,16.5322815,02/05/2023,,Eier (Selveier),9407,Harstad
Hans Nordahls gate 96 A,8950000,110,4.0,2013.0,Leilighet,https://www.finn.no/realestate/homes/ad.html?finnkode=301231216,81363,59.943615,10.777968,02/05/2023,3.0,Eier (Selveier),485,Oslo
Hyllveien 9D,6490000,109,,1959.0,Rekkehus,https://www.finn.no/realestate/homes/ad.html?finnkode=301229042,59541,63.4231551,10.3533463,02/05/2023,,Andel,7020,Trondheim
Husøyveien 10,6790000,304,,1958.0,Enebolig,https://www.finn.no/realestate/homes/ad.html?finnkode=301229126,22335,59.2397784,10.4592083,02/05/2023,,Eier (Selveier),3132,Husøysund
Olsrødsvingen 21B,5290000,129,,2005.0,Leilighet,https://www.finn.no/realestate/homes/ad.html?finnkode=301228222,41007,59.2776173,10.4472093,02/05/2023,2.0,Eier (Selveier),3150,Tolvsrød
Sannergata 5C,4400000,47,3.0,1942.0,Leilighet,https://www.finn.no/realestate/homes/ad.html?finnkode=300903321,93617,59.928169,10.757124,02/05/2023,3.0,Aksje,557,Oslo
Svingen 4,6800000,139,,2002.0,Leilighet,https://www.finn.no/realestate/homes/ad.html?finnkode=300891810,48920,59.2050624,10.9390901,02/05/2023,1.0,Eier (Selveier),1671,Kråkerøy
Fuglehauggata 14,12900000,104,3.0,1993.0,Leilighet,https://www.finn.no/realestate/homes/ad.html?finnkode=299417515,124038,59.925061,10.709993,02/05/2023,4.0,Eier (Selveier),263,Oslo
Svindalsvegen 34,1790000,136,6.0,1958.0,Enebolig,https://www.finn.no/realestate/homes/ad.html?finnkode=301226748,13161,60.6558507,5.3558291,02/05/2023,3.0,Eier (Selveier),5913,Eikangervåg
Nedre Strandgate 31 A,2650000,52,2.0,2012.0,Leilighet,https://www.finn.no/realestate/homes/ad.html?finnkode=301069401,50961,62.469946,6.145007,02/05/2023,2.0,Eier (Selveier),6004,Ålesund
Ospelia 49,3950000,96,4.0,1991.0,Leilighet,https://www.finn.no/realestate/homes/ad.html?finnkode=300896550,41145,59.7612416,10.8491376,02/05/2023,2.0,Eier (Selveier),1405,Langhus
Kristiansands gate 5,3500000,25,1.0,1955.0,Leilighet,https://www.finn.no/realestate/homes/ad.html?finnkode=300781780,140000,59.938208,10.753234,02/05/2023,2.0,Andel,463,Oslo
Hasleveien 26,3300000,59,3.0,2006.0,Leilighet,https://www.finn.no/realestate/homes/ad.html?finnkode=301223908,55932,59.928877,10.781497,02/05/2023,2.0,Andel,571,Oslo
Herslebs gate 37,5590000,75,,1987.0,Leilighet,https://www.finn.no/realestate/homes/ad.html?finnkode=301223846,74533,59.91533,10.767517,02/05/2023,1.0,Andel,578,Oslo
Rosenborggata 8,4500000,35,2.0,1894.0,Leilighet,https://www.finn.no/realestate/homes/ad.html?finnkode=301223856,128571,59.926303,10.724847,02/05/2023,3.0,Eier (Selveier),356,Oslo
Bergensgata 13C,4650000,55,2.0,1918.0,Leilighet,https://www.finn.no/realestate/homes/ad.html?finnkode=300440886,84545,59.94295,10.759982,02/05/2023,2.0,Aksje,468,Oslo
Finstadlia 123,5890000,138,,1978.0,Rekkehus,https://www.finn.no/realestate/homes/ad.html?finnkode=289649775,42681,59.912923,10.9684646,02/05/2023,,Andel,1475,Finstadjordet
Dælenenggata 23C,4950000,55,3.0,1931.0,Leilighet,https://www.finn.no/realestate/homes/ad.html?finnkode=301223932,90000,59.927436,10.771614,02/05/2023,3.0,Aksje,567,Oslo
Fernanda Nissens gate 4A,4750000,45,2.0,2015.0,Leilighet,https://www.finn.no/realestate/homes/ad.html?finnkode=300774563,105555,59.946232,10.769522,02/05/2023,3.0,Eier (Selveier),484,Oslo
Kåre B. Werners gate 95,2130000,78,3.0,2019.0,Leilighet,https://www.finn.no/realestate/homes/ad.html?finnkode=286579541,27307,59.916359,10.954217,02/05/2023,2.0,Andel,1475,Finstadjordet
Sandakerveien 10J,5000000,66,3.0,1935.0,Leilighet,https://www.finn.no/realestate/homes/ad.html?finnkode=298946200,75757,59.932348,10.758937,02/05/2023,5.0,Andel,473,Oslo
Fagerlivegen 17,4350000,211,,1953.0,Enebolig,https://www.finn.no/realestate/homes/ad.html?finnkode=300890207,20616,62.4746477,6.2241221,02/05/2023,,Eier (Selveier),6008,Ålesund
Pikåsveien 1J,3750000,98,4.0,2023.0,Rekkehus,https://www.finn.no/realestate/homes/ad.html?finnkode=300963261,38265,59.279908,10.247128,02/05/2023,2.0,Eier (Selveier),3160,Stokke
Idrettsveien 12D Ytre,6400000,141,7.0,2006.0,Enebolig,https://www.finn.no/realestate/homes/ad.html?finnkode=301220734,45390,59.731203,11.058988,02/05/2023,,Eier (Selveier),1914,Enebakk
Røbekklia 31,3500000,79,3.0,2020.0,Leilighet,https://www.finn.no/realestate/homes/ad.html?finnkode=300616172,44303,62.756496,7.287683,02/05/2023,2.0,Eier (Selveier),6420,Molde
Granstangen 34B,4350000,132,6.0,1979.0,Leilighet,https://www.finn.no/realestate/homes/ad.html?finnkode=300894094,32954,59.943763,10.898895,02/05/2023,1.0,Andel,1051,Oslo
Presteveien 6O,7890000,108,5.0,2018.0,Leilighet,https://www.finn.no/realestate/homes/ad.html?finnkode=301213131,73055,59.908408,10.559322,02/05/2023,,Eier (Selveier),1344,Haslum
Fretheimshaugane 32B,2950000,68,3.0,2020.0,Leilighet,https://www.finn.no/realestate/homes/ad.html?finnkode=300744235,43382,60.859251,7.109747,02/05/2023,1.0,Eier (Selveier),5743,Flåm
Byfogd Sandbergs gate 7D,1995000,52,,1991.0,Leilighet,https://www.finn.no/realestate/homes/ad.html?finnkode=297605674,38365,59.4323217,10.6646008,02/05/2023,1.0,Andel,1532,Moss
Casper Lundes veg 4 A,2590000,79,4.0,1971.0,Leilighet,https://www.finn.no/realestate/homes/ad.html?finnkode=301209714,32784,63.367855,10.353113,02/05/2023,4.0,Andel,7098,Saupstad
