address,price,area,rooms,year,type,url,price_per_m2,lat,lon,date,floor,ownership,postal_code,city
Halsmovegen 81,3200000,186,7.0,1975.0,Enebolig,https://www.finn.no/realestate/homes/ad.html?finnkode=301613246,17204,65.8603137,13.196042,10/05/2023,,Eier (Selveier),8663,Mosjøen
Nedre vei 13,6950000,119,5.0,1841.0,Enebolig,https://www.finn.no/realestate/homes/ad.html?finnkode=302627331,58403,59.4278812,10.4900379,10/05/2023,,Andel,3183,Horten
Fagerlia 15A,3800000,97,4.0,2018.0,Rekkehus,https://www.finn.no/realestate/homes/ad.html?finnkode=302510854,39175,61.595989,5.072051,10/05/2023,2.0,Eier (Selveier),6908,Florø
Store Skippergate 24,7990000,111,,1865.0,Enebolig,https://www.finn.no/realestate/homes/ad.html?finnkode=302652682,71981,58.9692027,5.7419036,10/05/2023,,Eier (Selveier),4013,Stavanger
Rødsvingelvegen 30,4490000,109,4.0,2023.0,Rekkehus,https://www.finn.no/realestate/homes/ad.html?finnkode=302678175,41192,60.219852,11.036625,10/05/2023,2.0,Eier (Selveier),2030,Nannestad
Landboden 67,2000000,48,3.0,1974.0,Leilighet,https://www.finn.no/realestate/homes/ad.html?finnkode=302656179,41666,60.1890944,5.4718966,10/05/2023,2.0,Eier (Selveier),5200,Os
Operagata 27,6490000,52,2.0,2019.0,Leilighet,https://www.finn.no/realestate/homes/ad.html?finnkode=302682676,124807,59.90723,10.756727,10/05/2023,2.0,Eier (Selveier),194,Oslo
Nyheimvegen 11,3400000,134,3.0,1965.0,Enebolig,https://www.finn.no/realestate/homes/ad.html?finnkode=300454043,25373,61.5939749,5.0088961,10/05/2023,2.0,Eier (Selveier),6905,Florø
Gildheimsvegen 5B,4490000,88,,2013.0,Leilighet,https://www.finn.no/realestate/homes/ad.html?finnkode=302680698,51022,63.4322031,10.4643742,10/05/2023,2.0,Eier (Selveier),7044,Trondheim
Skifabrikksvingen 11,3850000,44,,2021.0,Leilighet,https://www.finn.no/realestate/homes/ad.html?finnkode=302648518,87500,59.717072,10.800312,10/05/2023,3.0,Eier (Selveier),1406,Ski
Markavegen 53,3490000,287,,2000.0,Enebolig,https://www.finn.no/realestate/homes/ad.html?finnkode=302676834,12160,59.0932062,9.8068964,10/05/2023,,Eier (Selveier),3947,Langangen
Øvre Ulsrud 2,3700000,163,4.0,1979.0,Enebolig,https://www.finn.no/realestate/homes/ad.html?finnkode=295824623,22699,60.82176,10.6648273,10/05/2023,2.0,Eier (Selveier),2825,Gjøvik
Lenafjellet 6,3800000,84,3.0,2006.0,Leilighet,https://www.finn.no/realestate/homes/ad.html?finnkode=302329293,45238,59.212598,10.905661,10/05/2023,,Eier (Selveier),1621,Gressvik
Broveien 23,28500000,279,7.0,1988.0,Enebolig,https://www.finn.no/realestate/homes/ad.html?finnkode=302369670,102150,59.8727256,10.5094509,10/05/2023,,Eier (Selveier),1397,Nesøya
Skolestredet 13,6390000,174,,1890.0,Enebolig,https://www.finn.no/realestate/homes/ad.html?finnkode=302674254,36724,59.050866,10.011724,10/05/2023,,Eier (Selveier),3264,Larvik
Øvresflata 29A,495000,55,2.0,2016.0,Leilighet,https://www.finn.no/realestate/homes/ad.html?finnkode=301708936,9000,63.797962,11.164651,10/05/2023,1.0,Andel,7629,Ytterøy
Sørsidveien / Dobealebállgis 69,990000,149,4.0,1984.0,Enebolig,https://www.finn.no/realestate/homes/ad.html?finnkode=277631807,6644,68.550901,17.718805,10/05/2023,2.0,Eier (Selveier),8530,Bjerkvik
Tidemands gate 3,2390000,36,,1900.0,Leilighet,https://www.finn.no/realestate/homes/ad.html?finnkode=302671982,66388,60.3995565,5.3061807,10/05/2023,2.0,Andel,5005,Bergen
Tysemarkjo 65,2850000,80,,2014.0,Enebolig,https://www.finn.no/realestate/homes/ad.html?finnkode=302280451,35625,59.8050721,5.5064795,10/05/2023,,Eier (Selveier),5414,Stord
Svebakktunet 6B,1790000,70,3.0,2001.0,Leilighet,https://www.finn.no/realestate/homes/ad.html?finnkode=302658890,25571,59.4153072,5.3202768,10/05/2023,2.0,Eier (Selveier),5533,Haugesund
Tveitenveien 24C,2590000,85,3.0,1972.0,Leilighet,https://www.finn.no/realestate/homes/ad.html?finnkode=300908415,30470,59.3958582,10.4658249,10/05/2023,2.0,Andel,3186,Horten
Solveien 9B,5400000,105,4.0,1953.0,Rekkehus,https://www.finn.no/realestate/homes/ad.html?finnkode=302651670,51428,59.672084,10.6287059,10/05/2023,3.0,Eier (Selveier),1443,Drøbak
Lyngmarka 97,2850000,76,3.0,2003.0,Leilighet,https://www.finn.no/realestate/homes/ad.html?finnkode=302668707,37500,60.4048513,5.1830027,10/05/2023,1.0,Eier (Selveier),5302,Strusshamn
Midtveien 1,2200000,65,3.0,1953.0,Leilighet,https://www.finn.no/realestate/homes/ad.html?finnkode=302657906,33846,59.5779341,11.1725063,10/05/2023,2.0,Andel,1813,Askim
Fjellskaret 18,4250000,242,,1969.0,Enebolig,https://www.finn.no/realestate/homes/ad.html?finnkode=302505594,17561,62.7472638,7.2047995,10/05/2023,,Eier (Selveier),6416,Molde
Nordbøveien 10,7890000,211,6.0,1934.0,Tomannsbolig,https://www.finn.no/realestate/homes/ad.html?finnkode=302667796,37393,60.3833523,5.3636356,10/05/2023,,Eier (Selveier),5009,Bergen
Munkefaret 3,3750000,52,2.0,2005.0,Leilighet,https://www.finn.no/realestate/homes/ad.html?finnkode=293480793,72115,59.8538028,10.6701102,10/05/2023,3.0,Andel,1456,Nesoddtangen
Søster Mathildes gate 20B,4600000,68,3.0,2013.0,Leilighet,https://www.finn.no/realestate/homes/ad.html?finnkode=302667713,67647,59.91997,10.947324,10/05/2023,3.0,Eier (Selveier),1461,Lørenskog
Hæstadveien 68,1550000,68,5.0,1920.0,Enebolig,https://www.finn.no/realestate/homes/ad.html?finnkode=302667479,22794,66.0677041,12.5654391,10/05/2023,,Eier (Selveier),8820,Dønna
Heistad brygge 9,2490000,91,3.0,2018.0,Leilighet,https://www.finn.no/realestate/homes/ad.html?finnkode=302666896,27362,59.07727,9.693576,10/05/2023,4.0,Andel,3941,Porsgrunn
Edvard Griegs vei 3,4800000,96,,2007.0,Leilighet,https://www.finn.no/realestate/homes/ad.html?finnkode=290502264,50000,59.8104722,10.7965528,10/05/2023,1.0,Eier (Selveier),1410,Kolbotn
Balders veg 4 C,3190000,149,5.0,1977.0,Rekkehus,https://www.finn.no/realestate/homes/ad.html?finnkode=302666494,21409,63.7568082,11.2751142,10/05/2023,,Eier (Selveier),7602,Levanger
Skolegata 33,5800000,110,4.0,1910.0,Leilighet,https://www.finn.no/realestate/homes/ad.html?finnkode=283012925,52727,69.651349,18.951591,10/05/2023,1.0,Eier (Selveier),9008,Tromsø
Lørenvangen 19,3700000,86,3.0,2019.0,Leilighet,https://www.finn.no/realestate/homes/ad.html?finnkode=297018804,43023,59.9302785,10.7966862,10/05/2023,2.0,Andel,585,Oslo
Ura 3,2980000,76,3.0,1991.0,Leilighet,https://www.finn.no/realestate/homes/ad.html?finnkode=302663639,39210,58.927978,5.6081524,10/05/2023,1.0,Eier (Selveier),4056,Tananger
Romsåskroken 18,2450000,73,3.0,2016.0,Leilighet,https://www.finn.no/realestate/homes/ad.html?finnkode=302665125,33561,58.160517,7.104396,10/05/2023,1.0,Eier (Selveier),4580,Lyngdal
Tuaveien 44,1100000,185,5.0,1954.0,Enebolig,https://www.finn.no/realestate/homes/ad.html?finnkode=302665105,5945,68.811359,15.155442,10/05/2023,,Eier (Selveier),8430,Myre
Sagvegen 22A,3100000,82,3.0,2002.0,Leilighet,https://www.finn.no/realestate/homes/ad.html?finnkode=302623053,37804,60.1322085,11.4857499,10/05/2023,1.0,Eier (Selveier),2150,Årnes
Nedre Bergsvingen 5,16500000,505,11.0,1940.0,Enebolig,https://www.finn.no/realestate/homes/ad.html?finnkode=289227858,32673,63.4174218,10.4176909,10/05/2023,,Eier (Selveier),7052,Trondheim
Strimmelen 42,3190000,61,3.0,1957.0,Leilighet,https://www.finn.no/realestate/homes/ad.html?finnkode=302665059,52295,60.3558628,5.3697307,10/05/2023,1.0,Andel,5097,Bergen
Kongslysvegen 1,11800000,363,7.0,2017.0,Enebolig,https://www.finn.no/realestate/homes/ad.html?finnkode=267627320,32506,60.1824678,11.9835803,10/05/2023,,Eier (Selveier),2208,Kongsvinger
Valhallveien 8C,2200000,80,3.0,1982.0,Leilighet,https://www.finn.no/realestate/homes/ad.html?finnkode=302368023,27500,60.1779173,10.203622,10/05/2023,2.0,Andel,3518,Hønefoss
Martin Skatvedts vei 9,3900000,64,3.0,1954.0,Leilighet,https://www.finn.no/realestate/homes/ad.html?finnkode=301439227,60937,59.950575,10.86272,10/05/2023,3.0,Andel,950,Oslo
Oppenåsen 79,2890000,104,4.0,1980.0,Leilighet,https://www.finn.no/realestate/homes/ad.html?finnkode=293220392,27788,60.1884459,10.1969756,10/05/2023,,Eier (Selveier),3518,Hønefoss
Silovegen 46D,2790000,88,3.0,1988.0,Leilighet,https://www.finn.no/realestate/homes/ad.html?finnkode=301805177,31704,60.1276056,11.4715573,10/05/2023,2.0,Andel,2150,Årnes
Brenneveien 10B,7990000,175,,1986.0,Tomannsbolig,https://www.finn.no/realestate/homes/ad.html?finnkode=302662963,45657,59.914234,10.475134,10/05/2023,,Eier (Selveier),1339,Vøyenenga
Rønninglia 48 A,2450000,70,3.0,2001.0,Leilighet,https://www.finn.no/realestate/homes/ad.html?finnkode=302662960,35000,59.2904026,10.4843032,10/05/2023,1.0,Andel,3153,Tolvsrød
Våjeveien 514,1890000,163,,1980.0,Enebolig,https://www.finn.no/realestate/homes/ad.html?finnkode=302662615,11595,58.5524288,8.8369481,10/05/2023,,Eier (Selveier),4849,Arendal
Kvernhusdalen 31,2690000,60,3.0,2016.0,Leilighet,https://www.finn.no/realestate/homes/ad.html?finnkode=302662276,44833,60.416905,5.2008926,10/05/2023,1.0,Eier (Selveier),5308,Kleppestø
Bråtenlia 11B,2200000,39,,2006.0,Leilighet,https://www.finn.no/realestate/homes/ad.html?finnkode=302661506,56410,60.0338616,11.3551311,10/05/2023,1.0,Eier (Selveier),1929,Auli
Sørsida,1350000,115,6.0,1974.0,Enebolig,https://www.finn.no/realestate/homes/ad.html?finnkode=302661331,11739,61.888144,5.655847,10/05/2023,,Eier (Selveier),2491,Davik
Grålumveien 63D,2650000,64,3.0,2006.0,Leilighet,https://www.finn.no/realestate/homes/ad.html?finnkode=302650944,41406,59.2762632,11.0428128,10/05/2023,2.0,Eier (Selveier),1718,Greåker
Holstneset 4,1850000,55,2.0,2020.0,Leilighet,https://www.finn.no/realestate/homes/ad.html?finnkode=302655858,33636,68.806973,16.546005,10/05/2023,5.0,Andel,9404,Harstad
Nattlandsveien 52A,2150000,51,2.0,1951.0,Leilighet,https://www.finn.no/realestate/homes/ad.html?finnkode=302627247,42156,60.36425,5.366165,10/05/2023,3.0,Andel,5093,Bergen
Nattlandsveien 100G,2690000,65,,1959.0,Leilighet,https://www.finn.no/realestate/homes/ad.html?finnkode=302660248,41384,60.3531727,5.3689596,10/05/2023,2.0,Andel,5094,Bergen
Leangveien 60,6000000,130,4.0,1972.0,Tomannsbolig,https://www.finn.no/realestate/homes/ad.html?finnkode=302490502,46153,59.8329324,10.4518238,10/05/2023,2.0,Eier (Selveier),1387,Asker
Vesternbakken 2B,8300000,208,,2022.0,Tomannsbolig,https://www.finn.no/realestate/homes/ad.html?finnkode=302581812,39903,60.167825,10.276975,10/05/2023,3.0,Eier (Selveier),3513,Hønefoss
Bringebærveien 27,2900000,64,3.0,2020.0,Leilighet,https://www.finn.no/realestate/homes/ad.html?finnkode=302511257,45312,59.875214,11.575497,10/05/2023,1.0,Eier (Selveier),1940,Bjørkelangen
Brunholmgata 1C,2990000,51,,1988.0,Leilighet,https://www.finn.no/realestate/homes/ad.html?finnkode=302659991,58627,62.4730763,6.1536792,10/05/2023,2.0,Eier (Selveier),6004,Ålesund
Langoddveien 7,13200000,96,,2011.0,Leilighet,https://www.finn.no/realestate/homes/ad.html?finnkode=302643546,137500,59.8876976,10.6161608,10/05/2023,1.0,Eier (Selveier),1367,Snarøya
Bøvågvegen 14,2450000,170,,1951.0,Enebolig,https://www.finn.no/realestate/homes/ad.html?finnkode=281175586,14411,59.3662191,5.2810626,10/05/2023,,Eier (Selveier),4262,Avaldsnes
Gamle Skurdalsvegen 80,3650000,87,3.0,2018.0,Leilighet,https://www.finn.no/realestate/homes/ad.html?finnkode=302659572,41954,60.524808,8.219177,10/05/2023,2.0,Eier (Selveier),3580,Geilo
Seilmakergata 11B,2790000,72,3.0,1994.0,Leilighet,https://www.finn.no/realestate/homes/ad.html?finnkode=302579585,38750,64.4687902,11.4812611,10/05/2023,2.0,Eier (Selveier),7802,Namsos
Stavangergata 46A,2700000,17,1.0,1955.0,Leilighet,https://www.finn.no/realestate/homes/ad.html?finnkode=302648050,158823,59.944407,10.758821,10/05/2023,3.0,Andel,467,Oslo
Storgata 4,3100000,119,,1890.0,Enebolig,https://www.finn.no/realestate/homes/ad.html?finnkode=302653035,26050,65.4690597,12.20406,10/05/2023,,Eier (Selveier),8904,Brønnøysund
Louises gate 10,5240000,104,,2021.0,Leilighet,https://www.finn.no/realestate/homes/ad.html?finnkode=294729157,50384,59.211081,9.606059,10/05/2023,1.0,Andel,3717,Skien
Hovseterveien 66A,5650000,90,4.0,1975.0,Leilighet,https://www.finn.no/realestate/homes/ad.html?finnkode=301518140,62777,59.949996,10.652709,10/05/2023,4.0,Andel,768,Oslo
Oksvalveien 31,11500000,188,6.0,1975.0,Enebolig,https://www.finn.no/realestate/homes/ad.html?finnkode=294343719,61170,59.8589878,10.6706026,10/05/2023,,Eier (Selveier),1456,Nesoddtangen
Tyssøyvågen 12,8750000,129,,1998.0,Enebolig,https://www.finn.no/realestate/homes/ad.html?finnkode=302658674,67829,60.2962508,5.1569969,10/05/2023,,Eier (Selveier),5177,Bjørøyhamn
Bjarne Haugens gate 41,1230000,45,,2023.0,Leilighet,https://www.finn.no/realestate/homes/ad.html?finnkode=302658440,27333,59.917683,10.953805,10/05/2023,3.0,Andel,1475,Finstadjordet
Gundesøhagen 2B,5190000,263,,1991.0,Enebolig,https://www.finn.no/realestate/homes/ad.html?finnkode=265716070,19733,59.6794573,10.2473586,10/05/2023,,Eier (Selveier),3039,Drammen
Nebbestølen 55,3200000,95,3.0,1973.0,Leilighet,https://www.finn.no/realestate/homes/ad.html?finnkode=302648568,33684,60.351725,5.292769,10/05/2023,1.0,Andel,5144,Fyllingsdalen
Lauritz Hervigs vei 100A,2490000,82,3.0,1968.0,Leilighet,https://www.finn.no/realestate/homes/ad.html?finnkode=302626026,30365,59.7146735,10.228012,10/05/2023,2.0,Andel,3035,Drammen
Timrehaugvegen 93F,3300000,79,3.0,2015.0,Leilighet,https://www.finn.no/realestate/homes/ad.html?finnkode=300743771,41772,60.538693,8.222814,10/05/2023,1.0,Eier (Selveier),3580,Geilo
Rundåslia 19,2790000,181,5.0,1969.0,Enebolig,https://www.finn.no/realestate/homes/ad.html?finnkode=302545445,15414,58.2725044,7.9840791,10/05/2023,2.0,Eier (Selveier),4707,Vennesla
Fjellkroken 49A,5250000,123,4.0,1995.0,Enebolig,https://www.finn.no/realestate/homes/ad.html?finnkode=302340714,42682,60.087554,10.993956,10/05/2023,,Eier (Selveier),2022,Gjerdrum
Hjalmar Haalkes veg 4,2290000,37,1.0,1969.0,Leilighet,https://www.finn.no/realestate/homes/ad.html?finnkode=302648114,61891,63.4042334,10.4331982,10/05/2023,1.0,Andel,7033,Trondheim
Tangenheia 8C,3700000,115,4.0,2020.0,Enebolig,https://www.finn.no/realestate/homes/ad.html?finnkode=302535509,32173,58.622446,8.943573,10/05/2023,2.0,Eier (Selveier),4904,Tvedestrand
Sørkedalsveien 227,9900000,153,,1950.0,Tomannsbolig,https://www.finn.no/realestate/homes/ad.html?finnkode=262133495,64705,59.955154,10.643887,10/05/2023,1.0,Eier (Selveier),754,Oslo
Mosevegen 1,2590000,145,4.0,1971.0,Rekkehus,https://www.finn.no/realestate/homes/ad.html?finnkode=302500537,17862,60.904359,11.568221,10/05/2023,,Andel,2409,Elverum
Johannes Skraastads gate 4,3650000,70,4.0,1953.0,Leilighet,https://www.finn.no/realestate/homes/ad.html?finnkode=302652023,52142,60.7987803,11.0864984,10/05/2023,1.0,Eier (Selveier),2318,Hamar
Vollveien 1,12500000,446,,1923.0,Enebolig,https://www.finn.no/realestate/homes/ad.html?finnkode=302285531,28026,59.4252157,10.4930583,10/05/2023,2.0,Eier (Selveier),3183,Horten
Støylavegen 19,1990000,234,6.0,1967.0,Enebolig,https://www.finn.no/realestate/homes/ad.html?finnkode=302653685,8504,62.3458353,5.696519,10/05/2023,3.0,Eier (Selveier),6094,Leinøy
Lagårdveien 31,2390000,84,3.0,1967.0,Leilighet,https://www.finn.no/realestate/homes/ad.html?finnkode=302299243,28452,67.2979555,14.4116469,10/05/2023,,Andel,8012,Bodø
Klypa 11,2850000,81,4.0,2018.0,Enebolig,https://www.finn.no/realestate/homes/ad.html?finnkode=302652637,35185,59.482166,6.264918,10/05/2023,1.0,Eier (Selveier),4230,Sand
Kirkeveien 57,3500000,34,2.0,1932.0,Leilighet,https://www.finn.no/realestate/homes/ad.html?finnkode=300869925,102941,59.927927,10.71413,10/05/2023,2.0,Eier (Selveier),368,Oslo
Skjebergveien 175,2990000,116,3.0,1940.0,Enebolig,https://www.finn.no/realestate/homes/ad.html?finnkode=302490719,25775,59.246495,11.1858855,10/05/2023,,Eier (Selveier),1743,Klavestadhaugen
Galnåsen 28,6150000,111,5.0,1976.0,Enebolig,https://www.finn.no/realestate/homes/ad.html?finnkode=302465013,55405,67.2826972,14.5318278,10/05/2023,,Eier (Selveier),8022,Bodø
Stemmelia 42,6990000,182,6.0,1965.0,Enebolig,https://www.finn.no/realestate/homes/ad.html?finnkode=302651792,38406,60.3159692,5.367587,10/05/2023,,Eier (Selveier),5223,Nesttun
Tinnosvegen 82,3790000,183,8.0,1900.0,Gårdsbruk/Småbruk,https://www.finn.no/realestate/homes/ad.html?finnkode=296713584,20710,59.72739,9.020467,10/05/2023,,Eier (Selveier),3691,Gransherad
Smørblomstenga 3E,2250000,78,,2010.0,Leilighet,https://www.finn.no/realestate/homes/ad.html?finnkode=302651239,28846,58.400232,8.687891,10/05/2023,2.0,Eier (Selveier),4823,Nedenes
Ingebjørg Holthes vei 7,5250000,100,4.0,2008.0,Leilighet,https://www.finn.no/realestate/homes/ad.html?finnkode=302521629,52500,59.675228,9.6495769,10/05/2023,1.0,Eier (Selveier),3612,Kongsberg
Stakkevollvegen 96Q,1690000,36,2.0,2006.0,Leilighet,https://www.finn.no/realestate/homes/ad.html?finnkode=302650278,46944,69.6670486,18.9684911,10/05/2023,4.0,Andel,9010,Tromsø
Høllandsvegen 8,3490000,348,,1977.0,Enebolig,https://www.finn.no/realestate/homes/ad.html?finnkode=302502271,10028,59.6530132,6.3509212,10/05/2023,,Eier (Selveier),4200,Sauda
Skalpebekken 7,3990000,120,4.0,1922.0,Tomannsbolig,https://www.finn.no/realestate/homes/ad.html?finnkode=302650410,33250,59.749373,9.999224,10/05/2023,1.0,Eier (Selveier),3050,Mjøndalen
Melanvegen 1,3390000,180,,1989.0,Tomannsbolig,https://www.finn.no/realestate/homes/ad.html?finnkode=302650356,18833,63.45076,10.978938,10/05/2023,,Eier (Selveier),7514,Stjørdal
Gjærsjøvegen 1,2600000,196,5.0,1952.0,Enebolig,https://www.finn.no/realestate/homes/ad.html?finnkode=302650435,13265,60.5184668,10.3979277,10/05/2023,2.0,Eier (Selveier),2760,Brandbu
Nordbølia 49 Bø i,6200000,170,,2020.0,Enebolig,https://www.finn.no/realestate/homes/ad.html?finnkode=302649919,36470,59.406328,9.032378,10/05/2023,,Eier (Selveier),3803,Telemark
Fransstuvegen 32C Eidsvoll,3490000,63,3.0,2016.0,Leilighet,https://www.finn.no/realestate/homes/ad.html?finnkode=302636789,55396,60.2856069,11.1629047,10/05/2023,1.0,Eier (Selveier),2074,Verk
Fanavegen 89A,4290000,53,3.0,2021.0,Leilighet,https://www.finn.no/realestate/homes/ad.html?finnkode=302649673,80943,60.29641,5.325577,10/05/2023,8.0,Eier (Selveier),5239,Rådal
Klovhøyen 16,1790000,127,,1906.0,Enebolig,https://www.finn.no/realestate/homes/ad.html?finnkode=302648284,14094,60.4785109,4.9367041,10/05/2023,1.0,Eier (Selveier),5337,Rong
Galeasgata 4,1200000,66,3.0,1957.0,Leilighet,https://www.finn.no/realestate/homes/ad.html?finnkode=302373102,18181,63.1202437,7.7238986,10/05/2023,1.0,Andel,6510,Kristiansund N
Kjærlighetsstien 29B,1750000,79,3.0,1961.0,Leilighet,https://www.finn.no/realestate/homes/ad.html?finnkode=302643235,22151,59.1292172,11.3740179,10/05/2023,3.0,Andel,1781,Halden
Boktavegen 16,3750000,156,5.0,1945.0,Enebolig,https://www.finn.no/realestate/homes/ad.html?finnkode=302647959,24038,59.2624372,5.183642,10/05/2023,3.0,Eier (Selveier),4270,Åkrehamn
Jonas Reins gate 5,2900000,36,2.0,2005.0,Leilighet,https://www.finn.no/realestate/homes/ad.html?finnkode=302647755,80555,60.3867316,5.3302452,10/05/2023,,Eier (Selveier),5008,Bergen
Nordre Skogveien 6,3690000,71,,1951.0,Leilighet,https://www.finn.no/realestate/homes/ad.html?finnkode=302646444,51971,60.3768676,5.3271985,10/05/2023,3.0,Eier (Selveier),5057,Bergen
Øverbygdsvegen 3C,1950000,72,2.0,1951.0,Leilighet,https://www.finn.no/realestate/homes/ad.html?finnkode=302514502,27083,60.959947,10.6061819,10/05/2023,1.0,Eier (Selveier),2836,Biri
Ørevikvegen 34,2500000,178,4.0,1980.0,Enebolig,https://www.finn.no/realestate/homes/ad.html?finnkode=302645395,14044,59.7917065,5.307136,10/05/2023,2.0,Eier (Selveier),5428,Foldrøyhamn
Tyttebærstien 29,7250000,149,6.0,1982.0,Rekkehus,https://www.finn.no/realestate/homes/ad.html?finnkode=302645030,48657,59.914911,10.9324317,10/05/2023,,Andel,1476,Rasta
Stasjonsvegen 24E,1200000,84,2.0,2005.0,Leilighet,https://www.finn.no/realestate/homes/ad.html?finnkode=302644836,14285,60.8181475,11.3407874,10/05/2023,1.0,Andel,2340,Løten
Langeduken 16A,2190000,119,4.0,2003.0,Tomannsbolig,https://www.finn.no/realestate/homes/ad.html?finnkode=302643898,18403,59.2008876,9.5418358,10/05/2023,,Eier (Selveier),3731,Skien
Slåttvegen 45,5390000,178,8.0,1988.0,Enebolig,https://www.finn.no/realestate/homes/ad.html?finnkode=301854639,30280,60.8013042,11.3388032,10/05/2023,,Eier (Selveier),2340,Løten
Vassledvegen 5,2850000,66,3.0,2019.0,Leilighet,https://www.finn.no/realestate/homes/ad.html?finnkode=302641532,43181,58.773305,5.731453,10/05/2023,2.0,Eier (Selveier),4355,Kvernaland
Steinhagen 65,2750000,81,2.0,2007.0,Leilighet,https://www.finn.no/realestate/homes/ad.html?finnkode=302605130,33950,59.011616,6.055019,10/05/2023,3.0,Eier (Selveier),4105,Jørpeland
Elstadlia 37,5390000,254,,1981.0,Enebolig,https://www.finn.no/realestate/homes/ad.html?finnkode=302642647,21220,60.3369562,11.2937228,10/05/2023,,Eier (Selveier),2080,Eidsvoll
Ulvøysundveien 113,9750000,134,6.0,1860.0,Gårdsbruk/Småbruk,https://www.finn.no/realestate/homes/ad.html?finnkode=302479937,72761,58.132669,8.210234,10/05/2023,3.0,Eier (Selveier),4770,Høvåg
Pilerødvegen 19,2590000,224,,1955.0,Enebolig,https://www.finn.no/realestate/homes/ad.html?finnkode=302641283,11562,59.2795157,9.2653288,10/05/2023,,Eier (Selveier),3830,Ulefoss
Øyjordveien 2,1790000,159,3.0,1949.0,Tomannsbolig,https://www.finn.no/realestate/homes/ad.html?finnkode=302641765,11257,69.672316,29.954424,10/05/2023,1.0,Eier (Selveier),9910,Bjørnevatn
Nordskjørveien,620000,92,,1929.0,Enebolig,https://www.finn.no/realestate/homes/ad.html?finnkode=290726859,6739,64.1262667,10.132298,10/05/2023,,Eier (Selveier),1091,Roan
Sandakerveien 29D,3550000,34,,1921.0,Leilighet,https://www.finn.no/realestate/homes/ad.html?finnkode=300930947,104411,59.934662,10.762586,10/05/2023,1.0,Andel,473,Oslo
Sandskaret 18,9750000,326,10.0,1971.0,Enebolig,https://www.finn.no/realestate/homes/ad.html?finnkode=302641668,29907,58.8421929,5.7235389,10/05/2023,2.0,Eier (Selveier),4319,Sandnes
Førreneset 36,2590000,113,3.0,2010.0,Tomannsbolig,https://www.finn.no/realestate/homes/ad.html?finnkode=302558041,22920,59.4189534,5.3851129,10/05/2023,2.0,Eier (Selveier),5563,Førresfjorden
Vormvikbakken 94,1990000,41,,2006.0,Leilighet,https://www.finn.no/realestate/homes/ad.html?finnkode=302640058,48536,60.3280152,11.2688374,10/05/2023,2.0,Andel,2080,Eidsvoll
Herrejordet 20,2325000,174,,1989.0,Enebolig,https://www.finn.no/realestate/homes/ad.html?finnkode=277956577,13362,59.1035743,9.5565886,10/05/2023,2.0,Eier (Selveier),3965,Herre
Leiv Eirikssons vei 51B,2990000,173,,1953.0,Enebolig,https://www.finn.no/realestate/homes/ad.html?finnkode=302640080,17283,59.0663899,10.0323117,10/05/2023,,Eier (Selveier),3269,Larvik
Brattbakken 6,4490000,239,5.0,1950.0,Enebolig,https://www.finn.no/realestate/homes/ad.html?finnkode=302382267,18786,60.983581,9.25606,10/05/2023,,Eier (Selveier),2900,Fagernes
Furulia 1A,4900000,108,,1978.0,Rekkehus,https://www.finn.no/realestate/homes/ad.html?finnkode=302481728,45370,59.755925,10.824368,10/05/2023,,Eier (Selveier),1405,Langhus
Nordbyveien 33C,8500000,284,5.0,1988.0,Enebolig,https://www.finn.no/realestate/homes/ad.html?finnkode=300198106,29929,59.720629,10.818924,10/05/2023,,Eier (Selveier),1406,Ski
Oppedalsvegen 80,3700000,177,7.0,1967.0,Enebolig,https://www.finn.no/realestate/homes/ad.html?finnkode=280628418,20903,61.92684,5.082267,10/05/2023,,Eier (Selveier),6700,Måløy
Elgstien 30B,2590000,80,3.0,2005.0,Leilighet,https://www.finn.no/realestate/homes/ad.html?finnkode=302518409,32375,59.031775,6.035919,10/05/2023,2.0,Eier (Selveier),4103,Jørpeland
Varpelia 16,4750000,211,6.0,1967.0,Enebolig,https://www.finn.no/realestate/homes/ad.html?finnkode=302638440,22511,59.196112,9.5747406,10/05/2023,,Eier (Selveier),3728,Skien
Maridalsveien 196,3350000,38,,1967.0,Leilighet,https://www.finn.no/realestate/homes/ad.html?finnkode=302638291,88157,59.941626,10.762311,10/05/2023,,Eier (Selveier),469,Oslo
Kongens gate 110,4690000,115,,1917.0,Leilighet,https://www.finn.no/realestate/homes/ad.html?finnkode=302637059,40782,63.430416,10.377988,10/05/2023,1.0,Eier (Selveier),7012,Trondheim
Lilleby 9,1580000,200,,1973.0,Enebolig,https://www.finn.no/realestate/homes/ad.html?finnkode=302633123,7900,59.22155,11.705847,10/05/2023,,Eier (Selveier),1798,Aremark
Tomasjordnes 150,1450000,29,1.0,2008.0,Leilighet,https://www.finn.no/realestate/homes/ad.html?finnkode=294773733,50000,69.6667084,19.0197337,10/05/2023,2.0,Andel,9024,Tomasjord
Ekraveien 8,18200000,195,,2023.0,Leilighet,https://www.finn.no/realestate/homes/ad.html?finnkode=299427373,93333,59.951478,10.639035,10/05/2023,,Eier (Selveier),754,Oslo
Dampsaga allé 8,4200000,81,,2013.0,Leilighet,https://www.finn.no/realestate/homes/ad.html?finnkode=302635056,51851,60.1414643,11.1792636,10/05/2023,2.0,Eier (Selveier),2053,Jessheim
Vassfaret 2,6200000,74,4.0,1952.0,Leilighet,https://www.finn.no/realestate/homes/ad.html?finnkode=302635076,83783,59.952356,10.681316,10/05/2023,2.0,Eier (Selveier),773,Oslo
Rathkes gate 16 b,6900000,67,3.0,1903.0,Leilighet,https://www.finn.no/realestate/homes/ad.html?finnkode=302635049,102985,59.921689,10.765547,10/05/2023,4.0,Andel,558,Oslo
Gladengveien 7D,3250000,48,,2023.0,Leilighet,https://www.finn.no/realestate/homes/ad.html?finnkode=302634986,67708,59.915617,10.790002,10/05/2023,2.0,Andel,661,Oslo
Hovedgaten 41A,3690000,85,3.0,2021.0,Leilighet,https://www.finn.no/realestate/homes/ad.html?finnkode=302497135,43411,59.283754,5.307763,10/05/2023,2.0,Eier (Selveier),4250,Kopervik
Strengereidplatået 85,7500000,204,,2020.0,Enebolig,https://www.finn.no/realestate/homes/ad.html?finnkode=302634592,36764,58.5296539,8.8967238,10/05/2023,,Eier (Selveier),4810,Eydehavn
Damstien 15A,3750000,169,,1987.0,Tomannsbolig,https://www.finn.no/realestate/homes/ad.html?finnkode=300881815,22189,60.1863384,11.9802853,10/05/2023,,Eier (Selveier),2208,Kongsvinger
Sjønnerudvegen 7,2000000,184,3.0,1960.0,Enebolig,https://www.finn.no/realestate/homes/ad.html?finnkode=301647514,10869,60.237612,11.744358,10/05/2023,3.0,Eier (Selveier),2100,Skarnes
Rikke Moksnes vei 6A,2890000,74,,2007.0,Leilighet,https://www.finn.no/realestate/homes/ad.html?finnkode=302633648,39054,63.473753,10.949169,10/05/2023,,Eier (Selveier),7506,Stjørdal
Rugdeveien 44,2500000,58,2.0,1958.0,Leilighet,https://www.finn.no/realestate/homes/ad.html?finnkode=302608661,43103,60.3607855,5.3689827,10/05/2023,2.0,Andel,5097,Bergen
Olav Aukrusts veg 9A,3350000,81,4.0,1959.0,Leilighet,https://www.finn.no/realestate/homes/ad.html?finnkode=302632887,41358,61.1254973,10.4680226,10/05/2023,3.0,Andel,2618,Lillehammer
Engsvingelveien 26,4500000,140,5.0,1992.0,Enebolig,https://www.finn.no/realestate/homes/ad.html?finnkode=302355951,32142,69.9595499,23.3665568,10/05/2023,2.0,Eier (Selveier),9516,Alta
Høiendal 9,2550000,55,,1965.0,Leilighet,https://www.finn.no/realestate/homes/ad.html?finnkode=301623173,46363,59.235867,10.961763,10/05/2023,4.0,Andel,1617,Fredrikstad
Wrights gate 20,4790000,244,4.0,1947.0,Enebolig,https://www.finn.no/realestate/homes/ad.html?finnkode=302446961,19631,59.0015894,9.7441746,10/05/2023,,Eier (Selveier),3970,Langesund
Åsetvegen 126,2300000,183,4.0,1983.0,Enebolig,https://www.finn.no/realestate/homes/ad.html?finnkode=302341500,12568,61.0486391,10.7576746,10/05/2023,2.0,Eier (Selveier),2365,Åsmarka
Bendixens vei 16,3500000,63,3.0,1947.0,Leilighet,https://www.finn.no/realestate/homes/ad.html?finnkode=302631817,55555,60.3623051,5.3538799,10/05/2023,2.0,Andel,5063,Bergen
Bukkholtvegen 27,4990000,67,6.0,2021.0,Enebolig,https://www.finn.no/realestate/homes/ad.html?finnkode=261355361,74477,60.71231,11.210907,10/05/2023,,Eier (Selveier),2335,Stange
Rognerudvegen 22,2990000,214,,1958.0,Enebolig,https://www.finn.no/realestate/homes/ad.html?finnkode=302474405,13971,60.7307945,10.6242273,10/05/2023,2.0,Eier (Selveier),2834,Raufoss
Øvregaten 23,3390000,42,3.0,1900.0,Leilighet,https://www.finn.no/realestate/homes/ad.html?finnkode=302528410,80714,60.397843,5.325449,10/05/2023,3.0,Eier (Selveier),5003,Bergen
Kløversvingen 50,4250000,115,,1988.0,Rekkehus,https://www.finn.no/realestate/homes/ad.html?finnkode=302500304,36956,59.7623399,10.8444798,10/05/2023,,Eier (Selveier),1405,Langhus
Kleivabergvegen 16,1300000,164,,1928.0,Enebolig,https://www.finn.no/realestate/homes/ad.html?finnkode=302629950,7926,61.427789,5.172937,10/05/2023,,Eier (Selveier),6984,Stongfjorden
Årstadveien 20 Hauge i,1750000,106,4.0,2014.0,Andre,https://www.finn.no/realestate/homes/ad.html?finnkode=302604760,16509,58.342936,6.292651,10/05/2023,,Eier (Selveier),4380,Dalane
Einvegen 3,3650000,197,5.0,1966.0,Enebolig,https://www.finn.no/realestate/homes/ad.html?finnkode=302627864,18527,62.6641113,8.5933713,10/05/2023,,Eier (Selveier),6600,Sunndalsøra
Nikkelveien 9,2890000,101,,2004.0,Leilighet,https://www.finn.no/realestate/homes/ad.html?finnkode=302628605,28613,58.1432148,7.9586473,10/05/2023,1.0,Andel,4629,Kristiansand S
Kvernhusbakken 76,8690000,232,,,Enebolig,https://www.finn.no/realestate/homes/ad.html?finnkode=302628438,37456,58.832433,5.772488,10/05/2023,,Eier (Selveier),4326,Sandnes
Margarethas vei 21,6990000,112,,2003.0,Leilighet,https://www.finn.no/realestate/homes/ad.html?finnkode=300898193,62410,59.9279716,10.9476498,10/05/2023,5.0,Eier (Selveier),1473,Lørenskog
Tyholtveien 87B,9490000,213,,2001.0,Enebolig,https://www.finn.no/realestate/homes/ad.html?finnkode=296738296,44553,63.4269715,10.4356546,10/05/2023,3.0,Eier (Selveier),7046,Trondheim
Skolehusveien 19B,10600000,228,,2020.0,Enebolig,https://www.finn.no/realestate/homes/ad.html?finnkode=302373266,46491,59.726446,10.761759,10/05/2023,,Eier (Selveier),1407,Vinterbro
Luftå 18,4990000,122,6.0,2012.0,Enebolig,https://www.finn.no/realestate/homes/ad.html?finnkode=302627231,40901,58.8198858,5.7042587,10/05/2023,,Eier (Selveier),4322,Sandnes
Måltrostveien 12B,4350000,124,4.0,1969.0,Rekkehus,https://www.finn.no/realestate/homes/ad.html?finnkode=290962389,35080,59.79313,10.880387,10/05/2023,,Eier (Selveier),1404,Siggerud
Leireveien 3,3390000,122,3.0,1956.0,Enebolig,https://www.finn.no/realestate/homes/ad.html?finnkode=302626438,27786,59.7431398,9.9898755,10/05/2023,2.0,Eier (Selveier),3050,Mjøndalen
Kantarellvegen 53,4190000,160,4.0,1987.0,Leilighet,https://www.finn.no/realestate/homes/ad.html?finnkode=302626137,26187,69.7020755,18.897117,10/05/2023,,Andel,9102,Kvaløysletta
Kyrkjegata 8,1090000,78,3.0,1955.0,Leilighet,https://www.finn.no/realestate/homes/ad.html?finnkode=302626067,13974,62.6715713,8.5669889,10/05/2023,2.0,Andel,6600,Sunndalsøra
Åptaveien 16,2390000,235,,1950.0,Enebolig,https://www.finn.no/realestate/homes/ad.html?finnkode=302625781,10170,58.10183,6.75879,10/05/2023,,Eier (Selveier),4550,Farsund
Jutulvegen 41 Eidsvoll,7190000,259,,1971.0,Enebolig,https://www.finn.no/realestate/homes/ad.html?finnkode=295189451,27760,60.2804575,11.1492341,10/05/2023,,Eier (Selveier),2074,Verk
Sandheimsvegen 5F,2350000,46,2.0,2004.0,Leilighet,https://www.finn.no/realestate/homes/ad.html?finnkode=302508630,51086,61.1272006,10.4450164,10/05/2023,2.0,Eier (Selveier),2619,Lillehammer
Statsrådvegen 75D Eidsvoll,4450000,96,4.0,2001.0,Enebolig,https://www.finn.no/realestate/homes/ad.html?finnkode=302608836,46354,60.2875808,11.1608452,10/05/2023,1.0,Eier (Selveier),2074,Verk
Øvaldvegen 28,5950000,342,,1973.0,Enebolig,https://www.finn.no/realestate/homes/ad.html?finnkode=302624757,17397,59.1057747,9.6994278,10/05/2023,3.0,Eier (Selveier),3944,Porsgrunn
Naustvegen 13,1890000,46,2.0,1972.0,Leilighet,https://www.finn.no/realestate/homes/ad.html?finnkode=302624220,41086,60.488913,5.2625103,10/05/2023,1.0,Andel,5136,Mjølkeråen
Sørenstuvegen 19,6990000,170,,1954.0,Enebolig,https://www.finn.no/realestate/homes/ad.html?finnkode=302624054,41117,60.148165,11.174172,10/05/2023,,Eier (Selveier),2066,Jessheim
Hurumveien 37,4900000,155,5.0,1937.0,Enebolig,https://www.finn.no/realestate/homes/ad.html?finnkode=288377046,31612,59.714751,10.4888,10/05/2023,,Eier (Selveier),3474,Åros
Knipleveien 33C,5750000,108,,1800.0,Enebolig,https://www.finn.no/realestate/homes/ad.html?finnkode=300758780,53240,59.223518,10.932914,10/05/2023,2.0,Eier (Selveier),1613,Fredrikstad
Sanddalsvegen 11C,3500000,63,3.0,2012.0,Leilighet,https://www.finn.no/realestate/homes/ad.html?finnkode=302489994,55555,60.3206857,5.3549273,10/05/2023,5.0,Eier (Selveier),5221,Nesttun
Vetletveitvegen 46,1490000,164,4.0,1975.0,Enebolig,https://www.finn.no/realestate/homes/ad.html?finnkode=301908938,9085,60.4364619,6.4596275,10/05/2023,,Eier (Selveier),5614,Ålvik
Johan Myrvangs vei 1d,1350000,69,3.0,2007.0,Leilighet,https://www.finn.no/realestate/homes/ad.html?finnkode=302622919,19565,63.473165,11.114658,10/05/2023,2.0,Andel,7520,Hegra
Strømsæthers vei 78,4400000,194,,1983.0,Enebolig,https://www.finn.no/realestate/homes/ad.html?finnkode=294740814,22680,59.277618,11.074049,10/05/2023,2.0,Eier (Selveier),1715,Yven
Kirkeveien 7A,7390000,81,3.0,2023.0,Leilighet,https://www.finn.no/realestate/homes/ad.html?finnkode=302530975,91234,59.720772,10.836859,10/05/2023,4.0,Eier (Selveier),1400,Ski
Langgata 50,1350000,61,2.0,1919.0,Leilighet,https://www.finn.no/realestate/homes/ad.html?finnkode=301784920,22131,59.4168115,5.2559675,10/05/2023,4.0,Eier (Selveier),5523,Haugesund
Bjørkavollen 2,6000000,256,7.0,1983.0,Enebolig,https://www.finn.no/realestate/homes/ad.html?finnkode=300430619,23437,62.4369653,6.3952164,10/05/2023,,Eier (Selveier),6012,Ålesund
Hinderågata 14,2990000,246,,1918.0,Enebolig,https://www.finn.no/realestate/homes/ad.html?finnkode=294230268,12154,59.4168772,5.276155,10/05/2023,,Eier (Selveier),5522,Haugesund
Plassen 38,1590000,68,3.0,2022.0,Leilighet,https://www.finn.no/realestate/homes/ad.html?finnkode=293103228,23382,59.147798,9.650453,10/05/2023,1.0,Andel,3919,Porsgrunn
Diktervegen 13B,1320000,92,3.0,1967.0,Leilighet,https://www.finn.no/realestate/homes/ad.html?finnkode=302620952,14347,59.3955515,5.2978157,10/05/2023,2.0,Andel,5538,Haugesund
Parkalleen 44,7950000,159,4.0,1951.0,Enebolig,https://www.finn.no/realestate/homes/ad.html?finnkode=302479923,50000,59.9590948,11.0362224,10/05/2023,2.0,Eier (Selveier),2000,Lillestrøm
Tverrvegen 10,4890000,196,7.0,1970.0,Enebolig,https://www.finn.no/realestate/homes/ad.html?finnkode=302621399,24948,59.1120868,9.6601783,10/05/2023,,Eier (Selveier),3928,Porsgrunn
Verkstedveien 1C,4390000,96,4.0,2001.0,Leilighet,https://www.finn.no/realestate/homes/ad.html?finnkode=294336301,45729,59.7838404,10.2434673,10/05/2023,1.0,Eier (Selveier),3403,Lier
Gare 29,3750000,134,,,Enebolig,https://www.finn.no/realestate/homes/ad.html?finnkode=302620025,27985,58.0475562,7.1265269,10/05/2023,,Eier (Selveier),4521,Lindesnes
Ørnhaugen 6,1890000,151,,1967.0,Enebolig,https://www.finn.no/realestate/homes/ad.html?finnkode=285763694,12516,63.0872751,7.8779656,10/05/2023,2.0,Eier (Selveier),6522,Frei
Vestre Eikenga 35,6900000,221,4.0,1955.0,Enebolig,https://www.finn.no/realestate/homes/ad.html?finnkode=296886821,31221,59.7894097,10.2299024,10/05/2023,,Eier (Selveier),3404,Lier
Nedre Skøyen vei 8,6500000,59,3.0,2008.0,Leilighet,https://www.finn.no/realestate/homes/ad.html?finnkode=302619245,110169,59.92375,10.679278,10/05/2023,,Eier (Selveier),276,Oslo
Nordlysbråtet 4B,3200000,133,,1957.0,Rekkehus,https://www.finn.no/realestate/homes/ad.html?finnkode=302618950,24060,58.947167,5.7344872,10/05/2023,1.0,Andel,4016,Stavanger
Skrikeråsvegen 12,1690000,60,3.0,1990.0,Leilighet,https://www.finn.no/realestate/homes/ad.html?finnkode=302436358,28166,59.0978731,9.6754059,10/05/2023,2.0,Andel,3942,Porsgrunn
Klokkeveien 13,6500000,139,,1968.0,Enebolig,https://www.finn.no/realestate/homes/ad.html?finnkode=302617970,46762,59.5446833,10.55813,10/05/2023,,Eier (Selveier),3482,Tofte
Titlestadvegen 61,8250000,179,6.0,1955.0,Enebolig,https://www.finn.no/realestate/homes/ad.html?finnkode=302617495,46089,60.275136,5.343345,10/05/2023,,Eier (Selveier),5243,Fana
Svartholtet 32,4790000,127,4.0,1986.0,Tomannsbolig,https://www.finn.no/realestate/homes/ad.html?finnkode=302572360,37716,63.354501,10.3841593,10/05/2023,,Eier (Selveier),7092,Tiller
Romemyra 49 A,3090000,75,3.0,1996.0,Leilighet,https://www.finn.no/realestate/homes/ad.html?finnkode=301752243,41200,63.3612185,10.3830595,10/05/2023,1.0,Andel,7091,Tiller
Neslia 4B,4190000,42,2.0,2021.0,Leilighet,https://www.finn.no/realestate/homes/ad.html?finnkode=302537320,99761,59.91692,10.556195,10/05/2023,2.0,Eier (Selveier),1344,Haslum
Kristofer Jansons vei 69A,1050000,28,2.0,1953.0,Leilighet,https://www.finn.no/realestate/homes/ad.html?finnkode=302494349,37500,60.3556325,5.3629531,10/05/2023,2.0,Andel,5089,Bergen
Søllerødvegen 40,3990000,210,8.0,1922.0,Enebolig,https://www.finn.no/realestate/homes/ad.html?finnkode=281793072,19000,59.3878527,5.2995724,10/05/2023,,Eier (Selveier),5538,Haugesund
Niels Juels gate 10,11500000,148,5.0,1893.0,Leilighet,https://www.finn.no/realestate/homes/ad.html?finnkode=301290516,77702,59.912396,10.709957,10/05/2023,1.0,Eier (Selveier),272,Oslo
Niels Juels gate 10,5700000,57,2.0,1893.0,Leilighet,https://www.finn.no/realestate/homes/ad.html?finnkode=301291101,100000,59.912396,10.709957,10/05/2023,1.0,Eier (Selveier),272,Oslo
Liveien 15,4300000,211,,1958.0,Enebolig,https://www.finn.no/realestate/homes/ad.html?finnkode=302504406,20379,59.2012356,10.9093284,10/05/2023,2.0,Eier (Selveier),1678,Kråkerøy
Husebyskogen 56,7500000,147,4.0,2002.0,Enebolig,https://www.finn.no/realestate/homes/ad.html?finnkode=302524798,51020,59.3938656,10.65061,10/05/2023,2.0,Eier (Selveier),1570,Dilling
Fæsteråsen 362,2400000,69,2.0,1984.0,Leilighet,https://www.finn.no/realestate/homes/ad.html?finnkode=302615832,34782,60.3847755,5.2216019,10/05/2023,2.0,Andel,5184,Olsvik
Toftevågsvegen 128,1890000,131,6.0,1915.0,Enebolig,https://www.finn.no/realestate/homes/ad.html?finnkode=302490842,14427,59.791169,5.744284,10/05/2023,,Eier (Selveier),5454,Sæbøvik
Karl Johans gate 1,2490000,66,2.0,2004.0,Leilighet,https://www.finn.no/realestate/homes/ad.html?finnkode=302615345,37727,59.2850467,11.111054,10/05/2023,5.0,Eier (Selveier),1706,Sarpsborg
Thore Bjerkes veg 7C,3490000,73,,2016.0,Leilighet,https://www.finn.no/realestate/homes/ad.html?finnkode=302615388,47808,60.8775646,10.9423593,10/05/2023,1.0,Eier (Selveier),2380,Brumunddal
Niels Juels gate 6B,1850000,72,4.0,1963.0,Leilighet,https://www.finn.no/realestate/homes/ad.html?finnkode=302513633,25694,59.1909894,9.6130222,10/05/2023,3.0,Andel,3732,Skien
Eilert Sundts gate 40,3790000,28,1.0,1963.0,Leilighet,https://www.finn.no/realestate/homes/ad.html?finnkode=302614994,135357,59.923281,10.72051,10/05/2023,6.0,Eier (Selveier),355,Oslo
Blåmannveien 1 B,4950000,167,4.0,1993.0,Enebolig,https://www.finn.no/realestate/homes/ad.html?finnkode=302496131,29640,67.2811988,14.4043539,10/05/2023,,Eier (Selveier),8007,Bodø
Evenrødveien 36,3250000,78,4.0,1979.0,Leilighet,https://www.finn.no/realestate/homes/ad.html?finnkode=302368600,41666,59.25358,10.934904,10/05/2023,1.0,Eier (Selveier),1615,Fredrikstad
Fjordvegen 9A,3590000,83,3.0,2008.0,Leilighet,https://www.finn.no/realestate/homes/ad.html?finnkode=302480167,43253,60.7745671,11.0865026,10/05/2023,1.0,Andel,2312,Ottestad
Godesetkroken 16,6900000,317,10.0,1987.0,Enebolig,https://www.finn.no/realestate/homes/ad.html?finnkode=291301382,21766,58.8988797,5.7142594,10/05/2023,3.0,Eier (Selveier),4034,Stavanger
Steinsrudsvingen 7,2990000,193,,1968.0,Enebolig,https://www.finn.no/realestate/homes/ad.html?finnkode=302523909,15492,59.1982752,9.5689298,10/05/2023,2.0,Eier (Selveier),3728,Skien
Ullevålsveien 16A,9950000,134,7.0,1916.0,Leilighet,https://www.finn.no/realestate/homes/ad.html?finnkode=301759814,74253,59.923864,10.740418,10/05/2023,5.0,Eier (Selveier),171,Oslo
Lalienveien 6,2540000,44,2.0,2005.0,Leilighet,https://www.finn.no/realestate/homes/ad.html?finnkode=302388917,57727,59.8170134,10.6214026,10/05/2023,2.0,Andel,1453,Bjørnemyr
Lisleby allé 20 B,4940000,123,,2022.0,Leilighet,https://www.finn.no/realestate/homes/ad.html?finnkode=287756517,40162,59.224208,10.963585,10/05/2023,,Eier (Selveier),1619,Fredrikstad
Solstad 4D,1390000,117,3.0,2000.0,Leilighet,https://www.finn.no/realestate/homes/ad.html?finnkode=302612623,11880,59.9757456,9.9997949,10/05/2023,2.0,Andel,3370,Vikersund
Begnavegen 74,1490000,196,,1941.0,Enebolig,https://www.finn.no/realestate/homes/ad.html?finnkode=302612295,7602,60.6510426,9.8598492,10/05/2023,,Eier (Selveier),2937,Begna
Hamnavegen 6,2510000,206,6.0,1979.0,Enebolig,https://www.finn.no/realestate/homes/ad.html?finnkode=256491569,12184,62.9090342,7.5336035,10/05/2023,,Eier (Selveier),6490,Eide
Titlestadvegen 238,4500000,182,6.0,1948.0,Enebolig,https://www.finn.no/realestate/homes/ad.html?finnkode=302587807,24725,60.2641495,5.3514114,10/05/2023,3.0,Eier (Selveier),5243,Fana
Ulrikkaplassen 3 B,1190000,83,3.0,2019.0,Leilighet,https://www.finn.no/realestate/homes/ad.html?finnkode=295868343,14337,63.611667,11.046446,10/05/2023,1.0,Andel,7630,Åsen
Torsvevegen 7A,2490000,65,3.0,1992.0,Leilighet,https://www.finn.no/realestate/homes/ad.html?finnkode=300617941,38307,63.2984794,10.4611821,10/05/2023,1.0,Eier (Selveier),7540,Klæbu
Oddnesveien 2,1950000,169,2.0,1961.0,Enebolig,https://www.finn.no/realestate/homes/ad.html?finnkode=302608909,11538,59.055912,9.194006,10/05/2023,,Eier (Selveier),3750,Drangedal
Billingstadlia 7,8900000,111,4.0,2006.0,Leilighet,https://www.finn.no/realestate/homes/ad.html?finnkode=297804149,80180,59.8760143,10.4919677,10/05/2023,5.0,Eier (Selveier),1396,Billingstad
Ammerudveien 68,2650000,31,1.0,1967.0,Leilighet,https://www.finn.no/realestate/homes/ad.html?finnkode=300961857,85483,59.965832,10.869256,10/05/2023,,Andel,958,Oslo
Myrbakkgate 2,3100000,134,,1927.0,Enebolig,https://www.finn.no/realestate/homes/ad.html?finnkode=302609767,23134,59.0016645,9.7436538,10/05/2023,3.0,Eier (Selveier),3970,Langesund
Sørestrandvegen 172,2800000,245,,1970.0,Enebolig,https://www.finn.no/realestate/homes/ad.html?finnkode=302508935,11428,62.3439161,6.5753588,10/05/2023,,Eier (Selveier),6220,Straumgjerde
Røsvikveien 55,3200000,219,5.0,1964.0,Enebolig,https://www.finn.no/realestate/homes/ad.html?finnkode=302609048,14611,67.3446896,15.4926725,10/05/2023,,Eier (Selveier),8218,Fauske
Persløkka 13,2590000,148,,1966.0,Enebolig,https://www.finn.no/realestate/homes/ad.html?finnkode=302509360,17500,63.11436,7.769028,10/05/2023,,Eier (Selveier),6518,Kristiansund N
Enerhauggata 1,3200000,35,1.0,1964.0,Leilighet,https://www.finn.no/realestate/homes/ad.html?finnkode=302465815,91428,59.913335,10.768251,10/05/2023,4.0,Andel,651,Oslo
Albert Moens veg 14 C,1590000,70,,1989.0,Rekkehus,https://www.finn.no/realestate/homes/ad.html?finnkode=301938447,22714,63.9572449,11.61139,10/05/2023,,Eier (Selveier),7711,Steinkjer
Verkstedbakken 26 A,3350000,85,3.0,2020.0,Leilighet,https://www.finn.no/realestate/homes/ad.html?finnkode=302366343,39411,68.560586,14.9171,10/05/2023,,Eier (Selveier),8450,Stokmarknes
Kalbakkslyngen 1,3700000,71,3.0,1955.0,Leilighet,https://www.finn.no/realestate/homes/ad.html?finnkode=302606659,52112,59.948016,10.868986,10/05/2023,1.0,Andel,951,Oslo
Hofsletta 79,1190000,122,,1930.0,Enebolig,https://www.finn.no/realestate/homes/ad.html?finnkode=302477848,9754,60.5418103,12.0119373,10/05/2023,,Eier (Selveier),2266,Arneberg
Punktveien 1,1370000,31,,1963.0,Leilighet,https://www.finn.no/realestate/homes/ad.html?finnkode=302582123,44193,68.434795,17.394278,10/05/2023,7.0,Andel,8516,Narvik
Gamle Ringeriksvei 43D,10780000,93,4.0,2022.0,Leilighet,https://www.finn.no/realestate/homes/ad.html?finnkode=274019534,115913,59.918347,10.584673,10/05/2023,2.0,Eier (Selveier),1357,Bekkestua
Sandhorngata 1,5750000,128,4.0,1999.0,Enebolig,https://www.finn.no/realestate/homes/ad.html?finnkode=302606067,44921,67.2787671,14.401746,10/05/2023,,Eier (Selveier),8008,Bodø
Kong Haakons veg 7,2450000,58,2.0,2004.0,Leilighet,https://www.finn.no/realestate/homes/ad.html?finnkode=302486676,42241,58.729929,5.6630717,10/05/2023,2.0,Eier (Selveier),4345,Bryne
Eterveien 5,6500000,118,5.0,1970.0,Rekkehus,https://www.finn.no/realestate/homes/ad.html?finnkode=294189870,55084,59.885285,10.837279,10/05/2023,,Andel,690,Oslo
Nybøvegen 9,2500000,200,,1973.0,Enebolig,https://www.finn.no/realestate/homes/ad.html?finnkode=302524256,12500,62.6032237,6.9331952,10/05/2023,,Eier (Selveier),6393,Tomrefjord
Hestehovsbakken 6,3100000,197,4.0,1980.0,Enebolig,https://www.finn.no/realestate/homes/ad.html?finnkode=302569475,15736,60.2293327,10.3696167,10/05/2023,1.0,Eier (Selveier),3520,Jevnaker
Konvallvegen 28C,2290000,80,,2012.0,Leilighet,https://www.finn.no/realestate/homes/ad.html?finnkode=302604560,28625,58.2636325,7.9531284,10/05/2023,2.0,Eier (Selveier),4706,Vennesla
Nittedalsgata 18A,3690000,46,2.0,2006.0,Leilighet,https://www.finn.no/realestate/homes/ad.html?finnkode=302509754,80217,59.957086,11.045896,10/05/2023,2.0,Eier (Selveier),2004,Lillestrøm
Stenrødveien 85,4690000,188,5.0,1980.0,Enebolig,https://www.finn.no/realestate/homes/ad.html?finnkode=289100447,24946,59.143877,11.39948,10/05/2023,,Eier (Selveier),1784,Halden
Friisebrygga 6,3500000,81,3.0,2006.0,Leilighet,https://www.finn.no/realestate/homes/ad.html?finnkode=302602588,43209,59.1395858,9.6477662,10/05/2023,2.0,Eier (Selveier),3921,Porsgrunn
Ulsrudveien 40D,12000000,203,6.0,1986.0,Enebolig,https://www.finn.no/realestate/homes/ad.html?finnkode=302510618,59113,59.889843,10.848523,10/05/2023,2.0,Eier (Selveier),690,Oslo
Tonåsveien 3,4550000,137,6.0,1953.0,Tomannsbolig,https://www.finn.no/realestate/homes/ad.html?finnkode=302490862,33211,58.9463346,5.7374704,10/05/2023,2.0,Eier (Selveier),4016,Stavanger
Ordfører Nielsens vei 51,4850000,193,,1987.0,Enebolig,https://www.finn.no/realestate/homes/ad.html?finnkode=302404009,25129,58.4425407,8.7519793,10/05/2023,,Eier (Selveier),4817,His
Grimsrudveien 40,3690000,177,4.0,1965.0,Enebolig,https://www.finn.no/realestate/homes/ad.html?finnkode=302508918,20847,59.7163988,10.3530596,10/05/2023,2.0,Eier (Selveier),3442,Hyggen
Vestre Vadmyra 33,2290000,68,2.0,1971.0,Leilighet,https://www.finn.no/realestate/homes/ad.html?finnkode=302536662,33676,60.3636542,5.2230658,10/05/2023,4.0,Andel,5172,Loddefjord
Siriskjeret 32,2850000,41,2.0,2013.0,Leilighet,https://www.finn.no/realestate/homes/ad.html?finnkode=302496132,69512,58.9692941,5.7604244,10/05/2023,2.0,Eier (Selveier),4014,Stavanger
Leirfallveien 4B Mo i,2950000,90,3.0,1962.0,Tomannsbolig,https://www.finn.no/realestate/homes/ad.html?finnkode=301926281,32777,66.32926,14.17887,10/05/2023,2.0,Eier (Selveier),8613,Rana
Drømtorpveien 12D,5300000,122,5.0,1963.0,Rekkehus,https://www.finn.no/realestate/homes/ad.html?finnkode=302525947,43442,59.721233,10.857405,10/05/2023,,Eier (Selveier),1400,Ski
Jernbanealleen 26,3190000,93,3.0,1933.0,Leilighet,https://www.finn.no/realestate/homes/ad.html?finnkode=302534727,34301,59.1310704,10.2241254,10/05/2023,3.0,Eier (Selveier),3210,Sandefjord
Hesselbergs gate 5K,3800000,70,2.0,1987.0,Leilighet,https://www.finn.no/realestate/homes/ad.html?finnkode=302498423,54285,59.736403,10.209305,10/05/2023,1.0,Eier (Selveier),3044,Drammen
Risengbakken 6,13600000,348,11.0,2013.0,Enebolig,https://www.finn.no/realestate/homes/ad.html?finnkode=302574194,39080,59.758708,10.2288861,10/05/2023,3.0,Eier (Selveier),3413,Lier
Sundstredet 526,4500000,67,3.0,2007.0,Leilighet,https://www.finn.no/realestate/homes/ad.html?finnkode=302471763,67164,59.4373882,10.6600887,10/05/2023,2.0,Andel,1531,Moss
Lystadveien 13,4750000,233,,1967.0,Enebolig,https://www.finn.no/realestate/homes/ad.html?finnkode=302567922,20386,59.1126898,10.2172375,10/05/2023,2.0,Eier (Selveier),3209,Sandefjord
Berganskauen 3,5900000,151,5.0,2020.0,Tomannsbolig,https://www.finn.no/realestate/homes/ad.html?finnkode=302538876,39072,59.083837,10.21098,10/05/2023,3.0,Eier (Selveier),3231,Sandefjord
Lindgaards gate 26,2690000,81,,1954.0,Tomannsbolig,https://www.finn.no/realestate/homes/ad.html?finnkode=302560233,33209,59.1299737,10.2096724,10/05/2023,1.0,Eier (Selveier),3213,Sandefjord
Skytterstubben 6,6490000,318,,1996.0,Enebolig,https://www.finn.no/realestate/homes/ad.html?finnkode=302540358,20408,60.25141,11.2131295,10/05/2023,,Eier (Selveier),2072,Dal
Bidenkaps gate 4B,8500000,95,4.0,1880.0,Leilighet,https://www.finn.no/realestate/homes/ad.html?finnkode=302559974,89473,59.919292,10.740465,10/05/2023,3.0,Eier (Selveier),165,Oslo
Prestenga 10A,5390000,114,5.0,2015.0,Rekkehus,https://www.finn.no/realestate/homes/ad.html?finnkode=302570835,47280,59.772761,10.47878,10/05/2023,2.0,Eier (Selveier),3470,Slemmestad
Møglestuveien 23,1190000,89,4.0,2018.0,Leilighet,https://www.finn.no/realestate/homes/ad.html?finnkode=276477468,13370,58.258783,8.382679,10/05/2023,1.0,Andel,4790,Lillesand
Lachmanns vei 45,10000000,189,5.0,1966.0,Tomannsbolig,https://www.finn.no/realestate/homes/ad.html?finnkode=302600274,52910,59.966219,10.796114,10/05/2023,,Eier (Selveier),495,Oslo
Bekkelia 31,6200000,198,5.0,1982.0,Enebolig,https://www.finn.no/realestate/homes/ad.html?finnkode=302374446,31313,59.9949946,10.911168,10/05/2023,2.0,Eier (Selveier),1481,Hagan
Ullernkammen 25,8890000,119,3.0,1976.0,Leilighet,https://www.finn.no/realestate/homes/ad.html?finnkode=295663938,74705,59.936571,10.653312,10/05/2023,3.0,Eier (Selveier),380,Oslo
Gjettumkollen 27A,6900000,155,,1962.0,Rekkehus,https://www.finn.no/realestate/homes/ad.html?finnkode=302591680,44516,59.9061,10.524664,10/05/2023,,Eier (Selveier),1346,Gjettum
Eugenies gate 4,3590000,22,1.0,1972.0,Leilighet,https://www.finn.no/realestate/homes/ad.html?finnkode=302591517,163181,59.927699,10.733027,10/05/2023,3.0,Eier (Selveier),168,Oslo
Silurveien 47,7850000,75,3.0,2007.0,Leilighet,https://www.finn.no/realestate/homes/ad.html?finnkode=302591329,104666,59.931819,10.654811,10/05/2023,6.0,Eier (Selveier),380,Oslo
Lindekroken 1,6200000,131,,2019.0,Enebolig,https://www.finn.no/realestate/homes/ad.html?finnkode=302574555,47328,59.497224,10.24694,10/05/2023,,Eier (Selveier),3089,Holmestrand
Gullvegen 20,3990000,62,3.0,2016.0,Leilighet,https://www.finn.no/realestate/homes/ad.html?finnkode=300249445,64354,69.68013,19.057124,10/05/2023,5.0,Eier (Selveier),9022,Krokelvdalen
Brundalsgrenda 8,2990000,62,,1969.0,Leilighet,https://www.finn.no/realestate/homes/ad.html?finnkode=302586914,48225,63.417695,10.482249,10/05/2023,2.0,Andel,7058,Jakobsli
Fabelveien 38,5490000,73,,2022.0,Leilighet,https://www.finn.no/realestate/homes/ad.html?finnkode=302585837,75205,60.023914,11.11844,10/05/2023,,Eier (Selveier),2016,Frogner
Christoffer Hellums vei 28,3400000,55,2.0,1963.0,Leilighet,https://www.finn.no/realestate/homes/ad.html?finnkode=302585719,61818,59.949483,10.871952,10/05/2023,3.0,Andel,951,Oslo
Gamle Bæreiavegen 17B,3000000,251,6.0,1913.0,Enebolig,https://www.finn.no/realestate/homes/ad.html?finnkode=283887245,11952,60.186786,11.989924,10/05/2023,,Eier (Selveier),2208,Kongsvinger
Kongegata 37,5300000,269,,1884.0,Andre,https://www.finn.no/realestate/homes/ad.html?finnkode=302585186,19702,59.055037,10.027583,10/05/2023,,Eier (Selveier),3256,Larvik
Gartveien 104,3690000,144,,1949.0,Enebolig,https://www.finn.no/realestate/homes/ad.html?finnkode=302585190,25625,63.6522506,9.5541221,10/05/2023,,Eier (Selveier),7130,Brekstad
Fossveien 5,5900000,65,3.0,1872.0,Leilighet,https://www.finn.no/realestate/homes/ad.html?finnkode=302582483,90769,59.922642,10.755922,10/05/2023,3.0,Andel,551,Oslo
SIRIUSVEIEN 25,8950000,350,,1964.0,Enebolig,https://www.finn.no/realestate/homes/ad.html?finnkode=302555496,25571,59.7263598,10.7573955,10/05/2023,2.0,Eier (Selveier),1407,Vinterbro
Lekvenmarka 248,2990000,65,,2014.0,Leilighet,https://www.finn.no/realestate/homes/ad.html?finnkode=302584232,46000,60.1679069,5.4510298,10/05/2023,1.0,Eier (Selveier),5209,Os
Tvetenveien 233,3400000,69,2.0,1974.0,Leilighet,https://www.finn.no/realestate/homes/ad.html?finnkode=301694557,49275,59.926082,10.864612,10/05/2023,8.0,Andel,675,Oslo
Lahellemoveien 35,5100000,194,,1932.0,Tomannsbolig,https://www.finn.no/realestate/homes/ad.html?finnkode=302583605,26288,59.213863,10.956617,10/05/2023,,Eier (Selveier),1604,Fredrikstad
Dyrhaugen 7,6500000,201,,1969.0,Enebolig,https://www.finn.no/realestate/homes/ad.html?finnkode=302583273,32338,60.3036439,5.3399931,10/05/2023,,Eier (Selveier),5236,Rådal
Solveien 6,4000000,183,4.0,1975.0,Enebolig,https://www.finn.no/realestate/homes/ad.html?finnkode=302582224,21857,70.6853383,23.6815883,10/05/2023,,Eier (Selveier),9602,Hammerfest
Tertneshøyden 38,8490000,350,,1959.0,Enebolig,https://www.finn.no/realestate/homes/ad.html?finnkode=302581993,24257,60.4582477,5.2967243,10/05/2023,,Eier (Selveier),5113,Tertnes
Sørkedalsveien 11F,4850000,40,2.0,2009.0,Leilighet,https://www.finn.no/realestate/homes/ad.html?finnkode=302581444,121250,59.931452,10.710984,10/05/2023,6.0,Eier (Selveier),366,Oslo
Peder Søbergs gate 26C,5490000,80,3.0,1988.0,Leilighet,https://www.finn.no/realestate/homes/ad.html?finnkode=294854427,68625,59.736605,10.193807,10/05/2023,3.0,Eier (Selveier),3045,Drammen
Nordraaks gate 1B,9200000,88,3.0,1976.0,Leilighet,https://www.finn.no/realestate/homes/ad.html?finnkode=302384114,104545,59.921431,10.70641,10/05/2023,1.0,Eier (Selveier),266,Oslo
Norbygata 19,6690000,87,4.0,1987.0,Leilighet,https://www.finn.no/realestate/homes/ad.html?finnkode=302543908,76896,59.913951,10.763848,10/05/2023,4.0,Eier (Selveier),187,Oslo
Havreveien 12,2900000,65,3.0,2014.0,Leilighet,https://www.finn.no/realestate/homes/ad.html?finnkode=302579816,44615,59.9293684,11.4512352,10/05/2023,1.0,Eier (Selveier),1930,Aurskog
Åkersvingen 3B,3250000,72,3.0,2004.0,Enebolig,https://www.finn.no/realestate/homes/ad.html?finnkode=302578793,45138,59.3178173,10.3938329,10/05/2023,2.0,Eier (Selveier),3157,Barkåker
Øvre Ljanskoll vei 6 B,9900000,130,5.0,2016.0,Enebolig,https://www.finn.no/realestate/homes/ad.html?finnkode=272350358,76153,59.847914,10.800441,10/05/2023,,Eier (Selveier),1169,Oslo
Ladeveien 28,2190000,22,,2020.0,Leilighet,https://www.finn.no/realestate/homes/ad.html?finnkode=302578667,99545,63.442791,10.434607,10/05/2023,3.0,Eier (Selveier),7066,Trondheim
Elgeseter gate 11,5750000,118,,1904.0,Leilighet,https://www.finn.no/realestate/homes/ad.html?finnkode=293018715,48728,63.420233,10.395971,10/05/2023,2.0,Eier (Selveier),7030,Trondheim
Fru Kroghs Brygge 1,10000000,53,2.0,2014.0,Leilighet,https://www.finn.no/realestate/homes/ad.html?finnkode=302578019,188679,59.907255,10.719819,10/05/2023,3.0,Eier (Selveier),252,Oslo
Hårtveitshei 28,3200000,311,,1971.0,Enebolig,https://www.finn.no/realestate/homes/ad.html?finnkode=302577239,10289,58.4205384,7.4045698,10/05/2023,1.0,Eier (Selveier),4529,Byremo
Ole Aasveds veg 2,2200000,60,3.0,2003.0,Leilighet,https://www.finn.no/realestate/homes/ad.html?finnkode=302577030,36666,63.4093107,10.4542157,10/05/2023,1.0,Andel,7049,Trondheim
Lybekkveien 35B,4600000,68,3.0,1952.0,Leilighet,https://www.finn.no/realestate/homes/ad.html?finnkode=299409733,67647,59.948964,10.661968,10/05/2023,1.0,Eier (Selveier),770,Oslo
Dyna Brygge 4,28200000,127,3.0,2014.0,Leilighet,https://www.finn.no/realestate/homes/ad.html?finnkode=297573760,222047,59.907252,10.719475,10/05/2023,4.0,Eier (Selveier),252,Oslo
Sagabakken 9,2290000,139,,1956.0,Enebolig,https://www.finn.no/realestate/homes/ad.html?finnkode=302511607,16474,59.4371524,10.2013677,10/05/2023,,Eier (Selveier),3174,Revetal
Kronprinsens gate 4,4700000,96,3.0,1983.0,Leilighet,https://www.finn.no/realestate/homes/ad.html?finnkode=295893091,48958,59.207708,10.941202,10/05/2023,4.0,Andel,1606,Fredrikstad
Lyngbøveien 88,3900000,178,7.0,1951.0,Tomannsbolig,https://www.finn.no/realestate/homes/ad.html?finnkode=302364062,21910,60.3796436,5.2722354,10/05/2023,3.0,Eier (Selveier),5164,Laksevåg
Sætrefjellet 19 Ytre,2650000,112,,1957.0,Tomannsbolig,https://www.finn.no/realestate/homes/ad.html?finnkode=302574664,23660,60.4569396,5.4345447,10/05/2023,,Eier (Selveier),5265,Arna
Uranusveien 4,6290000,222,,1951.0,Enebolig,https://www.finn.no/realestate/homes/ad.html?finnkode=302574265,28333,59.2657755,10.4524607,10/05/2023,,Eier (Selveier),3113,Tønsberg
Vilhelm Bjerknes' vei 62A,2590000,34,,2012.0,Leilighet,https://www.finn.no/realestate/homes/ad.html?finnkode=302574196,76176,60.346728,5.358867,10/05/2023,5.0,Eier (Selveier),5081,Bergen
Fjordgata 38,2490000,31,,2005.0,Leilighet,https://www.finn.no/realestate/homes/ad.html?finnkode=302572697,80322,63.434796,10.399285,10/05/2023,3.0,Eier (Selveier),7010,Trondheim
Åstrand 12,1490000,178,,1928.0,Enebolig,https://www.finn.no/realestate/homes/ad.html?finnkode=302455172,8370,59.64908,6.3519059,10/05/2023,,Eier (Selveier),4200,Sauda
Snørn 29,4400000,209,,1955.0,Tomannsbolig,https://www.finn.no/realestate/homes/ad.html?finnkode=302571948,21052,59.2412086,11.0257402,10/05/2023,,Eier (Selveier),1657,Torp
Turbinveien 3,3990000,71,,2009.0,Leilighet,https://www.finn.no/realestate/homes/ad.html?finnkode=300209957,56197,59.904219,10.787596,10/05/2023,8.0,Andel,195,Oslo
Filerveien 1,3980000,68,3.0,1960.0,Leilighet,https://www.finn.no/realestate/homes/ad.html?finnkode=301406448,58529,59.901868,10.8422,10/05/2023,1.0,Andel,684,Oslo
Andreas Claussens veg 1,2900000,95,3.0,1969.0,Leilighet,https://www.finn.no/realestate/homes/ad.html?finnkode=302568548,30526,63.415998,10.483964,10/05/2023,3.0,Andel,7058,Jakobsli
Grenseveien 57C,6190000,72,3.0,2016.0,Leilighet,https://www.finn.no/realestate/homes/ad.html?finnkode=302547361,85972,59.921198,10.7931791,10/05/2023,3.0,Eier (Selveier),576,Oslo
Nedre Rælingsveg 702,5790000,194,6.0,1938.0,Enebolig,https://www.finn.no/realestate/homes/ad.html?finnkode=294279516,29845,59.8573329,11.0970176,10/05/2023,,Eier (Selveier),2009,Nordby
Gjerstadveien 579,2800000,312,4.0,1947.0,Enebolig,https://www.finn.no/realestate/homes/ad.html?finnkode=302567355,8974,58.840076,9.0844026,10/05/2023,3.0,Eier (Selveier),4993,Sundebru
Sanderud 10,3500000,157,8.0,1965.0,Enebolig,https://www.finn.no/realestate/homes/ad.html?finnkode=302566201,22292,60.393588,11.212456,10/05/2023,2.0,Eier (Selveier),2092,Minnesund
Rektorhaugen 3,4500000,63,2.0,1951.0,Leilighet,https://www.finn.no/realestate/homes/ad.html?finnkode=301248312,71428,59.951859,10.740917,10/05/2023,1.0,Andel,876,Oslo
Munkerudveien 30H,17900000,274,,1911.0,Enebolig,https://www.finn.no/realestate/homes/ad.html?finnkode=285328665,65328,59.860925,10.807541,10/05/2023,,Eier (Selveier),1163,Oslo
Blåmeismyra 24G,3100000,60,3.0,2004.0,Leilighet,https://www.finn.no/realestate/homes/ad.html?finnkode=302424279,51666,59.9687096,11.2410558,10/05/2023,1.0,Eier (Selveier),1920,Sørumsand
Ryfossvegen 11,1600000,98,,1979.0,Enebolig,https://www.finn.no/realestate/homes/ad.html?finnkode=302555586,16326,61.1378796,8.8365531,10/05/2023,2.0,Eier (Selveier),2973,Ryfoss
Nordre hovedgårds vei 52,2550000,77,3.0,2006.0,Leilighet,https://www.finn.no/realestate/homes/ad.html?finnkode=302537465,33116,58.1240615,7.9525993,10/05/2023,5.0,Andel,4621,Kristiansand S
Lauritz Hervigs vei 115D,1750000,52,2.0,1970.0,Leilighet,https://www.finn.no/realestate/homes/ad.html?finnkode=302521506,33653,59.7142584,10.2243695,10/05/2023,1.0,Andel,3035,Drammen
Karlsvogna 11,4390000,108,4.0,2021.0,Rekkehus,https://www.finn.no/realestate/homes/ad.html?finnkode=302525540,40648,60.1176,11.346707,10/05/2023,,Eier (Selveier),2165,Hvam
Søvikgeilen 3,3750000,108,,1960.0,Tomannsbolig,https://www.finn.no/realestate/homes/ad.html?finnkode=302561926,34722,60.313156,5.2924722,10/05/2023,,Eier (Selveier),5251,Søreidgrend
Elgvegen 15B,4100000,279,,1968.0,Enebolig,https://www.finn.no/realestate/homes/ad.html?finnkode=302364828,14695,60.7156873,10.621431,10/05/2023,2.0,Eier (Selveier),2835,Raufoss
Ånnerudskogen 89,6000000,121,5.0,1968.0,Rekkehus,https://www.finn.no/realestate/homes/ad.html?finnkode=301790139,49586,59.8352792,10.4111024,10/05/2023,,Eier (Selveier),1383,Asker
Ludvikbakken 4C,2000000,37,2.0,2010.0,Leilighet,https://www.finn.no/realestate/homes/ad.html?finnkode=302473150,54054,60.3156131,11.2927505,10/05/2023,2.0,Eier (Selveier),2080,Eidsvoll
Kobbungveien 27,7900000,174,,1972.0,Enebolig,https://www.finn.no/realestate/homes/ad.html?finnkode=302561694,45402,59.0022243,5.7152986,10/05/2023,,Eier (Selveier),4083,Hundvåg
Hollendergata 6A,5200000,75,3.0,1894.0,Leilighet,https://www.finn.no/realestate/homes/ad.html?finnkode=298663456,69333,59.910228,10.76687,10/05/2023,1.0,Eier (Selveier),190,Oslo
Nygårdsveien 62,5590000,220,,1975.0,Enebolig,https://www.finn.no/realestate/homes/ad.html?finnkode=293214486,25409,59.1367382,10.1869993,10/05/2023,,Eier (Selveier),3214,Sandefjord
Vestregata 23,3600000,62,2.0,2002.0,Leilighet,https://www.finn.no/realestate/homes/ad.html?finnkode=302418152,58064,69.6496588,18.952851,10/05/2023,8.0,Eier (Selveier),9008,Tromsø
Ospeteigen 46,2800000,163,,1970.0,Enebolig,https://www.finn.no/realestate/homes/ad.html?finnkode=302557458,17177,61.515902,5.727152,10/05/2023,,Eier (Selveier),6817,Naustdal
Gamle Sigdalsvei 6,2850000,189,5.0,1925.0,Enebolig,https://www.finn.no/realestate/homes/ad.html?finnkode=302426329,15079,59.8935408,9.919104,10/05/2023,,Eier (Selveier),3340,Åmot
Tittelsnesvegen 730,2350000,199,,1960.0,Enebolig,https://www.finn.no/realestate/homes/ad.html?finnkode=302488231,11809,59.7008159,5.48585,10/05/2023,,Eier (Selveier),5554,Valevåg
Adolph Tidemands gate 49,3300000,40,2.0,2007.0,Leilighet,https://www.finn.no/realestate/homes/ad.html?finnkode=302498470,82500,59.957843,11.049203,10/05/2023,2.0,Andel,2000,Lillestrøm
Etterstadsletta 11B,6290000,65,4.0,1949.0,Leilighet,https://www.finn.no/realestate/homes/ad.html?finnkode=299541051,96769,59.910019,10.798317,10/05/2023,1.0,Andel,660,Oslo
Vestre Onstadvei 6,9390000,236,,2004.0,Enebolig,https://www.finn.no/realestate/homes/ad.html?finnkode=297168199,39788,59.8229705,10.3189059,10/05/2023,,Eier (Selveier),3420,Lierskogen
Schouterrassen 19,3690000,38,2.0,1937.0,Leilighet,https://www.finn.no/realestate/homes/ad.html?finnkode=302554114,97105,59.93112,10.782172,10/05/2023,2.0,Andel,573,Oslo
Thereses gate 16K,4790000,54,2.0,1930.0,Leilighet,https://www.finn.no/realestate/homes/ad.html?finnkode=302534588,88703,59.929471,10.733375,10/05/2023,3.0,Eier (Selveier),452,Oslo
Fjærkleivene 65,350000,75,,1892.0,Enebolig,https://www.finn.no/realestate/homes/ad.html?finnkode=302553892,4666,58.6266194,8.9180684,10/05/2023,,Eier (Selveier),4900,Tvedestrand
Maries gate 12A,7400000,74,3.0,1939.0,Leilighet,https://www.finn.no/realestate/homes/ad.html?finnkode=302517699,100000,59.928052,10.712795,10/05/2023,2.0,Eier (Selveier),368,Oslo
Dragveien 38A,11900000,221,,1959.0,Tomannsbolig,https://www.finn.no/realestate/homes/ad.html?finnkode=300921051,53846,59.901812,10.564582,10/05/2023,,Eier (Selveier),1363,Høvik
Ekregaten 1,2200000,56,2.0,1992.0,Leilighet,https://www.finn.no/realestate/homes/ad.html?finnkode=302509055,39285,60.4064576,5.3249498,10/05/2023,2.0,Andel,5036,Bergen
Tresåkervegen 3,3950000,183,5.0,2013.0,Tomannsbolig,https://www.finn.no/realestate/homes/ad.html?finnkode=302356341,21584,59.3838201,5.3204565,10/05/2023,2.0,Eier (Selveier),5542,Karmsund
Borgundfjordvegen 64 A,4900000,94,3.0,2013.0,Leilighet,https://www.finn.no/realestate/homes/ad.html?finnkode=302550837,52127,62.4608929,6.3310225,10/05/2023,2.0,Eier (Selveier),6017,Ålesund
Vikersundgata 4B,4800000,80,3.0,2019.0,Leilighet,https://www.finn.no/realestate/homes/ad.html?finnkode=302532502,60000,59.968568,9.998498,10/05/2023,3.0,Eier (Selveier),3370,Vikersund
Trosavigveien 177,6000000,290,4.0,2015.0,Enebolig,https://www.finn.no/realestate/homes/ad.html?finnkode=302353343,20689,58.4758472,5.8722809,10/05/2023,,Eier (Selveier),4375,Hellvik
Toppåsveien 48A,9390000,185,6.0,1976.0,Enebolig,https://www.finn.no/realestate/homes/ad.html?finnkode=302492052,50756,59.828611,10.804113,10/05/2023,2.0,Eier (Selveier),1262,Oslo
Sikthaugen Terrasse 3,4600000,122,,1970.0,Rekkehus,https://www.finn.no/realestate/homes/ad.html?finnkode=302550732,37704,60.3581218,5.3007324,10/05/2023,,Andel,5145,Fyllingsdalen
Skippergata 3,2980000,45,2.0,2019.0,Leilighet,https://www.finn.no/realestate/homes/ad.html?finnkode=302433808,66222,59.416329,10.4863999,10/05/2023,3.0,Eier (Selveier),3187,Horten
Storehaugen 30A,2500000,122,5.0,1994.0,Leilighet,https://www.finn.no/realestate/homes/ad.html?finnkode=302526214,20491,62.3250645,5.8002478,10/05/2023,2.0,Eier (Selveier),6065,Ulsteinvik
Klaus Torgårds vei 10A,4890000,53,,2005.0,Leilighet,https://www.finn.no/realestate/homes/ad.html?finnkode=302549753,92264,59.950896,10.725505,10/05/2023,1.0,Eier (Selveier),372,Oslo
Olsvikveien 64B,5500000,183,6.0,2011.0,Tomannsbolig,https://www.finn.no/realestate/homes/ad.html?finnkode=302549305,30054,60.3794738,5.210981,10/05/2023,3.0,Eier (Selveier),5184,Olsvik
Sandakerveien 23B,2900000,21,1.0,1936.0,Leilighet,https://www.finn.no/realestate/homes/ad.html?finnkode=302499107,138095,59.933486,10.76133,10/05/2023,4.0,Eier (Selveier),473,Oslo
Sanddalsringen 112,4990000,117,5.0,1986.0,Rekkehus,https://www.finn.no/realestate/homes/ad.html?finnkode=302517119,42649,60.3269495,5.3724003,10/05/2023,2.0,Eier (Selveier),5225,Nesttun
Glasskaråsen 31 Øvre,8750000,190,6.0,2001.0,Enebolig,https://www.finn.no/realestate/homes/ad.html?finnkode=302534840,46052,60.4487017,5.3252669,10/05/2023,,Eier (Selveier),5106,Ervik
Urds vei 9,3690000,119,,1953.0,Leilighet,https://www.finn.no/realestate/homes/ad.html?finnkode=302547900,31008,58.1572002,8.0249039,10/05/2023,1.0,Eier (Selveier),4632,Kristiansand S
Hofftunet 19,7750000,79,,1988.0,Leilighet,https://www.finn.no/realestate/homes/ad.html?finnkode=302547120,98101,59.929189,10.672467,10/05/2023,2.0,Eier (Selveier),377,Oslo
Langmyrvegen 37,3350000,210,,1978.0,Enebolig,https://www.finn.no/realestate/homes/ad.html?finnkode=302527177,15952,59.2714437,9.7007168,10/05/2023,,Eier (Selveier),3748,Siljan
Bergsrudsvingen 12,3800000,80,,2020.0,Tomannsbolig,https://www.finn.no/realestate/homes/ad.html?finnkode=302541899,47500,68.211535,14.43798,10/05/2023,,Eier (Selveier),8310,Kabelvåg
Tostenhagen 54,5500000,207,,1999.0,Enebolig,https://www.finn.no/realestate/homes/ad.html?finnkode=302544783,26570,58.995472,5.744714,10/05/2023,,Eier (Selveier),4085,Hundvåg
Bjarne Haugens gate 41,2190000,63,4.0,2023.0,Leilighet,https://www.finn.no/realestate/homes/ad.html?finnkode=302544250,34761,59.917683,10.953805,10/05/2023,1.0,Andel,1475,Finstadjordet
Kristian Bings vei 7,2300000,65,3.0,1951.0,Leilighet,https://www.finn.no/realestate/homes/ad.html?finnkode=302543992,35384,60.3660469,5.3366742,10/05/2023,,Aksje,5073,Bergen
Løvliveien 1B Gamle,6290000,322,,1982.0,Enebolig,https://www.finn.no/realestate/homes/ad.html?finnkode=302355317,19534,59.2098317,10.9960806,10/05/2023,,Eier (Selveier),1639,Fredrikstad
Taubaneveien 48,12900000,241,5.0,2005.0,Enebolig,https://www.finn.no/realestate/homes/ad.html?finnkode=302499804,53526,58.4411811,8.7280414,10/05/2023,3.0,Eier (Selveier),4825,Arendal
Bjarne Haugens gate 41,1590000,38,2.0,2023.0,Leilighet,https://www.finn.no/realestate/homes/ad.html?finnkode=302543170,41842,59.917683,10.953805,10/05/2023,1.0,Andel,1475,Finstadjordet
Olav Kyrres gate 11,4480000,253,,1917.0,Enebolig,https://www.finn.no/realestate/homes/ad.html?finnkode=302542104,17707,59.419227,5.2652782,10/05/2023,,Eier (Selveier),5523,Haugesund
Carl Konows gate 36,1490000,26,,1967.0,Leilighet,https://www.finn.no/realestate/homes/ad.html?finnkode=302542048,57307,60.38356,5.310809,10/05/2023,3.0,Eier (Selveier),5162,Laksevåg
Horsters gate 6,2600000,64,3.0,1953.0,Leilighet,https://www.finn.no/realestate/homes/ad.html?finnkode=301639712,40625,61.1105067,10.4657849,10/05/2023,1.0,Andel,2609,Lillehammer
Blomstervegen 60,2400000,115,4.0,1975.0,Tomannsbolig,https://www.finn.no/realestate/homes/ad.html?finnkode=294935590,20869,60.182122,11.9919532,10/05/2023,2.0,Andel,2208,Kongsvinger
Grøtemsvegen 165,2950000,193,6.0,1994.0,Enebolig,https://www.finn.no/realestate/homes/ad.html?finnkode=302513481,15284,63.2559675,10.936769,10/05/2023,2.0,Eier (Selveier),7584,Selbustrand
Synnavinden 37B,6950000,123,5.0,1991.0,Rekkehus,https://www.finn.no/realestate/homes/ad.html?finnkode=302541134,56504,69.6709673,18.937314,10/05/2023,,Eier (Selveier),9015,Tromsø
Vikåsvegen 34,2850000,115,,1916.0,Leilighet,https://www.finn.no/realestate/homes/ad.html?finnkode=254086854,24782,63.4786407,10.8561981,10/05/2023,2.0,Eier (Selveier),7512,Stjørdal
Sommerfjøsvollen 12,2990000,163,6.0,1979.0,Enebolig,https://www.finn.no/realestate/homes/ad.html?finnkode=273801148,18343,63.077743,7.7719416,10/05/2023,,Eier (Selveier),6520,Frei
Granlivegen 29D,1990000,116,5.0,1971.0,Rekkehus,https://www.finn.no/realestate/homes/ad.html?finnkode=293147330,17155,58.2762833,7.9792139,10/05/2023,,Andel,4707,Vennesla
Ørnahaugen 23,3000000,77,3.0,1971.0,Leilighet,https://www.finn.no/realestate/homes/ad.html?finnkode=302516757,38961,60.3515571,5.2867648,10/05/2023,2.0,Andel,5144,Fyllingsdalen
Nordåsgrenda 66,3800000,105,4.0,1980.0,Rekkehus,https://www.finn.no/realestate/homes/ad.html?finnkode=302523900,36190,60.3087229,5.3240807,10/05/2023,2.0,Andel,5235,Rådal
Kruses gate 1a,15900000,202,7.0,1893.0,Leilighet,https://www.finn.no/realestate/homes/ad.html?finnkode=302538673,78712,59.917637,10.712902,10/05/2023,,Andel,263,Oslo
Damsgårdsveien 105,4290000,79,,2015.0,Leilighet,https://www.finn.no/realestate/homes/ad.html?finnkode=302538678,54303,60.38278,5.316597,10/05/2023,2.0,Eier (Selveier),5058,Bergen
Kamfjordveien 18B,3950000,142,,2012.0,Leilighet,https://www.finn.no/realestate/homes/ad.html?finnkode=302538538,27816,59.1309032,10.2544373,10/05/2023,,Eier (Selveier),3235,Sandefjord
Rømmesveien 8,2950000,276,5.0,1972.0,Enebolig,https://www.finn.no/realestate/homes/ad.html?finnkode=301941434,10688,63.8724607,9.8822815,10/05/2023,2.0,Eier (Selveier),7168,Lysøysundet
Eilert Sundts gate 31,19500000,146,6.0,1898.0,Leilighet,https://www.finn.no/realestate/homes/ad.html?finnkode=302393797,133561,59.92209,10.718892,10/05/2023,1.0,Eier (Selveier),259,Oslo
Skytterveien 30B,1750000,111,5.0,1975.0,Rekkehus,https://www.finn.no/realestate/homes/ad.html?finnkode=302441199,15765,63.11797,7.700527,10/05/2023,,Andel,6514,Kristiansund N
Grønebrekka 1,4950000,175,5.0,1979.0,Enebolig,https://www.finn.no/realestate/homes/ad.html?finnkode=302505409,28285,60.4450045,5.2160559,10/05/2023,2.0,Eier (Selveier),5306,Erdal
Postvegen 19,2190000,207,,1955.0,Enebolig,https://www.finn.no/realestate/homes/ad.html?finnkode=302535340,10579,59.4818097,6.2537279,10/05/2023,3.0,Eier (Selveier),4230,Sand
Fantoftvegen 57D,11130000,121,4.0,2023.0,Leilighet,https://www.finn.no/realestate/homes/ad.html?finnkode=302526936,91983,60.342678,5.350672,10/05/2023,2.0,Eier (Selveier),5072,Bergen
Morgedalsvegen 43,4890000,66,,1992.0,Leilighet,https://www.finn.no/realestate/homes/ad.html?finnkode=290506132,74090,59.939093,10.671229,10/05/2023,2.0,Eier (Selveier),378,Oslo
Vognstølen 18G,2690000,45,2.0,1959.0,Leilighet,https://www.finn.no/realestate/homes/ad.html?finnkode=300774392,59777,60.3697776,5.3637726,10/05/2023,2.0,Andel,5096,Bergen
Torsnesveien 22 Gamle,6000000,150,,1914.0,Enebolig,https://www.finn.no/realestate/homes/ad.html?finnkode=302474720,40000,59.1973031,10.9700465,10/05/2023,,Eier (Selveier),1630,Fredrikstad
Jacob Aalls gate 17B,10900000,86,3.0,1928.0,Leilighet,https://www.finn.no/realestate/homes/ad.html?finnkode=302534844,126744,59.928846,10.718723,10/05/2023,3.0,Aksje,364,Oslo
Felleveien 6,3090000,71,2.0,1985.0,Leilighet,https://www.finn.no/realestate/homes/ad.html?finnkode=302534026,43521,59.7189324,10.2599768,10/05/2023,2.0,Andel,3039,Drammen
St.Croix gate 10F,10700000,360,,1940.0,Enebolig,https://www.finn.no/realestate/homes/ad.html?finnkode=302512069,29722,59.2108583,10.9491403,10/05/2023,,Eier (Selveier),1604,Fredrikstad
Harald Hårfagres gate 20,3190000,42,,1900.0,Leilighet,https://www.finn.no/realestate/homes/ad.html?finnkode=299834048,75952,60.3870117,5.3247647,10/05/2023,1.0,Eier (Selveier),5007,Bergen
Moreneveien 24,5990000,175,,1961.0,Enebolig,https://www.finn.no/realestate/homes/ad.html?finnkode=298651228,34228,59.2248455,10.9467135,10/05/2023,,Eier (Selveier),1605,Fredrikstad
Sjøveien 2 B,4170000,98,,2007.0,Rekkehus,https://www.finn.no/realestate/homes/ad.html?finnkode=302341656,42551,67.2994117,14.733197,10/05/2023,,Eier (Selveier),8050,Tverlandet
Åsveien 118,2100000,94,,1981.0,Leilighet,https://www.finn.no/realestate/homes/ad.html?finnkode=301933310,22340,58.8625741,5.7575947,10/05/2023,3.0,Andel,4328,Sandnes
Knud Graahs gate 3,4590000,55,2.0,1926.0,Leilighet,https://www.finn.no/realestate/homes/ad.html?finnkode=302532360,83454,59.939663,10.775435,10/05/2023,2.0,Andel,481,Oslo
Strømsbuåsen 13B,1690000,67,,1958.0,Leilighet,https://www.finn.no/realestate/homes/ad.html?finnkode=302531488,25223,58.460012,8.752134,10/05/2023,3.0,Andel,4836,Arendal
Rydningen 27,3200000,73,3.0,1988.0,Leilighet,https://www.finn.no/realestate/homes/ad.html?finnkode=302530929,43835,59.649893,10.827534,10/05/2023,1.0,Andel,1435,Ås
Lars Husmanns gate 7,2120000,55,3.0,2022.0,Leilighet,https://www.finn.no/realestate/homes/ad.html?finnkode=297481706,38545,59.934185,10.827717,10/05/2023,1.0,Andel,598,Oslo
Klovsteinbakken 3,6490000,226,,1950.0,Tomannsbolig,https://www.finn.no/realestate/homes/ad.html?finnkode=302525718,28716,58.9477977,5.6844058,10/05/2023,,Eier (Selveier),4041,Hafrsfjord
Bekkedalen 19,6490000,321,,1979.0,Enebolig,https://www.finn.no/realestate/homes/ad.html?finnkode=302530154,20218,58.1436085,8.0618633,10/05/2023,,Eier (Selveier),4638,Kristiansand S
Riddervolds gate 3,10900000,102,4.0,1898.0,Leilighet,https://www.finn.no/realestate/homes/ad.html?finnkode=301278928,106862,59.918762,10.722656,10/05/2023,1.0,Eier (Selveier),256,Oslo
Mosseveien 69,4990000,102,,2021.0,Leilighet,https://www.finn.no/realestate/homes/ad.html?finnkode=290500121,48921,59.228846,10.913765,10/05/2023,1.0,Eier (Selveier),1610,Fredrikstad
Skaustranda 52,4650000,128,,2007.0,Rekkehus,https://www.finn.no/realestate/homes/ad.html?finnkode=294495240,36328,59.1017937,10.223525,10/05/2023,,Andel,3209,Sandefjord
Måseskjærveien 18,17990000,191,4.0,2002.0,Leilighet,https://www.finn.no/realestate/homes/ad.html?finnkode=302528279,94188,60.4133679,5.3177167,10/05/2023,2.0,Eier (Selveier),5035,Bergen
Østersunds gate 14B,2490000,35,,1899.0,Leilighet,https://www.finn.no/realestate/homes/ad.html?finnkode=302527756,71142,63.437295,10.4224819,10/05/2023,1.0,Eier (Selveier),7010,Trondheim
Skafstadveien 21,5390000,89,,2021.0,Leilighet,https://www.finn.no/realestate/homes/ad.html?finnkode=302526975,60561,59.790498,10.265785,10/05/2023,2.0,Eier (Selveier),3403,Lier
Marcus Thranes gate 13,2900000,21,1.0,1937.0,Leilighet,https://www.finn.no/realestate/homes/ad.html?finnkode=302526790,138095,59.931957,10.761617,10/05/2023,4.0,Andel,473,Oslo
Grasstien 12,7000000,308,7.0,1996.0,Enebolig,https://www.finn.no/realestate/homes/ad.html?finnkode=301948131,22727,58.9372191,5.5924819,10/05/2023,,Eier (Selveier),4056,Tananger
Kvernvollen 5,3990000,261,,1979.0,Enebolig,https://www.finn.no/realestate/homes/ad.html?finnkode=302526672,15287,58.2782921,7.9687206,10/05/2023,,Eier (Selveier),4700,Vennesla
Gildeskålveien 38 A,2980000,85,,1963.0,Leilighet,https://www.finn.no/realestate/homes/ad.html?finnkode=302525597,35058,67.2738317,14.3662389,10/05/2023,1.0,Andel,8003,Bodø
Arbeiderveien 101B,1350000,50,2.0,1960.0,Leilighet,https://www.finn.no/realestate/homes/ad.html?finnkode=302526487,27000,68.4350692,17.398519,10/05/2023,1.0,Andel,8516,Narvik
Michael Krohns gate 103,2390000,40,1.0,2004.0,Leilighet,https://www.finn.no/realestate/homes/ad.html?finnkode=302485831,59750,60.381754,5.3179683,10/05/2023,6.0,Andel,5057,Bergen
Boråsvegen 42-44,7500000,944,,1956.0,Bygård/Flermannsbolig,https://www.finn.no/realestate/homes/ad.html?finnkode=301668608,7944,62.7414712,7.1835204,10/05/2023,,Eier (Selveier),6415,Molde
Skyttergata 23A,3200000,143,,1930.0,Rekkehus,https://www.finn.no/realestate/homes/ad.html?finnkode=302525794,22377,62.476738,6.164593,10/05/2023,,Eier (Selveier),6002,Ålesund
Alnagata 18,3100000,40,2.0,2007.0,Leilighet,https://www.finn.no/realestate/homes/ad.html?finnkode=300597902,77500,59.903346,10.775105,10/05/2023,6.0,Andel,192,Oslo
Skoghusveien 12,4690000,100,3.0,1994.0,Tomannsbolig,https://www.finn.no/realestate/homes/ad.html?finnkode=302525678,46900,59.725297,10.863014,10/05/2023,,Andel,1400,Ski
Ole Guldals gate 1,5650000,288,,1784.0,Enebolig,https://www.finn.no/realestate/homes/ad.html?finnkode=292776125,19618,62.5754809,11.3901428,10/05/2023,,Eier (Selveier),7374,Røros
Gjerdebakken 42,1780000,143,5.0,2022.0,Leilighet,https://www.finn.no/realestate/homes/ad.html?finnkode=302353316,12447,58.986244,5.688418,10/05/2023,,Andel,4027,Stavanger
Sponheimveien 5,4300000,121,4.0,1960.0,Enebolig,https://www.finn.no/realestate/homes/ad.html?finnkode=302351511,35537,59.233833,10.941831,10/05/2023,,Eier (Selveier),1613,Fredrikstad
Odins vei 14,7200000,201,,1978.0,Enebolig,https://www.finn.no/realestate/homes/ad.html?finnkode=302524447,35820,59.718208,10.789576,10/05/2023,,Eier (Selveier),1423,Ski
Granåsvegen 4,3390000,82,3.0,1957.0,Leilighet,https://www.finn.no/realestate/homes/ad.html?finnkode=302466648,41341,59.9315228,11.0631851,10/05/2023,1.0,Eier (Selveier),2008,Fjerdingby
Vårliveien 19D,2400000,37,,2019.0,Leilighet,https://www.finn.no/realestate/homes/ad.html?finnkode=294935319,64864,59.377754,10.756234,10/05/2023,2.0,Eier (Selveier),1580,Rygge
Søndre Husebytun 2C,1290000,72,2.0,2009.0,Leilighet,https://www.finn.no/realestate/homes/ad.html?finnkode=302523830,17916,63.36776,10.3428419,10/05/2023,1.0,Andel,7097,Saupstad
Solbergskogen 2B,2250000,72,3.0,1971.0,Leilighet,https://www.finn.no/realestate/homes/ad.html?finnkode=302523559,31250,59.4990834,10.3010554,10/05/2023,2.0,Andel,3085,Holmestrand
Gangeren 1A,4250000,90,4.0,2008.0,Leilighet,https://www.finn.no/realestate/homes/ad.html?finnkode=298184852,47222,58.8517633,5.7501423,10/05/2023,4.0,Eier (Selveier),4327,Sandnes
Brochmanns gate 3,4350000,53,,1967.0,Leilighet,https://www.finn.no/realestate/homes/ad.html?finnkode=299812677,82075,59.940225,10.763003,10/05/2023,1.0,Eier (Selveier),470,Oslo
Fjellvegen 2,6490000,112,3.0,2021.0,Leilighet,https://www.finn.no/realestate/homes/ad.html?finnkode=294566322,57946,60.139065,11.182719,10/05/2023,3.0,Eier (Selveier),2053,Jessheim
Blaklihøgda 3E,4350000,164,4.0,1972.0,Rekkehus,https://www.finn.no/realestate/homes/ad.html?finnkode=302522910,26524,63.396142,10.4380161,10/05/2023,1.0,Andel,7036,Trondheim
Søbyveien 11,4550000,291,,1950.0,Enebolig,https://www.finn.no/realestate/homes/ad.html?finnkode=236071507,15635,59.8848196,11.5520774,10/05/2023,,Eier (Selveier),1940,Bjørkelangen
Bekkevegen 6,5750000,229,,1977.0,Enebolig,https://www.finn.no/realestate/homes/ad.html?finnkode=302522687,25109,58.7821081,5.7301926,10/05/2023,,Eier (Selveier),4355,Kvernaland
Alderslystvegen 10 Vang på,2900000,91,,2015.0,Enebolig,https://www.finn.no/realestate/homes/ad.html?finnkode=302522765,31868,60.870462,11.22662,10/05/2023,,Eier (Selveier),2324,Hedmarken
Eiksveien 7,5950000,84,5.0,1949.0,Leilighet,https://www.finn.no/realestate/homes/ad.html?finnkode=302522589,70833,59.948621,10.616256,10/05/2023,1.0,Eier (Selveier),1359,Eiksmarka
P.A. Munchs gate 10,16000000,804,,1918.0,Enebolig,https://www.finn.no/realestate/homes/ad.html?finnkode=270134267,19900,59.4052337,5.2820537,10/05/2023,,Eier (Selveier),5529,Haugesund
Haftornveien 40,4490000,188,,1976.0,Enebolig,https://www.finn.no/realestate/homes/ad.html?finnkode=301944102,23882,59.7566746,9.9727959,10/05/2023,,Eier (Selveier),3053,Steinberg
Presterud alle 21,45000000,446,7.0,1933.0,Enebolig,https://www.finn.no/realestate/homes/ad.html?finnkode=302421042,100896,59.916733,10.583473,10/05/2023,,Eier (Selveier),1357,Bekkestua
Neslia 4D,5700000,77,3.0,2021.0,Leilighet,https://www.finn.no/realestate/homes/ad.html?finnkode=293310004,74025,59.917153,10.555638,10/05/2023,1.0,Eier (Selveier),1344,Haslum
Nybyveien 62,4200000,171,,1965.0,Enebolig,https://www.finn.no/realestate/homes/ad.html?finnkode=290252120,24561,68.2428155,14.5754297,10/05/2023,,Eier (Selveier),8300,Svolvær
Vallefaret 7,4950000,65,3.0,1954.0,Leilighet,https://www.finn.no/realestate/homes/ad.html?finnkode=302473955,76153,59.918648,10.801771,10/05/2023,2.0,Andel,663,Oslo
Nordbyveien 219,2750000,96,3.0,1970.0,Leilighet,https://www.finn.no/realestate/homes/ad.html?finnkode=302472068,28645,59.9686109,11.0066528,10/05/2023,1.0,Andel,2013,Skjetten
Dynekilgata 15,3950000,43,2.0,1967.0,Leilighet,https://www.finn.no/realestate/homes/ad.html?finnkode=302493270,91860,59.930952,10.776633,10/05/2023,5.0,Andel,569,Oslo
Knausen 181,2900000,103,4.0,1978.0,Rekkehus,https://www.finn.no/realestate/homes/ad.html?finnkode=298655688,28155,69.6929261,18.9956601,10/05/2023,2.0,Andel,9018,Tromsø
Øvre Stokkavei 65,6500000,290,7.0,1920.0,Enebolig,https://www.finn.no/realestate/homes/ad.html?finnkode=302493560,22413,58.9647308,5.7009283,10/05/2023,3.0,Eier (Selveier),4022,Stavanger
Paal Bergs vei 44,4890000,94,4.0,1970.0,Leilighet,https://www.finn.no/realestate/homes/ad.html?finnkode=302520164,52021,59.925801,10.485667,10/05/2023,3.0,Andel,1348,Rykkinn
Øverengsmoen 128,790000,134,,1950.0,Enebolig,https://www.finn.no/realestate/homes/ad.html?finnkode=301511995,5895,61.5821291,10.9997612,10/05/2023,,Eier (Selveier),2480,Koppang
Ørneveien 60A,5500000,88,,1960.0,Leilighet,https://www.finn.no/realestate/homes/ad.html?finnkode=302497209,62500,59.9280903,10.5869612,10/05/2023,1.0,Eier (Selveier),1357,Bekkestua
Nedrehjellen 2,3500000,217,6.0,1971.0,Enebolig,https://www.finn.no/realestate/homes/ad.html?finnkode=301928461,16129,62.5814222,6.4519081,10/05/2023,,Eier (Selveier),6270,Brattvåg
Fagerliveien,3690000,67,2.0,2023.0,Leilighet,https://www.finn.no/realestate/homes/ad.html?finnkode=302453255,55074,59.2244877,10.9577955,10/05/2023,1.0,Eier (Selveier),1605,Fredrikstad
Kirkerønningen 3,3250000,136,,1988.0,Enebolig,https://www.finn.no/realestate/homes/ad.html?finnkode=302340482,23897,59.116999,10.395381,10/05/2023,,Eier (Selveier),3145,Tjøme
Merkurstien 10,4455000,114,4.0,1983.0,Enebolig,https://www.finn.no/realestate/homes/ad.html?finnkode=298791280,39078,59.715473,10.16077,10/05/2023,,Eier (Selveier),3033,Drammen
Rødbergveien 47,4780000,67,3.0,1971.0,Leilighet,https://www.finn.no/realestate/homes/ad.html?finnkode=302519580,71343,59.9444086,10.8318833,10/05/2023,1.0,Andel,593,Oslo
Kaptein Mejlænders gate 1G,2750000,105,4.0,1954.0,Rekkehus,https://www.finn.no/realestate/homes/ad.html?finnkode=302473215,26190,58.9775178,5.7124823,10/05/2023,3.0,Andel,4026,Stavanger
Åsveien 17,5950000,214,5.0,1960.0,Enebolig,https://www.finn.no/realestate/homes/ad.html?finnkode=302519260,27803,59.2882221,11.0580499,10/05/2023,3.0,Eier (Selveier),1712,Grålum
Maridalsveien 227C,4500000,55,2.0,1940.0,Leilighet,https://www.finn.no/realestate/homes/ad.html?finnkode=302519019,81818,59.945399,10.763585,10/05/2023,4.0,Andel,467,Oslo
Bregneveien 37,3350000,121,5.0,1974.0,Enebolig,https://www.finn.no/realestate/homes/ad.html?finnkode=298804589,27685,59.6244952,10.3952461,10/05/2023,1.0,Eier (Selveier),3060,Svelvik
Skedsmogata 25,8200000,84,4.0,,Leilighet,https://www.finn.no/realestate/homes/ad.html?finnkode=298686101,97619,59.913676,10.786392,10/05/2023,4.0,Eier (Selveier),655,Oslo
Roald Amundsens gate 8,2590000,89,4.0,1936.0,Leilighet,https://www.finn.no/realestate/homes/ad.html?finnkode=296608650,29101,59.5812997,11.1576018,10/05/2023,1.0,Eier (Selveier),1831,Askim
Sogstiveien 119F,11690000,230,8.0,2011.0,Enebolig,https://www.finn.no/realestate/homes/ad.html?finnkode=295733806,50826,59.6537404,10.6399303,10/05/2023,3.0,Eier (Selveier),1446,Drøbak
Vinkelveien 20,4500000,312,9.0,1982.0,Enebolig,https://www.finn.no/realestate/homes/ad.html?finnkode=302517374,14423,58.1286756,7.0553057,10/05/2023,3.0,Eier (Selveier),4580,Lyngdal
Håvundvegen 207,3150000,204,5.0,1960.0,Enebolig,https://www.finn.no/realestate/homes/ad.html?finnkode=297386300,15441,59.1988625,9.6304964,10/05/2023,,Eier (Selveier),3714,Skien
Ankerplassen 16,1930000,40,2.0,1980.0,Leilighet,https://www.finn.no/realestate/homes/ad.html?finnkode=302383217,48250,58.9888438,5.7322007,10/05/2023,3.0,Eier (Selveier),4077,Hundvåg
Håvasteinbakken 7,1790000,36,2.0,2005.0,Leilighet,https://www.finn.no/realestate/homes/ad.html?finnkode=302514877,49722,59.1001425,5.6986277,10/05/2023,2.0,Eier (Selveier),4150,Rennesøy
Seljestadveien 56,3450000,116,,2020.0,Leilighet,https://www.finn.no/realestate/homes/ad.html?finnkode=302516679,29741,68.7885221,16.5323239,10/05/2023,1.0,Andel,9406,Harstad
Brauterstubben 50,7200000,138,6.0,2023.0,Rekkehus,https://www.finn.no/realestate/homes/ad.html?finnkode=302515889,52173,59.973219,11.057581,10/05/2023,,Eier (Selveier),2007,Kjeller
Hallingstadveien 22,8450000,242,,2005.0,Enebolig,https://www.finn.no/realestate/homes/ad.html?finnkode=299226995,34917,59.8132814,10.2630189,10/05/2023,,Eier (Selveier),3406,Tranby
Stærvegen 2,3550000,82,3.0,1971.0,Leilighet,https://www.finn.no/realestate/homes/ad.html?finnkode=293946737,43292,69.6764776,18.9407666,10/05/2023,1.0,Andel,9015,Tromsø
Åkragata 94,5990000,119,5.0,2015.0,Rekkehus,https://www.finn.no/realestate/homes/ad.html?finnkode=302515362,50336,58.9615723,5.7574664,10/05/2023,2.0,Eier (Selveier),4015,Stavanger
Thorstein Stenbeks vei 57,2850000,120,5.0,1981.0,Rekkehus,https://www.finn.no/realestate/homes/ad.html?finnkode=302514626,23750,59.6563365,9.6723331,10/05/2023,,Andel,3610,Kongsberg
Størksvegen 5F,5390000,127,,,Leilighet,https://www.finn.no/realestate/homes/ad.html?finnkode=302514277,42440,61.3135596,12.2628773,10/05/2023,,Eier (Selveier),2420,Trysil
C. Sundts gate 36,1550000,24,1.0,1965.0,Leilighet,https://www.finn.no/realestate/homes/ad.html?finnkode=302514289,64583,60.3963273,5.3158116,10/05/2023,2.0,Andel,5004,Bergen
Kvislavegen 6,1180000,73,,2021.0,Leilighet,https://www.finn.no/realestate/homes/ad.html?finnkode=293323676,16164,63.788787,11.490363,10/05/2023,1.0,Andel,7654,Verdal
Jernbanegata 23 B,850000,77,3.0,2015.0,Leilighet,https://www.finn.no/realestate/homes/ad.html?finnkode=293239865,11038,63.7945753,11.4842456,10/05/2023,1.0,Andel,7650,Verdal
Bøkkerveien 10 C,4000000,35,1.0,2019.0,Leilighet,https://www.finn.no/realestate/homes/ad.html?finnkode=297619747,114285,59.92789,10.795351,10/05/2023,3.0,Eier (Selveier),579,Oslo
Olavs gate 12G,2890000,97,3.0,2001.0,Leilighet,https://www.finn.no/realestate/homes/ad.html?finnkode=302485576,29793,59.0547532,10.0296263,10/05/2023,,Andel,3256,Larvik
Fjelltunveien 1,6990000,211,6.0,1965.0,Enebolig,https://www.finn.no/realestate/homes/ad.html?finnkode=302487164,33127,59.6630257,10.6453632,10/05/2023,2.0,Eier (Selveier),1447,Drøbak
Lilloe-Olsens vei 21,10990000,148,5.0,1939.0,Tomannsbolig,https://www.finn.no/realestate/homes/ad.html?finnkode=302513114,74256,59.953762,10.783567,10/05/2023,2.0,Eier (Selveier),489,Oslo
Rabbenveien 4,2800000,169,5.0,1960.0,Enebolig,https://www.finn.no/realestate/homes/ad.html?finnkode=302374087,16568,67.2629167,15.4232705,10/05/2023,,Eier (Selveier),8200,Fauske
Storgata 166,1710000,38,1.0,2018.0,Leilighet,https://www.finn.no/realestate/homes/ad.html?finnkode=267920513,45000,69.65606,18.962729,10/05/2023,4.0,Andel,9008,Tromsø
Åsenhagen 3A,2400000,67,3.0,1967.0,Leilighet,https://www.finn.no/realestate/homes/ad.html?finnkode=302349676,35820,60.0140369,11.0333925,10/05/2023,2.0,Andel,2020,Skedsmokorset
Åkragata 52,5950000,118,5.0,2016.0,Rekkehus,https://www.finn.no/realestate/homes/ad.html?finnkode=302511302,50423,58.9618895,5.7569783,10/05/2023,,Eier (Selveier),4015,Stavanger
Breidablikk 100,3090000,143,5.0,2006.0,Leilighet,https://www.finn.no/realestate/homes/ad.html?finnkode=301685905,21608,59.2315075,6.1678435,10/05/2023,2.0,Eier (Selveier),4130,Hjelmeland
Nils Bays vei 38,6320000,64,,1953.0,Leilighet,https://www.finn.no/realestate/homes/ad.html?finnkode=302511056,98750,59.952857,10.741025,10/05/2023,2.0,Andel,876,Oslo
Kvednadalen 68 Klepp,2450000,55,3.0,2006.0,Leilighet,https://www.finn.no/realestate/homes/ad.html?finnkode=301807955,44545,58.7756687,5.6842957,10/05/2023,3.0,Eier (Selveier),4353,stasjon
Vallefaret 23,4370000,52,2.0,1954.0,Leilighet,https://www.finn.no/realestate/homes/ad.html?finnkode=298826224,84038,59.920329,10.802989,10/05/2023,4.0,Andel,663,Oslo
Smidsrødveien 73B,5375000,340,6.0,1974.0,Enebolig,https://www.finn.no/realestate/homes/ad.html?finnkode=302510015,15808,59.2378651,10.4268544,10/05/2023,,Eier (Selveier),3120,Nøtterøy
Barlindveien 40,8850000,293,,1967.0,Enebolig,https://www.finn.no/realestate/homes/ad.html?finnkode=269698036,30204,59.2822449,10.4397514,10/05/2023,,Eier (Selveier),3118,Tønsberg
Brekkeveien 23,1600000,24,1.0,1973.0,Leilighet,https://www.finn.no/realestate/homes/ad.html?finnkode=302502689,66666,59.6539634,10.7877561,10/05/2023,2.0,Andel,1430,Ås
Saudalen 61,4690000,175,5.0,1971.0,Tomannsbolig,https://www.finn.no/realestate/homes/ad.html?finnkode=302340512,26800,60.4785078,5.2613586,10/05/2023,,Eier (Selveier),5124,Morvik
Bratsbergvegen 342,4750000,160,,1967.0,Enebolig,https://www.finn.no/realestate/homes/ad.html?finnkode=298693718,29687,63.3557715,10.4428868,10/05/2023,2.0,Eier (Selveier),7039,Trondheim
Haugevegen 77A,1190000,39,2.0,1920.0,Leilighet,https://www.finn.no/realestate/homes/ad.html?finnkode=273983547,30512,59.4228424,5.2653382,10/05/2023,1.0,Eier (Selveier),5515,Haugesund
Televegen 7,3900000,384,9.0,1936.0,Enebolig,https://www.finn.no/realestate/homes/ad.html?finnkode=301826538,10156,61.9351709,5.1125946,10/05/2023,4.0,Eier (Selveier),6700,Måløy
Brånaåsen 7B,900000,70,,2008.0,Leilighet,https://www.finn.no/realestate/homes/ad.html?finnkode=302508772,12857,59.192822,9.9883859,10/05/2023,2.0,Andel,3282,Kvelde
Sandvollveien 40B,1700000,45,2.0,1970.0,Leilighet,https://www.finn.no/realestate/homes/ad.html?finnkode=302376488,37777,59.2599589,11.179607,10/05/2023,2.0,Andel,1743,Klavestadhaugen
Belsetveien 66,5600000,95,,1974.0,Rekkehus,https://www.finn.no/realestate/homes/ad.html?finnkode=299813514,58947,59.927464,10.487936,10/05/2023,,Eier (Selveier),1348,Rykkinn
Malerbakken 4,5000000,213,,1982.0,Enebolig,https://www.finn.no/realestate/homes/ad.html?finnkode=302379998,23474,61.1066995,10.4887637,10/05/2023,2.0,Eier (Selveier),2614,Lillehammer
Fredheimveien 33B,6200000,200,5.0,1958.0,Tomannsbolig,https://www.finn.no/realestate/homes/ad.html?finnkode=295609597,31000,59.94492,10.914573,10/05/2023,3.0,Eier (Selveier),1087,Oslo
Torgny Segerstedts vei 150,1850000,45,2.0,1972.0,Leilighet,https://www.finn.no/realestate/homes/ad.html?finnkode=302369606,41111,60.3448431,5.2970885,10/05/2023,2.0,Andel,5143,Fyllingsdalen
Mølleråsveien 7B,4500000,175,,1962.0,Enebolig,https://www.finn.no/realestate/homes/ad.html?finnkode=302506878,25714,59.1397611,10.2243549,10/05/2023,,Eier (Selveier),3216,Sandefjord
ESSENDROPS GATE 5,1200000,14,,1998.0,Garasje/Parkering,https://www.finn.no/realestate/homes/ad.html?finnkode=301801941,85714,59.928906,10.709976,10/05/2023,,Eier (Selveier),368,Oslo
Arups gate 22B,3100000,19,1.0,1890.0,Leilighet,https://www.finn.no/realestate/homes/ad.html?finnkode=302506499,163157,59.907061,10.771995,10/05/2023,2.0,Andel,192,Oslo
Raskenlundvegen 19,3950000,172,4.0,1977.0,Enebolig,https://www.finn.no/realestate/homes/ad.html?finnkode=297315576,22965,59.1168905,9.6552059,10/05/2023,,Eier (Selveier),3928,Porsgrunn
Søvigheia 55,1590000,96,,2005.0,Leilighet,https://www.finn.no/realestate/homes/ad.html?finnkode=302505959,16562,58.0743701,7.8588098,10/05/2023,2.0,Andel,4643,Søgne
Hasselbakken 16,5700000,155,4.0,1963.0,Enebolig,https://www.finn.no/realestate/homes/ad.html?finnkode=301915220,36774,59.7600333,10.2281279,10/05/2023,,Eier (Selveier),3413,Lier
Agnefestveien 40E,2380000,90,3.0,2012.0,Leilighet,https://www.finn.no/realestate/homes/ad.html?finnkode=302505103,26444,58.13259,7.0681722,10/05/2023,2.0,Eier (Selveier),4580,Lyngdal
Gråbrødreveien 2B,15000000,326,5.0,1990.0,Enebolig,https://www.finn.no/realestate/homes/ad.html?finnkode=294822877,46012,59.929741,10.665443,10/05/2023,,Eier (Selveier),377,Oslo
Berganveien 162,4655000,147,6.0,1951.0,Enebolig,https://www.finn.no/realestate/homes/ad.html?finnkode=299649434,31666,59.2030108,10.446887,10/05/2023,3.0,Eier (Selveier),3138,Skallestad
Vettrelia 36,7650000,160,5.0,1967.0,Tomannsbolig,https://www.finn.no/realestate/homes/ad.html?finnkode=302504054,47812,59.8245933,10.4668362,10/05/2023,2.0,Eier (Selveier),1392,Vettre
Espvegen 71,4690000,315,3.0,1966.0,Enebolig,https://www.finn.no/realestate/homes/ad.html?finnkode=296904528,14888,63.327411,10.3228495,10/05/2023,1.0,Eier (Selveier),7083,Leinstrand
Hagaliveien 21,12500000,200,6.0,1948.0,Enebolig,https://www.finn.no/realestate/homes/ad.html?finnkode=301770003,62500,59.934366,10.626585,10/05/2023,,Eier (Selveier),1358,Jar
Batteriveien 23,14600000,210,7.0,1963.0,Enebolig,https://www.finn.no/realestate/homes/ad.html?finnkode=301826848,69523,59.6762833,10.6272953,10/05/2023,,Eier (Selveier),1443,Drøbak
Nedre Mallasvikvegen 2A,4790000,136,,2017.0,Tomannsbolig,https://www.finn.no/realestate/homes/ad.html?finnkode=291790183,35220,61.505211,5.700103,10/05/2023,3.0,Eier (Selveier),6817,Naustdal
Eidsvågvegen 51,3250000,184,,1900.0,Enebolig,https://www.finn.no/realestate/homes/ad.html?finnkode=302502559,17663,59.7130097,5.5161015,10/05/2023,,Eier (Selveier),5554,Valevåg
Storgaten 85,2190000,80,3.0,1986.0,Leilighet,https://www.finn.no/realestate/homes/ad.html?finnkode=302502255,27375,58.3450638,8.5824852,10/05/2023,3.0,Eier (Selveier),4877,Grimstad
Sundts veg 89,5000000,66,,2020.0,Leilighet,https://www.finn.no/realestate/homes/ad.html?finnkode=302502185,75757,60.313921,5.332157,10/05/2023,2.0,Eier (Selveier),5221,Nesttun
Diamantveien 30,5790000,264,6.0,1974.0,Enebolig,https://www.finn.no/realestate/homes/ad.html?finnkode=302365330,21931,58.8362474,5.708879,10/05/2023,2.0,Eier (Selveier),4321,Sandnes
Solløsgata 35,8490000,369,,1949.0,Enebolig,https://www.finn.no/realestate/homes/ad.html?finnkode=297381502,23008,59.743389,10.011357,10/05/2023,,Eier (Selveier),3050,Mjøndalen
Micheletveien 38K,3200000,106,4.0,1974.0,Leilighet,https://www.finn.no/realestate/homes/ad.html?finnkode=302464613,30188,59.939247,10.88625,10/05/2023,3.0,Andel,1053,Oslo
Jerikoveien 99C,4090000,123,4.0,1980.0,Leilighet,https://www.finn.no/realestate/homes/ad.html?finnkode=295055092,33252,59.941191,10.895365,10/05/2023,4.0,Andel,1052,Oslo
Kubbaleitet 84,6490000,95,4.0,2023.0,Leilighet,https://www.finn.no/realestate/homes/ad.html?finnkode=301821265,68315,60.555954,5.259038,10/05/2023,2.0,Eier (Selveier),5916,Isdalstø
Kjøpmannsgata 8C,7690000,122,,2023.0,Leilighet,https://www.finn.no/realestate/homes/ad.html?finnkode=302501069,63032,63.467925,10.918274,10/05/2023,4.0,Eier (Selveier),7500,Stjørdal
Nygårdsveien 1C,8200000,280,8.0,1939.0,Enebolig,https://www.finn.no/realestate/homes/ad.html?finnkode=297038275,29285,59.9422013,11.0109286,10/05/2023,3.0,Eier (Selveier),1467,Strømmen
Teisenveien 26,4120000,58,3.0,1950.0,Leilighet,https://www.finn.no/realestate/homes/ad.html?finnkode=302493757,71034,59.914983,10.822071,10/05/2023,1.0,Andel,666,Oslo
Storevollen 4 Vestre,4190000,289,,1983.0,Enebolig,https://www.finn.no/realestate/homes/ad.html?finnkode=302499266,14498,59.041922,5.685312,10/05/2023,,Eier (Selveier),4152,Åmøy
Yvenlia 5,6500000,239,5.0,1980.0,Enebolig,https://www.finn.no/realestate/homes/ad.html?finnkode=302340693,27196,59.2827395,11.0616329,10/05/2023,2.0,Eier (Selveier),1712,Grålum
Aumliveien 17,1830000,218,,1961.0,Enebolig,https://www.finn.no/realestate/homes/ad.html?finnkode=301942514,8394,62.2733482,10.7831458,10/05/2023,,Eier (Selveier),2500,Tynset
Dampsagveien 9,4990000,71,3.0,2001.0,Leilighet,https://www.finn.no/realestate/homes/ad.html?finnkode=302498808,70281,59.9517069,11.042897,10/05/2023,3.0,Andel,2004,Lillestrøm
Fagerlia 30,4990000,84,3.0,1870.0,Leilighet,https://www.finn.no/realestate/homes/ad.html?finnkode=233318290,59404,59.744467,10.226738,10/05/2023,2.0,Eier (Selveier),3011,Drammen
Åsebråttunet 12C,5890000,104,,2020.0,Leilighet,https://www.finn.no/realestate/homes/ad.html?finnkode=294389174,56634,59.226403,10.950627,10/05/2023,1.0,Eier (Selveier),1605,Fredrikstad
Vadmyrveien 71B,2190000,57,2.0,1974.0,Leilighet,https://www.finn.no/realestate/homes/ad.html?finnkode=302498255,38421,60.3638678,5.2272919,10/05/2023,1.0,Andel,5172,Loddefjord
Nøstegaten 65A,3290000,40,2.0,1899.0,Leilighet,https://www.finn.no/realestate/homes/ad.html?finnkode=302381899,82250,60.3931802,5.315132,10/05/2023,2.0,Eier (Selveier),5011,Bergen
Lerkeveien 27,5990000,332,,1973.0,Enebolig,https://www.finn.no/realestate/homes/ad.html?finnkode=295212825,18042,59.10967,10.2158734,10/05/2023,1.0,Eier (Selveier),3209,Sandefjord
Saupstadringen 17 A,2650000,94,4.0,1972.0,Leilighet,https://www.finn.no/realestate/homes/ad.html?finnkode=302497593,28191,63.365925,10.3541313,10/05/2023,4.0,Andel,7078,Saupstad
Rueguto 105 Bø i,3200000,153,7.0,2012.0,Enebolig,https://www.finn.no/realestate/homes/ad.html?finnkode=302359332,20915,59.433905,9.014527,10/05/2023,2.0,Eier (Selveier),3803,Telemark
Vollavegen 47B Indre,3800000,177,5.0,1971.0,Rekkehus,https://www.finn.no/realestate/homes/ad.html?finnkode=301968030,21468,60.4168668,5.4720873,10/05/2023,3.0,Eier (Selveier),5261,Arna
Torgveien 13,4300000,69,,2010.0,Leilighet,https://www.finn.no/realestate/homes/ad.html?finnkode=302496793,62318,59.7188913,10.8404833,10/05/2023,5.0,Eier (Selveier),1400,Ski
Elvegata 9,1550000,47,,2011.0,Leilighet,https://www.finn.no/realestate/homes/ad.html?finnkode=302496708,32978,62.7394982,7.1673468,10/05/2023,1.0,Andel,6413,Molde
Disenveien 51,3990000,53,2.0,1959.0,Leilighet,https://www.finn.no/realestate/homes/ad.html?finnkode=299371154,75283,59.941766,10.79787,10/05/2023,3.0,Andel,587,Oslo
Kapellveien 107,5600000,98,3.0,2002.0,Rekkehus,https://www.finn.no/realestate/homes/ad.html?finnkode=302430142,57142,59.8510333,10.6575462,10/05/2023,2.0,Eier (Selveier),1452,Nesoddtangen
Nordahl Bruns gate 18A,3650000,35,2.0,1927.0,Leilighet,https://www.finn.no/realestate/homes/ad.html?finnkode=302368676,104285,59.918688,10.739252,10/05/2023,3.0,Andel,165,Oslo
Bregnevegen 16,6590000,311,5.0,2003.0,Enebolig,https://www.finn.no/realestate/homes/ad.html?finnkode=302403244,21189,59.023393,6.055939,10/05/2023,,Eier (Selveier),4104,Jørpeland
Skogveien 29 c,12000000,153,5.0,1963.0,Enebolig,https://www.finn.no/realestate/homes/ad.html?finnkode=300745575,78431,59.654095,10.643673,10/05/2023,2.0,Eier (Selveier),1446,Drøbak
Krytja 10,2500000,161,5.0,1946.0,Enebolig,https://www.finn.no/realestate/homes/ad.html?finnkode=302349918,15527,67.2341248,15.4083136,10/05/2023,,Eier (Selveier),8211,Fauske
Nordfrøyveien 512,3590000,147,5.0,1959.0,Enebolig,https://www.finn.no/realestate/homes/ad.html?finnkode=302368274,24421,63.7398865,8.8354338,10/05/2023,,Eier (Selveier),7260,Sistranda
Tåjeveien 2B Ytre,5650000,112,5.0,2023.0,Tomannsbolig,https://www.finn.no/realestate/homes/ad.html?finnkode=293032494,50446,59.738924,11.01334,10/05/2023,,Eier (Selveier),1914,Enebakk
Eiriks gate 12,3400000,32,2.0,2005.0,Leilighet,https://www.finn.no/realestate/homes/ad.html?finnkode=302344740,106250,59.9122756,10.7722818,10/05/2023,1.0,Eier (Selveier),650,Oslo
Klæbuveien 73,4190000,77,,1937.0,Leilighet,https://www.finn.no/realestate/homes/ad.html?finnkode=302493470,54415,63.414463,10.400317,10/05/2023,2.0,Andel,7030,Trondheim
Jerpefaret 8A,11500000,161,5.0,1986.0,Tomannsbolig,https://www.finn.no/realestate/homes/ad.html?finnkode=302493477,71428,59.968844,10.649403,10/05/2023,,Eier (Selveier),788,Oslo
Alingsåsveien 29,3290000,98,3.0,1974.0,Leilighet,https://www.finn.no/realestate/homes/ad.html?finnkode=302493539,33571,59.9703077,10.9978327,10/05/2023,4.0,Andel,2013,Skjetten
Hamarøyveien,1400000,163,6.0,1930.0,Enebolig,https://www.finn.no/realestate/homes/ad.html?finnkode=282151221,8588,68.129952,15.890735,10/05/2023,3.0,Eier (Selveier),5913,Ulvsvåg
Behrens' gate 8 A,32000000,212,,1900.0,Leilighet,https://www.finn.no/realestate/homes/ad.html?finnkode=302492470,150943,59.916975,10.71505,10/05/2023,4.0,Eier (Selveier),257,Oslo
Markusveien 57,5790000,165,8.0,1957.0,Enebolig,https://www.finn.no/realestate/homes/ad.html?finnkode=302365907,35090,59.725064,10.221226,10/05/2023,,Eier (Selveier),3041,Drammen
Blyveien 1A,2290000,82,,1967.0,Leilighet,https://www.finn.no/realestate/homes/ad.html?finnkode=302492038,27926,58.144024,7.9563393,10/05/2023,3.0,Andel,4629,Kristiansand S
