address,price,area,rooms,year,type,url,price_per_m2,lat,lon,date,floor,ownership,postal_code,city
Åsbråtstien 36,4200000,96,4.0,1983.0,Leilighet,https://www.finn.no/realestate/homes/ad.html?finnkode=297752009,43750,59.828596,10.784131,14/04/2023,3.0,Andel,1251,Oslo
Daletoppen 18,4290000,74,,1978.0,Leilighet,https://www.finn.no/realestate/homes/ad.html?finnkode=298807948,57972,59.832468,10.4532129,14/04/2023,1.0,Eier (Selveier),1387,Asker
Thaulowkaia 2,4190000,56,2.0,2003.0,Leilighet,https://www.finn.no/realestate/homes/ad.html?finnkode=298807706,74821,63.43565,10.4146526,14/04/2023,6.0,Eier (Selveier),7042,Trondheim
Mørtelverksbakken 19,6590000,79,4.0,2018.0,Leilighet,https://www.finn.no/realestate/homes/ad.html?finnkode=294535610,83417,59.935954,10.806934,14/04/2023,3.0,Eier (Selveier),580,Oslo
Holmenveien 21,8500000,269,,1950.0,Enebolig,https://www.finn.no/realestate/homes/ad.html?finnkode=292394795,31598,59.2464787,10.4185876,14/04/2023,,Eier (Selveier),3120,Nøtterøy
Disenveien 43,4940000,74,3.0,1960.0,Leilighet,https://www.finn.no/realestate/homes/ad.html?finnkode=293122260,66756,59.941154,10.796602,14/04/2023,3.0,Andel,587,Oslo
Gustav Vigelands vei 1,9500000,73,2.0,2000.0,Leilighet,https://www.finn.no/realestate/homes/ad.html?finnkode=298773977,130136,59.92284,10.687479,14/04/2023,5.0,Eier (Selveier),274,Oslo
Manesjen 3,8250000,127,4.0,2004.0,Leilighet,https://www.finn.no/realestate/homes/ad.html?finnkode=298804834,64960,60.1456542,11.1678917,14/04/2023,7.0,Eier (Selveier),2050,Jessheim
Banebakken 10,4990000,164,6.0,1958.0,Enebolig,https://www.finn.no/realestate/homes/ad.html?finnkode=298807136,30426,59.2564289,10.4071805,14/04/2023,,Eier (Selveier),3121,Nøtterøy
Erik Werenskiolds veg 30,3100000,209,,1968.0,Enebolig,https://www.finn.no/realestate/homes/ad.html?finnkode=297021738,14832,60.1955097,12.0180959,14/04/2023,,Eier (Selveier),2213,Kongsvinger
Hobbelstadjordet 13,3890000,127,,1982.0,Enebolig,https://www.finn.no/realestate/homes/ad.html?finnkode=298669806,30629,59.7796314,9.9083466,14/04/2023,,Eier (Selveier),3303,Hokksund
Utsiktsveien 5,4850000,147,4.0,1968.0,Enebolig,https://www.finn.no/realestate/homes/ad.html?finnkode=298527357,32993,59.005556,10.026479,14/04/2023,,Eier (Selveier),3292,Stavern
Leitetunet 11,1590000,36,2.0,1970.0,Leilighet,https://www.finn.no/realestate/homes/ad.html?finnkode=291456994,44166,67.289307,14.4162923,14/04/2023,,Andel,8009,Bodø
Kanalveien 15,4200000,49,2.0,2010.0,Leilighet,https://www.finn.no/realestate/homes/ad.html?finnkode=298672001,85714,59.9514817,11.0458759,14/04/2023,3.0,Eier (Selveier),2004,Lillestrøm
Vår Frue gate 8,3890000,49,,1870.0,Leilighet,https://www.finn.no/realestate/homes/ad.html?finnkode=298806352,79387,63.429281,10.398694,14/04/2023,3.0,Eier (Selveier),7013,Trondheim
Nordahl Griegs vei 7,12750000,172,6.0,2015.0,Enebolig,https://www.finn.no/realestate/homes/ad.html?finnkode=298806421,74127,59.934232,10.973647,14/04/2023,,Eier (Selveier),1462,Fjellhamar
Spetalenveien 23,4700000,190,,1988.0,Enebolig,https://www.finn.no/realestate/homes/ad.html?finnkode=298794238,24736,59.2958139,10.7651188,14/04/2023,,Eier (Selveier),1642,Saltnes
Trommestadveien 50,3990000,385,,1880.0,Enebolig,https://www.finn.no/realestate/homes/ad.html?finnkode=298806368,10363,58.4484776,8.7665865,14/04/2023,,Eier (Selveier),4816,Kolbjørnsvik
Mauråsveien 1,3290000,211,,1977.0,Enebolig,https://www.finn.no/realestate/homes/ad.html?finnkode=298806338,15592,58.4822809,8.7747467,14/04/2023,,Eier (Selveier),4844,Arendal
Rustadsaga 11,4250000,68,3.0,1964.0,Leilighet,https://www.finn.no/realestate/homes/ad.html?finnkode=298786617,62500,59.872433,10.849361,14/04/2023,3.0,Andel,693,Oslo
Nordlysveien 7,11300000,98,4.0,1949.0,Tomannsbolig,https://www.finn.no/realestate/homes/ad.html?finnkode=294350944,115306,59.953783,10.787275,14/04/2023,1.0,Eier (Selveier),489,Oslo
Mathiasbakken 7L,6500000,121,4.0,2005.0,Leilighet,https://www.finn.no/realestate/homes/ad.html?finnkode=298794374,53719,59.2376393,10.4521051,14/04/2023,3.0,Eier (Selveier),3132,Husøysund
Cappelens gate 6C,2590000,76,3.0,2014.0,Leilighet,https://www.finn.no/realestate/homes/ad.html?finnkode=298738164,34078,59.2099561,9.6044631,14/04/2023,3.0,Andel,3717,Skien
Nygårdsgaten 55,2900000,54,2.0,2005.0,Leilighet,https://www.finn.no/realestate/homes/ad.html?finnkode=293362038,53703,60.3862419,5.3301176,14/04/2023,2.0,Andel,5008,Bergen
Erling Skjalgssons gate 5B,5190000,63,4.0,1898.0,Leilighet,https://www.finn.no/realestate/homes/ad.html?finnkode=298664514,82380,59.917989,10.701368,14/04/2023,1.0,Eier (Selveier),265,Oslo
Liaveien 5,1790000,65,,1981.0,Leilighet,https://www.finn.no/realestate/homes/ad.html?finnkode=298805951,27538,58.4961666,8.8486171,14/04/2023,2.0,Eier (Selveier),4815,Saltrød
Evjenvegen 152J,1890000,56,2.0,2000.0,Leilighet,https://www.finn.no/realestate/homes/ad.html?finnkode=298647144,33750,69.6682313,19.0289359,14/04/2023,1.0,Andel,9024,Tomasjord
Lindebergåsen 25C,4200000,125,5.0,1978.0,Leilighet,https://www.finn.no/realestate/homes/ad.html?finnkode=298498393,33600,59.929585,10.873461,14/04/2023,3.0,Andel,1071,Oslo
Brattsbergvegen 8B,2200000,80,4.0,1953.0,Leilighet,https://www.finn.no/realestate/homes/ad.html?finnkode=298655968,27500,59.1470856,9.6636656,14/04/2023,1.0,Andel,3912,Porsgrunn
Sinsenveien 37,6800000,84,4.0,2004.0,Leilighet,https://www.finn.no/realestate/homes/ad.html?finnkode=298805521,80952,59.932218,10.789282,14/04/2023,1.0,Eier (Selveier),585,Oslo
Vassbygdvegen 786,5790000,378,,1950.0,Enebolig,https://www.finn.no/realestate/homes/ad.html?finnkode=298799656,15317,63.508022,11.00971,14/04/2023,,Eier (Selveier),7512,Stjørdal
Storetungrova 30,2650000,53,2.0,2003.0,Leilighet,https://www.finn.no/realestate/homes/ad.html?finnkode=298805448,50000,61.4525722,5.895843,14/04/2023,2.0,Eier (Selveier),6812,Førde
Stemhei 1,2990000,149,,1963.0,Enebolig,https://www.finn.no/realestate/homes/ad.html?finnkode=298805621,20067,58.2677343,7.9660953,14/04/2023,,Eier (Selveier),4706,Vennesla
Eikeneset 18,7690000,220,7.0,1972.0,Enebolig,https://www.finn.no/realestate/homes/ad.html?finnkode=298663485,34954,60.2657235,5.2626732,14/04/2023,2.0,Eier (Selveier),5259,Hjellestad
Nesveien 1C,1990000,86,,1961.0,Leilighet,https://www.finn.no/realestate/homes/ad.html?finnkode=298805533,23139,58.5049961,8.862352,14/04/2023,2.0,Andel,4810,Eydehavn
Spektrumveien 2,4100000,65,3.0,1950.0,Leilighet,https://www.finn.no/realestate/homes/ad.html?finnkode=298688967,63076,59.915238,10.816594,14/04/2023,3.0,Andel,666,Oslo
Sandvikjo 35,2500000,113,5.0,1933.0,Enebolig,https://www.finn.no/realestate/homes/ad.html?finnkode=298787792,22123,59.7780041,5.4143832,14/04/2023,2.0,Eier (Selveier),5410,Sagvåg
Elgfaret 44A,4200000,77,3.0,1993.0,Leilighet,https://www.finn.no/realestate/homes/ad.html?finnkode=298799640,54545,59.7767985,10.7959894,14/04/2023,1.0,Eier (Selveier),1415,Oppegård
Hansteens gate 23,6490000,100,,1894.0,Leilighet,https://www.finn.no/realestate/homes/ad.html?finnkode=272054178,64900,59.91243,10.720596,14/04/2023,,Eier (Selveier),254,Oslo
Hammarvikringen 84 B,3100000,90,3.0,2018.0,Leilighet,https://www.finn.no/realestate/homes/ad.html?finnkode=298800111,34444,63.695392,8.80546,14/04/2023,1.0,Eier (Selveier),7263,Hamarvik
Torsbyvegen 1A,2290000,78,2.0,2006.0,Leilighet,https://www.finn.no/realestate/homes/ad.html?finnkode=294334789,29358,58.2708769,7.9714936,14/04/2023,3.0,Andel,4700,Vennesla
Vestvegen 14,4990000,239,6.0,1963.0,Enebolig,https://www.finn.no/realestate/homes/ad.html?finnkode=270174343,20878,58.7441356,5.6318646,14/04/2023,,Eier (Selveier),4341,Bryne
Tjuvholmen allé 21,10500000,74,,2012.0,Leilighet,https://www.finn.no/realestate/homes/ad.html?finnkode=294316058,141891,59.90699,10.72039,14/04/2023,7.0,Eier (Selveier),252,Oslo
Plogsvingen 10,9950000,268,6.0,1974.0,Enebolig,https://www.finn.no/realestate/homes/ad.html?finnkode=277870813,37126,59.807568,10.794416,14/04/2023,,Eier (Selveier),1410,Kolbotn
Gamle Kongevei 24 Berg i,3400000,89,4.0,2018.0,Rekkehus,https://www.finn.no/realestate/homes/ad.html?finnkode=298804600,38202,59.111936,11.272496,14/04/2023,,Eier (Selveier),1789,Østfold
Minneveien 56,4350000,87,4.0,1965.0,Rekkehus,https://www.finn.no/realestate/homes/ad.html?finnkode=293869107,50000,59.4404778,10.6278901,14/04/2023,,Andel,1512,Moss
Vedderheia 300,2590000,126,5.0,2013.0,Leilighet,https://www.finn.no/realestate/homes/ad.html?finnkode=298629696,20555,58.1094387,7.7597534,14/04/2023,2.0,Eier (Selveier),4642,Søgne
Egshaugen 1,2690000,68,3.0,1957.0,Leilighet,https://www.finn.no/realestate/homes/ad.html?finnkode=298633301,39558,58.1581968,7.9893302,14/04/2023,3.0,Andel,4615,Kristiansand S
Hellemyr terrasse 36B,2690000,115,4.0,1978.0,Tomannsbolig,https://www.finn.no/realestate/homes/ad.html?finnkode=298638213,23391,58.1446412,7.9327472,14/04/2023,,Eier (Selveier),4628,Kristiansand S
Fidjeåsen 16,3490000,84,3.0,2006.0,Leilighet,https://www.finn.no/realestate/homes/ad.html?finnkode=298491919,41547,58.1282863,8.0930309,14/04/2023,2.0,Andel,4639,Kristiansand S
Vågslien 44,3990000,148,,1970.0,Rekkehus,https://www.finn.no/realestate/homes/ad.html?finnkode=295189561,26959,60.4544811,5.3005931,14/04/2023,,Eier (Selveier),5113,Tertnes
Tjoravegen 11,2890000,85,,1969.0,Leilighet,https://www.finn.no/realestate/homes/ad.html?finnkode=298804048,34000,58.9115145,5.6024354,14/04/2023,1.0,Eier (Selveier),4055,Sola
Kongerødvegen 54C,1490000,79,3.0,1966.0,Leilighet,https://www.finn.no/realestate/homes/ad.html?finnkode=298804043,18860,59.1529305,9.6165551,14/04/2023,3.0,Andel,3737,Skien
Kristian Dillevigs vei 9,11750000,234,8.0,2007.0,Enebolig,https://www.finn.no/realestate/homes/ad.html?finnkode=295963934,50213,59.769893,10.82767,14/04/2023,,Eier (Selveier),1415,Oppegård
Vinkelgata 6,4500000,437,,1923.0,Enebolig,https://www.finn.no/realestate/homes/ad.html?finnkode=298800680,10297,62.5659068,7.6914561,14/04/2023,,Eier (Selveier),6300,Åndalsnes
Erkleivveien 141,2350000,117,,1982.0,Enebolig,https://www.finn.no/realestate/homes/ad.html?finnkode=298803538,20085,58.2680093,8.0372735,14/04/2023,,Eier (Selveier),4634,Kristiansand S
Hellerudgrenda 35,8600000,133,6.0,1985.0,Leilighet,https://www.finn.no/realestate/homes/ad.html?finnkode=298803554,64661,59.91163,10.856978,14/04/2023,,Andel,672,Oslo
Grundsetmovegen 38 A,2990000,93,3.0,2020.0,Leilighet,https://www.finn.no/realestate/homes/ad.html?finnkode=297689436,32150,60.898817,11.518222,14/04/2023,1.0,Eier (Selveier),2406,Elverum
Eidsbakkane 101,7200000,399,8.0,2004.0,Enebolig,https://www.finn.no/realestate/homes/ad.html?finnkode=298803036,18045,59.2793359,5.2885511,14/04/2023,3.0,Eier (Selveier),4250,Kopervik
Halhjemsmarka 242,6990000,209,7.0,2002.0,Enebolig,https://www.finn.no/realestate/homes/ad.html?finnkode=293476086,33444,60.1408608,5.4362636,14/04/2023,2.0,Eier (Selveier),5208,Os
Stærvegen 93,3200000,143,,1979.0,Leilighet,https://www.finn.no/realestate/homes/ad.html?finnkode=298362302,22377,60.1718745,12.0320306,14/04/2023,3.0,Eier (Selveier),2209,Kongsvinger
Ladebekken 7A,5990000,78,,2017.0,Leilighet,https://www.finn.no/realestate/homes/ad.html?finnkode=298802839,76794,63.4436218,10.4370951,14/04/2023,7.0,Eier (Selveier),7066,Trondheim
Stigåsveien 5,2950000,145,4.0,1926.0,Enebolig,https://www.finn.no/realestate/homes/ad.html?finnkode=296369838,20344,59.1210009,10.2390541,14/04/2023,,Eier (Selveier),3222,Sandefjord
Liljevegen 18,1200000,66,1.0,1974.0,Leilighet,https://www.finn.no/realestate/homes/ad.html?finnkode=282930031,18181,59.112586,9.666862,14/04/2023,4.0,Andel,3929,Porsgrunn
Skorvatjørno 9,1690000,56,2.0,1984.0,Leilighet,https://www.finn.no/realestate/homes/ad.html?finnkode=298802327,30178,60.1758377,5.4144821,14/04/2023,1.0,Eier (Selveier),5217,Hagavik
STALLOGARGOVEIEN 8,1050000,170,5.0,1950.0,Enebolig,https://www.finn.no/realestate/homes/ad.html?finnkode=298795821,6176,70.517108,23.9596996,14/04/2023,,Eier (Selveier),9620,Kvalsund
Marcus Thranes gate 1A,1550000,30,,1965.0,Leilighet,https://www.finn.no/realestate/homes/ad.html?finnkode=289605020,51666,60.7979214,10.6861006,14/04/2023,1.0,Andel,2821,Gjøvik
Neerlandveien 4,1850000,215,,1905.0,Enebolig,https://www.finn.no/realestate/homes/ad.html?finnkode=285690735,8604,63.426641,7.849948,14/04/2023,,Eier (Selveier),6570,Smøla
Storbotn 95 Øvre,5390000,83,,2014.0,Leilighet,https://www.finn.no/realestate/homes/ad.html?finnkode=298801923,64939,60.449288,5.323514,14/04/2023,3.0,Eier (Selveier),5106,Ervik
Geilo 2,1990000,325,8.0,1965.0,Enebolig,https://www.finn.no/realestate/homes/ad.html?finnkode=298801917,6123,59.6389302,5.3811177,14/04/2023,,Eier (Selveier),5551,Auklandshamn
Bakerovnsberget 19 Bærums,10950000,285,7.0,1985.0,Enebolig,https://www.finn.no/realestate/homes/ad.html?finnkode=296935035,38421,59.940301,10.5132,14/04/2023,2.0,Eier (Selveier),1353,Verk
Skuteveien 3B,1890000,87,3.0,1971.0,Leilighet,https://www.finn.no/realestate/homes/ad.html?finnkode=298525414,21724,58.1067802,7.9445681,14/04/2023,3.0,Andel,4624,Kristiansand S
Torvmyrveien 44A,2650000,63,3.0,1983.0,Leilighet,https://www.finn.no/realestate/homes/ad.html?finnkode=298532818,42063,59.0086506,5.651472,14/04/2023,2.0,Eier (Selveier),4072,Randaberg
Falkhyttrøra 8,1500000,67,2.0,2006.0,Leilighet,https://www.finn.no/realestate/homes/ad.html?finnkode=298506233,22388,62.8057537,6.8895548,14/04/2023,3.0,Andel,6480,Aukra
Ada Arnfinsens veg 18B,6800000,206,,1983.0,Enebolig,https://www.finn.no/realestate/homes/ad.html?finnkode=290607178,33009,63.3896797,10.4299623,14/04/2023,2.0,Eier (Selveier),7036,Trondheim
Kjærlighetsstien 29A,1840000,96,4.0,1961.0,Leilighet,https://www.finn.no/realestate/homes/ad.html?finnkode=298796576,19166,59.1291427,11.3741516,14/04/2023,1.0,Andel,1781,Halden
Måstadveien 34,1400000,173,4.0,1981.0,Rekkehus,https://www.finn.no/realestate/homes/ad.html?finnkode=298797030,8092,59.112916,11.4410232,14/04/2023,2.0,Andel,1793,Tistedal
Sandakerveien 50B,5900000,76,2.0,1949.0,Leilighet,https://www.finn.no/realestate/homes/ad.html?finnkode=286947174,77631,59.936546,10.764028,14/04/2023,,Eier (Selveier),477,Oslo
Fossumsvingen 33,4985000,115,5.0,2021.0,Rekkehus,https://www.finn.no/realestate/homes/ad.html?finnkode=273413772,43347,59.98279,11.25691,14/04/2023,2.0,Eier (Selveier),1920,Sørumsand
Røllikvegen 2E,8800000,156,7.0,2014.0,Enebolig,https://www.finn.no/realestate/homes/ad.html?finnkode=285098483,56410,63.4081942,10.4221154,14/04/2023,3.0,Eier (Selveier),7032,Trondheim
Olsvikveien 58,5200000,158,,1984.0,Enebolig,https://www.finn.no/realestate/homes/ad.html?finnkode=298800946,32911,60.3796061,5.2095465,14/04/2023,,Eier (Selveier),5184,Olsvik
Sagstuvegen 18A,1190000,90,,2021.0,Leilighet,https://www.finn.no/realestate/homes/ad.html?finnkode=298800835,13222,63.795951,11.467147,14/04/2023,1.0,Andel,7653,Verdal
Bratthaugen 21,3650000,134,,2004.0,Enebolig,https://www.finn.no/realestate/homes/ad.html?finnkode=297755630,27238,67.2576723,15.432149,14/04/2023,2.0,Eier (Selveier),8210,Fauske
Havnevegen 6B,9900000,336,7.0,2017.0,Leilighet,https://www.finn.no/realestate/homes/ad.html?finnkode=298796166,29464,66.20019,13.012578,14/04/2023,2.0,Eier (Selveier),8700,Nesna
Nesveien 195,2200000,202,,1961.0,Enebolig,https://www.finn.no/realestate/homes/ad.html?finnkode=298800414,10891,63.7608965,9.6613658,14/04/2023,,Eier (Selveier),7165,Oksvoll
Agatveien 10,4750000,276,,1973.0,Enebolig,https://www.finn.no/realestate/homes/ad.html?finnkode=298800348,17210,58.8326798,5.7092523,14/04/2023,,Eier (Selveier),4321,Sandnes
Holtheflata 20 A,3250000,70,3.0,2022.0,Leilighet,https://www.finn.no/realestate/homes/ad.html?finnkode=298690960,46428,63.197781,10.31132,14/04/2023,2.0,Eier (Selveier),7234,Ler
GIMLEVEIEN 15,1200000,17,1.0,1981.0,Leilighet,https://www.finn.no/realestate/homes/ad.html?finnkode=298789222,70588,59.4358071,10.6432046,14/04/2023,1.0,Eier (Selveier),1511,Moss
Geitnessvingen 64,3850000,113,5.0,2019.0,Enebolig,https://www.finn.no/realestate/homes/ad.html?finnkode=298800276,34070,62.728031,7.424852,14/04/2023,,Eier (Selveier),6456,Skåla
Solhola 120,4090000,155,,1978.0,Enebolig,https://www.finn.no/realestate/homes/ad.html?finnkode=298800175,26387,60.4167066,5.2255096,14/04/2023,,Eier (Selveier),5300,Kleppestø
Viebakkane 26,6500000,171,5.0,2012.0,Rekkehus,https://www.finn.no/realestate/homes/ad.html?finnkode=298800319,38011,61.4544251,5.9019995,14/04/2023,,Eier (Selveier),6812,Førde
Stangeløkkveien 4,2100000,68,,1952.0,Leilighet,https://www.finn.no/realestate/homes/ad.html?finnkode=298799822,30882,59.1272532,11.3762401,14/04/2023,3.0,Andel,1778,Halden
Kjerrvikveien 4,6590000,200,,1920.0,Enebolig,https://www.finn.no/realestate/homes/ad.html?finnkode=271477533,32950,59.0023657,9.7403444,14/04/2023,,Eier (Selveier),3970,Langesund
Hegrenesveien 2,2900000,58,2.0,1956.0,Leilighet,https://www.finn.no/realestate/homes/ad.html?finnkode=298657996,50000,60.4186217,5.3065433,14/04/2023,1.0,Eier (Selveier),5042,Bergen
Gauselhagen 1,6890000,173,7.0,1993.0,Enebolig,https://www.finn.no/realestate/homes/ad.html?finnkode=298730445,39826,58.9063523,5.7365359,14/04/2023,,Eier (Selveier),4032,Stavanger
Gamle Kuliaveg 30,1100000,74,,2011.0,Leilighet,https://www.finn.no/realestate/homes/ad.html?finnkode=290991608,14864,58.1571826,7.8368428,14/04/2023,4.0,Andel,4645,Nodeland
Balders vei 3,3200000,429,14.0,1917.0,Enebolig,https://www.finn.no/realestate/homes/ad.html?finnkode=298799420,7459,63.6879516,9.6638402,14/04/2023,,Eier (Selveier),7130,Brekstad
Krokenveien 47,12500000,471,,1850.0,Gårdsbruk/Småbruk,https://www.finn.no/realestate/homes/ad.html?finnkode=298799320,26539,59.1222153,10.1785409,14/04/2023,,Eier (Selveier),3232,Sandefjord
Seljevegen 28,5390000,283,,1960.0,Enebolig,https://www.finn.no/realestate/homes/ad.html?finnkode=260783267,19045,60.781606,10.679433,14/04/2023,,Eier (Selveier),2818,Gjøvik
Thomas Heftyes gate 64A,6500000,72,4.0,1929.0,Leilighet,https://www.finn.no/realestate/homes/ad.html?finnkode=298626799,90277,59.922176,10.70462,14/04/2023,2.0,Aksje,267,Oslo
Børsteveien 9,2700000,85,4.0,2023.0,Leilighet,https://www.finn.no/realestate/homes/ad.html?finnkode=298798891,31764,59.932978,10.794977,14/04/2023,5.0,Andel,585,Oslo
Dalsveien 26,15000000,280,9.0,1973.0,Enebolig,https://www.finn.no/realestate/homes/ad.html?finnkode=297622884,53571,59.944038,10.688449,14/04/2023,2.0,Eier (Selveier),376,Oslo
Storestraumen 173,2390000,49,2.0,2015.0,Leilighet,https://www.finn.no/realestate/homes/ad.html?finnkode=298798719,48775,60.226994,5.455232,14/04/2023,1.0,Eier (Selveier),5212,Søfteland
Storsvebakkvegen 16B,490000,138,,1977.0,Tomannsbolig,https://www.finn.no/realestate/homes/ad.html?finnkode=298798945,3550,63.9927201,11.1079311,14/04/2023,,Eier (Selveier),7796,Follafoss
Gåshaugen 9,4950000,174,,1979.0,Enebolig,https://www.finn.no/realestate/homes/ad.html?finnkode=294728404,28448,58.850861,5.7169785,14/04/2023,2.0,Eier (Selveier),4319,Sandnes
Jernalderveien 55B,3790000,117,4.0,1974.0,Leilighet,https://www.finn.no/realestate/homes/ad.html?finnkode=298781133,32393,58.9442082,5.693046,14/04/2023,8.0,Andel,4041,Hafrsfjord
Prøvenlia 43A,1690000,68,,2021.0,Leilighet,https://www.finn.no/realestate/homes/ad.html?finnkode=298798153,24852,60.714256,10.602481,14/04/2023,1.0,Andel,2833,Raufoss
Nedre Mølster 7,3100000,95,4.0,1979.0,Leilighet,https://www.finn.no/realestate/homes/ad.html?finnkode=298797828,32631,60.634545,6.42053,14/04/2023,2.0,Andel,5705,Voss
Nedre Mølster 7,3100000,95,4.0,1979.0,Leilighet,https://www.finn.no/realestate/homes/ad.html?finnkode=298797828,32631,60.634545,6.42053,14/04/2023,2.0,Andel,5705,Voss
Syverstadkollen 54,8500000,195,,1950.0,Enebolig,https://www.finn.no/realestate/homes/ad.html?finnkode=298797739,43589,59.8460083,10.4872511,14/04/2023,,Eier (Selveier),1394,Nesbru
Glimmerveien 1,1150000,35,1.0,1975.0,Leilighet,https://www.finn.no/realestate/homes/ad.html?finnkode=298540863,32857,59.644878,9.639925,14/04/2023,4.0,Andel,3615,Kongsberg
Ravnåsvegen 322,2790000,159,,1971.0,Enebolig,https://www.finn.no/realestate/homes/ad.html?finnkode=298797116,17547,58.2513208,7.9492104,14/04/2023,,Eier (Selveier),4706,Vennesla
Malerhaugveien 27,4990000,53,2.0,2023.0,Leilighet,https://www.finn.no/realestate/homes/ad.html?finnkode=298797272,94150,59.916656,10.795903,14/04/2023,2.0,Eier (Selveier),663,Oslo
Hans Petter Lunds vei 31B,2450000,107,5.0,2002.0,Rekkehus,https://www.finn.no/realestate/homes/ad.html?finnkode=298653035,22897,59.5848616,11.2677405,14/04/2023,,Andel,1859,Slitu
Baglergata 14,3940000,215,4.0,1971.0,Enebolig,https://www.finn.no/realestate/homes/ad.html?finnkode=295123098,18325,59.1128842,9.655338,14/04/2023,2.0,Eier (Selveier),3936,Porsgrunn
Høsbjørvegen 234,4700000,240,,1957.0,Enebolig,https://www.finn.no/realestate/homes/ad.html?finnkode=298797055,19583,60.8710953,11.0045472,14/04/2023,,Eier (Selveier),2388,Brumunddal
Løkkerudveien 12,5000000,122,6.0,2023.0,Tomannsbolig,https://www.finn.no/realestate/homes/ad.html?finnkode=298796983,40983,59.603528,11.079877,14/04/2023,1.0,Eier (Selveier),1820,Spydeberg
Skogstadveien 21,2590000,289,5.0,1930.0,Gårdsbruk/Småbruk,https://www.finn.no/realestate/homes/ad.html?finnkode=298346777,8961,59.9549014,10.0010666,14/04/2023,2.0,Eier (Selveier),3370,Vikersund
Rygjabøvegen 4C,2590000,75,3.0,2018.0,Leilighet,https://www.finn.no/realestate/homes/ad.html?finnkode=298796844,34533,59.1725607,5.8753187,14/04/2023,2.0,Eier (Selveier),4160,Finnøy
Røyvegen 2C,8250000,279,12.0,2000.0,Enebolig,https://www.finn.no/realestate/homes/ad.html?finnkode=298665530,29569,60.2620179,11.0375889,14/04/2023,3.0,Eier (Selveier),2032,Maura
Ådnavegen 25K Indre,4090000,68,4.0,2011.0,Leilighet,https://www.finn.no/realestate/homes/ad.html?finnkode=294225606,60147,60.4245561,5.4683609,14/04/2023,1.0,Eier (Selveier),5260,Arna
Langgata 9,6090000,84,3.0,2020.0,Leilighet,https://www.finn.no/realestate/homes/ad.html?finnkode=298795060,72500,58.8513739,5.7336497,14/04/2023,6.0,Eier (Selveier),4306,Sandnes
Kråkstadveien 62B,6800000,122,4.0,2019.0,Tomannsbolig,https://www.finn.no/realestate/homes/ad.html?finnkode=280516551,55737,59.701396,10.846143,14/04/2023,2.0,Eier (Selveier),1424,Ski
Sandsstien 10,7500000,221,,1962.0,Enebolig,https://www.finn.no/realestate/homes/ad.html?finnkode=290994302,33936,59.92228,10.45501,14/04/2023,2.0,Eier (Selveier),1340,Skui
Siljustølvegen 37,2990000,46,2.0,2022.0,Leilighet,https://www.finn.no/realestate/homes/ad.html?finnkode=298791566,65000,60.293182,5.315712,14/04/2023,3.0,Eier (Selveier),5239,Rådal
Grødemveien 67J,3750000,131,5.0,2001.0,Tomannsbolig,https://www.finn.no/realestate/homes/ad.html?finnkode=298658721,28625,58.9965086,5.6567106,14/04/2023,,Eier (Selveier),4029,Stavanger
Storgata 174,3190000,48,1.0,2007.0,Leilighet,https://www.finn.no/realestate/homes/ad.html?finnkode=298637159,66458,69.656452,18.963127,14/04/2023,1.0,Eier (Selveier),9008,Tromsø
Verftsgata 17,3680000,70,3.0,2014.0,Leilighet,https://www.finn.no/realestate/homes/ad.html?finnkode=298789187,52571,64.4648444,11.4931773,14/04/2023,1.0,Eier (Selveier),7800,Namsos
Hvitveisbakken 6,5990000,136,,2021.0,Enebolig,https://www.finn.no/realestate/homes/ad.html?finnkode=298795711,44044,59.742449,10.02796,14/04/2023,,Eier (Selveier),3050,Mjøndalen
Hundhammervegen 22,7490000,270,6.0,1983.0,Enebolig,https://www.finn.no/realestate/homes/ad.html?finnkode=293497815,27740,63.4403919,10.5961174,14/04/2023,,Eier (Selveier),7562,Saksvik
Parkveien 4B,4350000,60,3.0,2021.0,Leilighet,https://www.finn.no/realestate/homes/ad.html?finnkode=298603479,72500,59.74981,10.834646,14/04/2023,4.0,Eier (Selveier),1405,Langhus
Vestlisvingen 92,2950000,56,2.0,1973.0,Leilighet,https://www.finn.no/realestate/homes/ad.html?finnkode=298643738,52678,59.969458,10.925665,14/04/2023,2.0,Eier (Selveier),969,Oslo
Barkvegen 6,2390000,93,4.0,1971.0,Leilighet,https://www.finn.no/realestate/homes/ad.html?finnkode=298626802,25698,60.2040189,11.9927381,14/04/2023,1.0,Andel,2214,Kongsvinger
Rubina Ranas gate 9,4200000,40,2.0,2007.0,Leilighet,https://www.finn.no/realestate/homes/ad.html?finnkode=298672874,105000,59.911189,10.764882,14/04/2023,4.0,Eier (Selveier),190,Oslo
Vevelstadåsen 53,4950000,130,4.0,1975.0,Leilighet,https://www.finn.no/realestate/homes/ad.html?finnkode=298666028,38076,59.7567731,10.8456149,14/04/2023,2.0,Eier (Selveier),1405,Langhus
Saupstadringen 75B,2450000,56,,1973.0,Leilighet,https://www.finn.no/realestate/homes/ad.html?finnkode=298795153,43750,63.3630246,10.3531445,14/04/2023,2.0,Andel,7078,Saupstad
Høyåsveien 11,5450000,128,4.0,1989.0,Enebolig,https://www.finn.no/realestate/homes/ad.html?finnkode=298540854,42578,59.759574,10.81413,14/04/2023,,Eier (Selveier),1405,Langhus
Gml. Birketveitveien 2,3790000,271,,2012.0,Enebolig,https://www.finn.no/realestate/homes/ad.html?finnkode=286286924,13985,58.3870482,8.6809649,14/04/2023,,Eier (Selveier),4870,Fevik
Randsfjordvegen 897,1700000,220,,1949.0,Enebolig,https://www.finn.no/realestate/homes/ad.html?finnkode=282941194,7727,60.6235478,10.3712028,14/04/2023,,Eier (Selveier),2864,Fall
Kneppkroken 34,2750000,126,4.0,1938.0,Gårdsbruk/Småbruk,https://www.finn.no/realestate/homes/ad.html?finnkode=298371842,21825,60.5944316,11.9796059,14/04/2023,,Eier (Selveier),2270,Flisa
Sandbekkfaret 26C,4400000,105,4.0,1979.0,Leilighet,https://www.finn.no/realestate/homes/ad.html?finnkode=291685238,41904,59.9311319,11.0264,14/04/2023,3.0,Andel,1479,Kurland
Galnåsen 1,5980000,124,4.0,1976.0,Enebolig,https://www.finn.no/realestate/homes/ad.html?finnkode=297550649,48225,67.2827223,14.5281377,14/04/2023,,Eier (Selveier),8022,Bodø
Håkkagata 10,2600000,132,,1960.0,Leilighet,https://www.finn.no/realestate/homes/ad.html?finnkode=296610612,19696,64.0158124,11.4906175,14/04/2023,2.0,Eier (Selveier),7714,Steinkjer
Rognebærveien 21,4200000,76,3.0,2001.0,Leilighet,https://www.finn.no/realestate/homes/ad.html?finnkode=298739818,55263,59.7645913,10.8663282,14/04/2023,1.0,Eier (Selveier),1405,Langhus
Sledevegen 1,2990000,60,3.0,2022.0,Leilighet,https://www.finn.no/realestate/homes/ad.html?finnkode=298792623,49833,60.173103,11.54971,14/04/2023,2.0,Eier (Selveier),2166,Oppaker
Olav Bjaalands gate 10,3590000,80,3.0,1953.0,Leilighet,https://www.finn.no/realestate/homes/ad.html?finnkode=298527466,44875,59.7442734,10.148549,14/04/2023,2.0,Andel,3048,Drammen
Engehaugen 1,3800000,248,,1952.0,Enebolig,https://www.finn.no/realestate/homes/ad.html?finnkode=298510558,15322,60.7766887,10.6712667,14/04/2023,2.0,Eier (Selveier),2818,Gjøvik
Urds gate 5A,2190000,53,,1948.0,Leilighet,https://www.finn.no/realestate/homes/ad.html?finnkode=298290794,41320,59.4073687,10.4733864,14/04/2023,2.0,Eier (Selveier),3182,Horten
Kuhnlevegen 65,3100000,85,3.0,2000.0,Leilighet,https://www.finn.no/realestate/homes/ad.html?finnkode=298723210,36470,60.180193,5.457317,14/04/2023,2.0,Eier (Selveier),5209,Os
Kongens gate 19,3100000,90,3.0,1906.0,Leilighet,https://www.finn.no/realestate/homes/ad.html?finnkode=270348493,34444,62.4744125,6.1566436,14/04/2023,3.0,Eier (Selveier),6002,Ålesund
Falck-Ytters veg 15,7200000,180,,2022.0,Enebolig,https://www.finn.no/realestate/homes/ad.html?finnkode=298543772,40000,60.711253,11.206844,14/04/2023,,Eier (Selveier),2335,Stange
Fleskerudveien 9,2800000,127,3.0,1954.0,Enebolig,https://www.finn.no/realestate/homes/ad.html?finnkode=298501784,22047,60.1344805,10.3391163,14/04/2023,,Eier (Selveier),3512,Hønefoss
Nordåsen Terrasse 16,2790000,200,,1982.0,Enebolig,https://www.finn.no/realestate/homes/ad.html?finnkode=298792986,13950,58.3298126,8.2421961,14/04/2023,,Eier (Selveier),4760,Birkeland
Rønningsbakken 18B,6250000,112,5.0,1952.0,Rekkehus,https://www.finn.no/realestate/homes/ad.html?finnkode=298793035,55803,63.436527,10.4448539,14/04/2023,,Eier (Selveier),7045,Trondheim
Dueveien 9,2650000,196,,1968.0,Enebolig,https://www.finn.no/realestate/homes/ad.html?finnkode=293461697,13520,58.1398727,7.0625598,14/04/2023,,Eier (Selveier),4580,Lyngdal
Turbinveien 32,6250000,78,2.0,1920.0,Leilighet,https://www.finn.no/realestate/homes/ad.html?finnkode=287884212,80128,59.903138,10.788672,14/04/2023,3.0,Eier (Selveier),195,Oslo
Ringvålvegen 406,5000000,169,,1970.0,Enebolig,https://www.finn.no/realestate/homes/ad.html?finnkode=298652529,29585,63.3489435,10.2374949,14/04/2023,2.0,Eier (Selveier),7089,Heimdal
Hjalmar Brantings vei 2B,4890000,75,4.0,2021.0,Leilighet,https://www.finn.no/realestate/homes/ad.html?finnkode=298792769,65200,60.349285,5.283227,14/04/2023,4.0,Eier (Selveier),5143,Fyllingsdalen
Midtveien 21B,14500000,225,6.0,1986.0,Enebolig,https://www.finn.no/realestate/homes/ad.html?finnkode=298792707,64444,59.933766,10.822511,14/04/2023,,Eier (Selveier),583,Oslo
Skagesundvegen 3A,6490000,157,5.0,1960.0,Enebolig,https://www.finn.no/realestate/homes/ad.html?finnkode=298645368,41337,69.668444,18.967951,14/04/2023,3.0,Eier (Selveier),9010,Tromsø
Auragata 26 D,1650000,122,4.0,1954.0,Rekkehus,https://www.finn.no/realestate/homes/ad.html?finnkode=298792252,13524,62.6702542,8.5675168,14/04/2023,,Eier (Selveier),6600,Sunndalsøra
Søndre vei 81,16500000,244,,2007.0,Enebolig,https://www.finn.no/realestate/homes/ad.html?finnkode=298792248,67622,59.8630476,10.5317094,14/04/2023,,Eier (Selveier),1397,Nesøya
Tors vei 94,4700000,113,,1979.0,Tomannsbolig,https://www.finn.no/realestate/homes/ad.html?finnkode=298792225,41592,59.7628206,10.4589274,14/04/2023,,Eier (Selveier),3472,Bødalen
Jutulveien 14B,6490000,140,,1982.0,Leilighet,https://www.finn.no/realestate/homes/ad.html?finnkode=288257611,46357,59.722549,10.206767,14/04/2023,1.0,Eier (Selveier),3042,Drammen
Rubintunet 47 Gamle,4300000,110,,2014.0,Enebolig,https://www.finn.no/realestate/homes/ad.html?finnkode=298674552,39090,59.217513,11.011517,14/04/2023,,Eier (Selveier),1639,Fredrikstad
Kronprinsens gate 14,4990000,101,,1989.0,Leilighet,https://www.finn.no/realestate/homes/ad.html?finnkode=298791683,49405,58.1482312,8.0019352,14/04/2023,4.0,Eier (Selveier),4614,Kristiansand S
Helleveien 210,4990000,148,4.0,1959.0,Rekkehus,https://www.finn.no/realestate/homes/ad.html?finnkode=293438504,33716,60.4318397,5.2854199,14/04/2023,4.0,Eier (Selveier),5039,Bergen
Olderveien 18,3200000,186,,1969.0,Enebolig,https://www.finn.no/realestate/homes/ad.html?finnkode=298791311,17204,68.7809918,16.5622407,14/04/2023,,Eier (Selveier),9408,Harstad
Hanaveien 15,2100000,54,2.0,1990.0,Leilighet,https://www.finn.no/realestate/homes/ad.html?finnkode=298784368,38888,58.85364,5.750798,14/04/2023,2.0,Eier (Selveier),4327,Sandnes
Veienmoen 47,2200000,58,2.0,1973.0,Leilighet,https://www.finn.no/realestate/homes/ad.html?finnkode=298483900,37931,60.1652805,10.2339032,14/04/2023,2.0,Eier (Selveier),3517,Hønefoss
Nordahl Griegs gate 10 Mo i,3722500,116,,1981.0,Leilighet,https://www.finn.no/realestate/homes/ad.html?finnkode=298791131,32090,66.3100058,14.1381504,14/04/2023,2.0,Andel,8622,Rana
Fossingveien 35,1650000,70,2.0,1951.0,Enebolig,https://www.finn.no/realestate/homes/ad.html?finnkode=298791076,23571,58.9045747,9.3931551,14/04/2023,1.0,Eier (Selveier),3790,Helle
Hamreheia 86A,15700000,266,,2016.0,Enebolig,https://www.finn.no/realestate/homes/ad.html?finnkode=272346792,59022,58.148635,8.015935,14/04/2023,,Eier (Selveier),4631,Kristiansand S
Revesandveien 11,1990000,152,,1954.0,Enebolig,https://www.finn.no/realestate/homes/ad.html?finnkode=288282382,13092,58.4527318,8.8081605,14/04/2023,,Eier (Selveier),4818,Færvik
Sjusjøvegen,2450000,197,5.0,1939.0,Gårdsbruk/Småbruk,https://www.finn.no/realestate/homes/ad.html?finnkode=286410520,12436,61.0914249,10.6452805,14/04/2023,,Eier (Selveier),1032,Lismarka
Holevegen 5,4650000,293,8.0,1962.0,Enebolig,https://www.finn.no/realestate/homes/ad.html?finnkode=278464153,15870,60.4924243,4.939686,14/04/2023,3.0,Eier (Selveier),5337,Rong
Tomteveien 6H,3690000,76,,2021.0,Leilighet,https://www.finn.no/realestate/homes/ad.html?finnkode=290935483,48552,59.232186,10.985714,14/04/2023,3.0,Eier (Selveier),1618,Fredrikstad
Ammerudhellinga 56,2800000,42,,1966.0,Leilighet,https://www.finn.no/realestate/homes/ad.html?finnkode=298789825,66666,59.962427,10.875691,14/04/2023,12.0,Andel,959,Oslo
Helmer Hansens gate 5,4390000,78,3.0,1946.0,Leilighet,https://www.finn.no/realestate/homes/ad.html?finnkode=298679604,56282,69.657618,18.9516735,14/04/2023,2.0,Eier (Selveier),9011,Tromsø
SKYTTERVEIEN 31,2700000,88,,1966.0,Leilighet,https://www.finn.no/realestate/homes/ad.html?finnkode=298756016,30681,60.4229764,5.314158,14/04/2023,1.0,Andel,5038,Bergen
Jernalderveien 51A,3490000,104,3.0,1974.0,Leilighet,https://www.finn.no/realestate/homes/ad.html?finnkode=298628951,33557,58.9424538,5.692275,14/04/2023,11.0,Andel,4041,Hafrsfjord
Furumoveien 12,2950000,97,,1916.0,Enebolig,https://www.finn.no/realestate/homes/ad.html?finnkode=298789260,30412,59.2163082,10.9457544,14/04/2023,,Eier (Selveier),1605,Fredrikstad
Sørumsgata 31,12500000,381,5.0,1980.0,Enebolig,https://www.finn.no/realestate/homes/ad.html?finnkode=298767560,32808,59.9547936,11.0627158,14/04/2023,,Eier (Selveier),2004,Lillestrøm
Nedre Vik 62,2850000,197,4.0,1962.0,Enebolig,https://www.finn.no/realestate/homes/ad.html?finnkode=298789115,14467,60.3856736,6.1941511,14/04/2023,2.0,Eier (Selveier),5610,Øystese
Luftå 35A,2490000,50,2.0,2011.0,Leilighet,https://www.finn.no/realestate/homes/ad.html?finnkode=298789282,49800,58.8216202,5.7048476,14/04/2023,1.0,Eier (Selveier),4322,Sandnes
Kinnvegen 44,2350000,66,,1980.0,Rekkehus,https://www.finn.no/realestate/homes/ad.html?finnkode=298789057,35606,61.589429,5.0256303,14/04/2023,1.0,Andel,6906,Florø
Solbo 1C,2490000,142,,1969.0,Rekkehus,https://www.finn.no/realestate/homes/ad.html?finnkode=298783976,17535,59.0073822,10.0290306,14/04/2023,3.0,Andel,3292,Stavern
Garver Ytteborgs vei 109,2700000,31,1.0,1968.0,Leilighet,https://www.finn.no/realestate/homes/ad.html?finnkode=298759569,87096,59.952227,10.91546,14/04/2023,,Andel,977,Oslo
Ålvikvegen 625,2650000,136,,1961.0,Enebolig,https://www.finn.no/realestate/homes/ad.html?finnkode=298666692,19485,60.4129985,6.3886378,14/04/2023,2.0,Eier (Selveier),5614,Ålvik
Etterstadsletta 80,7000000,99,4.0,1984.0,Leilighet,https://www.finn.no/realestate/homes/ad.html?finnkode=298662624,70707,59.907626,10.805806,14/04/2023,3.0,Eier (Selveier),659,Oslo
Trollsvingen 6,2890000,83,,1972.0,Leilighet,https://www.finn.no/realestate/homes/ad.html?finnkode=298356373,34819,59.2999103,11.1085328,14/04/2023,1.0,Andel,1709,Sarpsborg
Augerødlia 23A,2800000,56,3.0,2015.0,Leilighet,https://www.finn.no/realestate/homes/ad.html?finnkode=298499061,50000,59.469355,10.7861518,14/04/2023,1.0,Eier (Selveier),1591,Sperrebotn
Sandvikvegen 76C,3250000,181,,1985.0,Rekkehus,https://www.finn.no/realestate/homes/ad.html?finnkode=298788339,17955,61.3985216,7.3016721,14/04/2023,,Eier (Selveier),6868,Gaupne
Skjeringen 6,3950000,144,4.0,1956.0,Tomannsbolig,https://www.finn.no/realestate/homes/ad.html?finnkode=298788384,27430,58.9404618,5.7469458,14/04/2023,,Eier (Selveier),4016,Stavanger
Flaengrenda 13,3700000,64,3.0,1946.0,Leilighet,https://www.finn.no/realestate/homes/ad.html?finnkode=298660364,57812,59.954963,10.873156,14/04/2023,1.0,Andel,953,Oslo
Finnmyrvegen 25,5500000,272,,1976.0,Enebolig,https://www.finn.no/realestate/homes/ad.html?finnkode=298788143,20220,63.302622,10.479766,14/04/2023,,Eier (Selveier),7540,Klæbu
Østre Strandvei 43U,3100000,189,,1985.0,Rekkehus,https://www.finn.no/realestate/homes/ad.html?finnkode=298787933,16402,59.5543863,10.5721307,14/04/2023,,Eier (Selveier),3482,Tofte
Garver Ytteborgs vei 127,2490000,30,,1969.0,Leilighet,https://www.finn.no/realestate/homes/ad.html?finnkode=298787308,83000,59.951706,10.918564,14/04/2023,7.0,Andel,977,Oslo
Stabells veg 15B,2390000,44,2.0,1963.0,Leilighet,https://www.finn.no/realestate/homes/ad.html?finnkode=298657613,54318,63.4016803,10.3635469,14/04/2023,2.0,Andel,7022,Trondheim
Krokstien 5A,2350000,93,3.0,1970.0,Leilighet,https://www.finn.no/realestate/homes/ad.html?finnkode=298674829,25268,59.2801156,11.0486072,14/04/2023,2.0,Andel,1718,Greåker
Måstadveien 28,2190000,158,4.0,1981.0,Rekkehus,https://www.finn.no/realestate/homes/ad.html?finnkode=298758833,13860,59.1129385,11.4412865,14/04/2023,3.0,Andel,1793,Tistedal
Parkgata 19,5690000,98,3.0,1997.0,Leilighet,https://www.finn.no/realestate/homes/ad.html?finnkode=298787377,58061,69.650614,18.952332,14/04/2023,3.0,Eier (Selveier),9008,Tromsø
Eiksveien 67,6900000,88,,1957.0,Leilighet,https://www.finn.no/realestate/homes/ad.html?finnkode=298502536,78409,59.9430081,10.6121198,14/04/2023,1.0,Eier (Selveier),1361,Østerås
Nedre Hjelmeset 2E,1250000,40,,2016.0,Leilighet,https://www.finn.no/realestate/homes/ad.html?finnkode=287513068,31250,62.3302918,5.6569497,14/04/2023,1.0,Eier (Selveier),6091,Fosnavåg
Vestre Solørveg,200000,44,,,Enebolig,https://www.finn.no/realestate/homes/ad.html?finnkode=298786796,4545,60.3261254,12.0051313,14/04/2023,,Eier (Selveier),1604,Brandval
Saxenborg alle 5A,9800000,267,7.0,1955.0,Tomannsbolig,https://www.finn.no/realestate/homes/ad.html?finnkode=283988729,36704,63.4371349,10.4422069,14/04/2023,,Eier (Selveier),7045,Trondheim
Førreparken 31,3190000,116,5.0,2018.0,Rekkehus,https://www.finn.no/realestate/homes/ad.html?finnkode=298786685,27500,59.423458,5.378878,14/04/2023,,Eier (Selveier),5563,Førresfjorden
Vardesvingen 14,6690000,135,,1967.0,Enebolig,https://www.finn.no/realestate/homes/ad.html?finnkode=298786265,49555,60.3363269,5.2645286,14/04/2023,,Eier (Selveier),5141,Fyllingsdalen
Tyvenlia 63,750000,53,2.0,2006.0,Leilighet,https://www.finn.no/realestate/homes/ad.html?finnkode=298786366,14150,70.6363331,23.6824127,14/04/2023,2.0,Andel,9610,Rypefjord
Strandgata 196,1690000,46,2.0,2013.0,Leilighet,https://www.finn.no/realestate/homes/ad.html?finnkode=298784017,36739,59.4152301,5.2647665,14/04/2023,2.0,Eier (Selveier),5525,Haugesund
Gjerdestykket 50,2650000,108,5.0,2015.0,Tomannsbolig,https://www.finn.no/realestate/homes/ad.html?finnkode=298786276,24537,59.259677,5.2119,14/04/2023,,Eier (Selveier),4270,Åkrehamn
Bordalssvingen 96,2690000,72,,2015.0,Leilighet,https://www.finn.no/realestate/homes/ad.html?finnkode=298786341,37361,58.1274205,8.0986499,14/04/2023,2.0,Eier (Selveier),4639,Kristiansand S
Dusavikveien 70,2990000,75,3.0,1990.0,Leilighet,https://www.finn.no/realestate/homes/ad.html?finnkode=298767704,39866,58.9831695,5.7081826,14/04/2023,5.0,Eier (Selveier),4007,Stavanger
Skedsmogata 25,15800000,115,4.0,,Leilighet,https://www.finn.no/realestate/homes/ad.html?finnkode=298786113,137391,59.913676,10.786392,14/04/2023,7.0,Eier (Selveier),655,Oslo
Regnbueveien 7,4900000,255,,1985.0,Enebolig,https://www.finn.no/realestate/homes/ad.html?finnkode=298785886,19215,59.590993,11.195383,14/04/2023,,Eier (Selveier),1812,Askim
Hjerakroken 7E,2650000,56,2.0,2021.0,Leilighet,https://www.finn.no/realestate/homes/ad.html?finnkode=298648277,47321,60.2589148,11.1953417,14/04/2023,2.0,Eier (Selveier),2072,Dal
Ranemsvegen 1,2450000,160,,1964.0,Leilighet,https://www.finn.no/realestate/homes/ad.html?finnkode=298732600,15312,64.4932716,11.9476119,14/04/2023,2.0,Eier (Selveier),7863,Overhalla
Friggs veg 14,5190000,166,,2012.0,Enebolig,https://www.finn.no/realestate/homes/ad.html?finnkode=298784987,31265,60.895954,11.592972,14/04/2023,,Eier (Selveier),2413,Elverum
Øvre Kleivane 47B,4600000,172,,2002.0,Tomannsbolig,https://www.finn.no/realestate/homes/ad.html?finnkode=298785037,26744,61.449201,5.850005,14/04/2023,,Eier (Selveier),6814,Førde
Furuvegen 3,3225000,70,3.0,2017.0,Leilighet,https://www.finn.no/realestate/homes/ad.html?finnkode=292623441,46071,61.1929456,7.2199896,14/04/2023,1.0,Eier (Selveier),6854,Kaupanger
Ramsdalstunet 15,6500000,254,7.0,2012.0,Enebolig,https://www.finn.no/realestate/homes/ad.html?finnkode=298785232,25590,59.4267301,5.2967008,14/04/2023,,Eier (Selveier),5519,Haugesund
Bokfinkveien 29A,2790000,121,,1963.0,Rekkehus,https://www.finn.no/realestate/homes/ad.html?finnkode=298785060,23057,58.1317139,7.9475878,14/04/2023,,Andel,4626,Kristiansand S
Fillheiveien 4,3500000,139,4.0,1976.0,Enebolig,https://www.finn.no/realestate/homes/ad.html?finnkode=298549705,25179,63.6071198,8.969656,14/04/2023,,Eier (Selveier),7240,Hitra
Utleirvegen 39E,6090000,178,,1962.0,Rekkehus,https://www.finn.no/realestate/homes/ad.html?finnkode=298785049,34213,63.4033264,10.4253799,14/04/2023,,Eier (Selveier),7033,Trondheim
Bringebærvegen 35,4250000,190,,1981.0,Enebolig,https://www.finn.no/realestate/homes/ad.html?finnkode=298784840,22368,60.908443,11.5598384,14/04/2023,,Eier (Selveier),2409,Elverum
Eivind Torps veg 2 - B54,2490000,45,,2019.0,Leilighet,https://www.finn.no/realestate/homes/ad.html?finnkode=281414493,55333,60.885179,11.559227,14/04/2023,5.0,Eier (Selveier),2408,Elverum
Rudolf Nilsens gate 8A,7250000,258,,1980.0,Enebolig,https://www.finn.no/realestate/homes/ad.html?finnkode=298546467,28100,58.9505281,5.7071945,14/04/2023,,Eier (Selveier),4021,Stavanger
Røsslyngvegen 25,3890000,145,,2011.0,Tomannsbolig,https://www.finn.no/realestate/homes/ad.html?finnkode=298784773,26827,60.900015,11.582137,14/04/2023,,Eier (Selveier),2409,Elverum
Tregdeveien 409,2750000,180,,1966.0,Enebolig,https://www.finn.no/realestate/homes/ad.html?finnkode=298784478,15277,58.0093487,7.5402693,14/04/2023,,Eier (Selveier),4516,Mandal
Elgvegen 33,2450000,109,,1975.0,Enebolig,https://www.finn.no/realestate/homes/ad.html?finnkode=298784305,22477,60.8897593,11.5360895,14/04/2023,,Eier (Selveier),2406,Elverum
Hundhaugen 17 Ytre,1750000,74,4.0,1956.0,Enebolig,https://www.finn.no/realestate/homes/ad.html?finnkode=298783931,23648,60.455731,5.4417739,14/04/2023,2.0,Eier (Selveier),5265,Arna
Torvgada 3,2990000,78,,1997.0,Leilighet,https://www.finn.no/realestate/homes/ad.html?finnkode=298783926,38333,58.0969828,7.8129771,14/04/2023,3.0,Eier (Selveier),4640,Søgne
Dronning Eufemias gate 22,9500000,72,3.0,2013.0,Leilighet,https://www.finn.no/realestate/homes/ad.html?finnkode=297833374,131944,59.908179,10.759315,14/04/2023,12.0,Eier (Selveier),191,Oslo
Øygardsgrenda 121,2390000,149,,1981.0,Enebolig,https://www.finn.no/realestate/homes/ad.html?finnkode=298645460,16040,58.901948,9.1366472,14/04/2023,,Eier (Selveier),3760,Neslandsvatn
Flåtestadveien 129,6750000,139,5.0,1987.0,Tomannsbolig,https://www.finn.no/realestate/homes/ad.html?finnkode=298686080,48561,59.772364,10.7951455,14/04/2023,,Eier (Selveier),1415,Oppegård
Bjørkevegen 3,7200000,168,4.0,1949.0,Enebolig,https://www.finn.no/realestate/homes/ad.html?finnkode=298676140,42857,60.1546934,11.1781358,14/04/2023,,Eier (Selveier),2068,Jessheim
Fjæregata 2,4190000,72,4.0,1960.0,Leilighet,https://www.finn.no/realestate/homes/ad.html?finnkode=298525024,58194,63.4364935,10.4199193,14/04/2023,1.0,Aksje,7067,Trondheim
Hannevik platå 18,2490000,146,,1960.0,Enebolig,https://www.finn.no/realestate/homes/ad.html?finnkode=298783682,17054,58.137825,7.959938,14/04/2023,,Eier (Selveier),4613,Kristiansand S
Hjalmar Johansens gate 101,3390000,49,3.0,2004.0,Leilighet,https://www.finn.no/realestate/homes/ad.html?finnkode=298776120,69183,69.640808,18.9401612,14/04/2023,1.0,Eier (Selveier),9007,Tromsø
Konrad Klausens vei 6,6270000,107,3.0,2019.0,Leilighet,https://www.finn.no/realestate/homes/ad.html?finnkode=290144462,58598,67.280205,14.3728135,14/04/2023,5.0,Eier (Selveier),8003,Bodø
Casparis gate 5,4200000,57,3.0,1939.0,Leilighet,https://www.finn.no/realestate/homes/ad.html?finnkode=297338252,73684,59.925817,10.748965,14/04/2023,4.0,Andel,174,Oslo
Lundsalleen 26B,3500000,76,3.0,1961.0,Leilighet,https://www.finn.no/realestate/homes/ad.html?finnkode=298632833,46052,59.9592946,11.0621362,14/04/2023,2.0,Andel,2004,Lillestrøm
Lillebergveien 50,9300000,129,5.0,1953.0,Rekkehus,https://www.finn.no/realestate/homes/ad.html?finnkode=298783008,72093,59.919454,10.794695,14/04/2023,,Andel,662,Oslo
Snehvitbakken 8,4950000,180,,1980.0,Enebolig,https://www.finn.no/realestate/homes/ad.html?finnkode=298782847,27500,58.1542981,8.0680066,14/04/2023,,Eier (Selveier),4638,Kristiansand S
Politimester Bendixens gate 15A,2290000,63,3.0,2009.0,Leilighet,https://www.finn.no/realestate/homes/ad.html?finnkode=298663540,36349,63.11344,7.727853,14/04/2023,3.0,Andel,6509,Kristiansund N
Malmvegen 224,3550000,108,4.0,1971.0,Leilighet,https://www.finn.no/realestate/homes/ad.html?finnkode=298782836,32870,69.6888516,19.0817883,14/04/2023,3.0,Andel,9022,Krokelvdalen
Edvard Griegsvei 78,6250000,350,,1991.0,Enebolig,https://www.finn.no/realestate/homes/ad.html?finnkode=295904813,17857,58.8511713,5.7086931,14/04/2023,,Eier (Selveier),4318,Sandnes
Damsgårdsveien 194,3890000,81,3.0,1880.0,Enebolig,https://www.finn.no/realestate/homes/ad.html?finnkode=298771809,48024,60.3858713,5.2998702,14/04/2023,2.0,Eier (Selveier),5160,Laksevåg
Apeltunhaugene 179,2650000,51,2.0,2008.0,Leilighet,https://www.finn.no/realestate/homes/ad.html?finnkode=298779595,51960,60.2896416,5.337125,14/04/2023,2.0,Andel,5238,Rådal
Lilleenget 8 E,1300000,122,5.0,1980.0,Rekkehus,https://www.finn.no/realestate/homes/ad.html?finnkode=298781290,10655,64.4794755,11.5344537,14/04/2023,,Andel,7805,Namsos
Dalveien 183,5650000,92,4.0,2023.0,Leilighet,https://www.finn.no/realestate/homes/ad.html?finnkode=295363666,61413,59.283881,11.050254,14/04/2023,2.0,Eier (Selveier),1712,Grålum
Stølsvegen 62,2800000,251,9.0,1934.0,Enebolig,https://www.finn.no/realestate/homes/ad.html?finnkode=298671919,11155,59.8123164,5.2630167,14/04/2023,,Eier (Selveier),5420,Rubbestadneset
Sparavollen 150,6990000,427,8.0,1968.0,Enebolig,https://www.finn.no/realestate/homes/ad.html?finnkode=269677360,16370,59.7601197,10.1754389,14/04/2023,2.0,Eier (Selveier),3021,Drammen
Hjørungavåggata 1,6250000,52,2.0,1931.0,Leilighet,https://www.finn.no/realestate/homes/ad.html?finnkode=298361467,120192,59.917306,10.700596,14/04/2023,1.0,Eier (Selveier),273,Oslo
Dalveien 139,3290000,205,,1963.0,Enebolig,https://www.finn.no/realestate/homes/ad.html?finnkode=294106332,16048,59.2832363,11.0483733,14/04/2023,,Eier (Selveier),1718,Greåker
Adolph Bergs vei 8,3600000,78,4.0,1961.0,Leilighet,https://www.finn.no/realestate/homes/ad.html?finnkode=298619968,46153,60.3601239,5.3641749,14/04/2023,2.0,Andel,5089,Bergen
Sverres gate 17,3800000,40,2.0,1890.0,Leilighet,https://www.finn.no/realestate/homes/ad.html?finnkode=298780795,95000,59.911253,10.776832,14/04/2023,3.0,Eier (Selveier),652,Oslo
Nedre Vikan 4B,3950000,80,3.0,2020.0,Leilighet,https://www.finn.no/realestate/homes/ad.html?finnkode=295715165,49375,63.600556,8.984495,14/04/2023,1.0,Eier (Selveier),7240,Hitra
Per Spelemanns vei 38,7500000,242,,1960.0,Enebolig,https://www.finn.no/realestate/homes/ad.html?finnkode=297001737,30991,58.9438322,5.7169076,14/04/2023,3.0,Eier (Selveier),4019,Stavanger
Svenskebyveien 223,3550000,147,,1985.0,Enebolig,https://www.finn.no/realestate/homes/ad.html?finnkode=298780281,24149,59.544114,11.203335,14/04/2023,,Eier (Selveier),1880,Eidsberg
Nedre Strandgate 18,1800000,41,2.0,1905.0,Leilighet,https://www.finn.no/realestate/homes/ad.html?finnkode=298780380,43902,62.4701837,6.1459522,14/04/2023,2.0,Aksje,6004,Ålesund
Vestregata 16,3490000,73,3.0,1997.0,Leilighet,https://www.finn.no/realestate/homes/ad.html?finnkode=296795668,47808,69.649147,18.95162,14/04/2023,4.0,Eier (Selveier),9008,Tromsø
Transistorfaret 6,4500000,52,2.0,2021.0,Leilighet,https://www.finn.no/realestate/homes/ad.html?finnkode=295054299,86538,59.867841,10.482964,14/04/2023,4.0,Eier (Selveier),1396,Billingstad
Åkerveien 11,3500000,190,,1947.0,Enebolig,https://www.finn.no/realestate/homes/ad.html?finnkode=298670409,18421,59.2470678,10.4205768,14/04/2023,,Eier (Selveier),3120,Nøtterøy
Moa park 2,4180000,90,2.0,1999.0,Leilighet,https://www.finn.no/realestate/homes/ad.html?finnkode=293128642,46444,62.466856,6.3461393,14/04/2023,4.0,Eier (Selveier),6018,Ålesund
Seljeveien 5,3700000,51,2.0,1961.0,Leilighet,https://www.finn.no/realestate/homes/ad.html?finnkode=261269297,72549,59.8528415,10.6573513,14/04/2023,1.0,Eier (Selveier),1452,Nesoddtangen
Edelgranveien 34,4950000,99,4.0,1982.0,Leilighet,https://www.finn.no/realestate/homes/ad.html?finnkode=298778079,50000,59.926631,10.55499,14/04/2023,2.0,Eier (Selveier),1356,Bekkestua
Storbakkvegen 47,3290000,81,3.0,2014.0,Leilighet,https://www.finn.no/realestate/homes/ad.html?finnkode=298770202,40617,69.622161,18.94973,14/04/2023,5.0,Andel,9020,Tromsdalen
Flisnestua 25A,3200000,62,3.0,2010.0,Leilighet,https://www.finn.no/realestate/homes/ad.html?finnkode=298678165,51612,62.427183,6.404608,14/04/2023,1.0,Eier (Selveier),6013,Ålesund
Skytterveien 14,2450000,64,2.0,1966.0,Leilighet,https://www.finn.no/realestate/homes/ad.html?finnkode=298777498,38281,60.4243066,5.3118977,14/04/2023,1.0,Andel,5038,Bergen
Revåveien 20 Sande i,3190000,78,3.0,2003.0,Leilighet,https://www.finn.no/realestate/homes/ad.html?finnkode=298501417,40897,59.586192,10.207778,14/04/2023,2.0,Eier (Selveier),3070,Vestfold
Peer Gynts vei 14A,5700000,177,5.0,1966.0,Tomannsbolig,https://www.finn.no/realestate/homes/ad.html?finnkode=298364990,32203,60.0559348,10.8554127,14/04/2023,3.0,Eier (Selveier),1482,Nittedal
Kvartsveien 7 Sande i,3890000,142,3.0,1981.0,Enebolig,https://www.finn.no/realestate/homes/ad.html?finnkode=298370930,27394,59.5805065,10.2463849,14/04/2023,,Eier (Selveier),3076,Vestfold
Krågehølen 4D,1850000,73,3.0,2003.0,Leilighet,https://www.finn.no/realestate/homes/ad.html?finnkode=296006939,25342,58.3225439,6.9716542,14/04/2023,1.0,Eier (Selveier),4480,Kvinesdal
Kvernveien 12,3500000,266,6.0,1954.0,Enebolig,https://www.finn.no/realestate/homes/ad.html?finnkode=298504520,13157,59.727168,10.210312,14/04/2023,,Eier (Selveier),3043,Drammen
Amtmann Meinichs gate 14B,4190000,41,3.0,1903.0,Leilighet,https://www.finn.no/realestate/homes/ad.html?finnkode=297375078,102195,59.941989,10.773393,14/04/2023,2.0,Andel,482,Oslo
Tyholtveien 61 A,16600000,323,7.0,2012.0,Enebolig,https://www.finn.no/realestate/homes/ad.html?finnkode=265011515,51393,63.4266301,10.4255518,14/04/2023,,Eier (Selveier),7052,Trondheim
Morkvegen 40,2650000,52,2.0,2020.0,Leilighet,https://www.finn.no/realestate/homes/ad.html?finnkode=298380782,50961,60.325226,11.224017,14/04/2023,2.0,Eier (Selveier),2080,Eidsvoll
Fosswinckels gate 55,4580000,75,3.0,1901.0,Leilighet,https://www.finn.no/realestate/homes/ad.html?finnkode=298402155,61066,60.3858533,5.3287281,14/04/2023,1.0,Eier (Selveier),5008,Bergen
Østerveien 12E,3980000,66,3.0,2020.0,Leilighet,https://www.finn.no/realestate/homes/ad.html?finnkode=297592515,60303,58.150945,8.007164,14/04/2023,1.0,Eier (Selveier),4631,Kristiansand S
Konghellegata 8,4350000,56,2.0,2009.0,Leilighet,https://www.finn.no/realestate/homes/ad.html?finnkode=298776610,77678,59.929639,10.7788,14/04/2023,3.0,Eier (Selveier),570,Oslo
Granmovegen 17,5490000,160,,1965.0,Enebolig,https://www.finn.no/realestate/homes/ad.html?finnkode=298776752,34312,59.163177,9.6259395,14/04/2023,,Eier (Selveier),3736,Skien
Dronningens gate 38,2690000,54,,1893.0,Leilighet,https://www.finn.no/realestate/homes/ad.html?finnkode=298776604,49814,58.1465173,8.0001085,14/04/2023,3.0,Eier (Selveier),4608,Kristiansand S
Skyttarkvia 19,6000000,248,6.0,1977.0,Enebolig,https://www.finn.no/realestate/homes/ad.html?finnkode=298776616,24193,61.4637848,5.8891694,14/04/2023,,Eier (Selveier),6810,Førde
Holandsveien 84,2900000,134,,1915.0,Enebolig,https://www.finn.no/realestate/homes/ad.html?finnkode=298751915,21641,65.707646,11.910188,14/04/2023,,Eier (Selveier),8984,Vega
Skogstjerneveien 3,2700000,193,5.0,1970.0,Enebolig,https://www.finn.no/realestate/homes/ad.html?finnkode=298776423,13989,58.4045135,8.6901825,14/04/2023,2.0,Eier (Selveier),4823,Nedenes
Gamle Bjørntvedtveg 4,2290000,81,,2020.0,Leilighet,https://www.finn.no/realestate/homes/ad.html?finnkode=298775807,28271,59.186003,9.600198,14/04/2023,1.0,Andel,3734,Skien
Røa Terrasse 8A,12850000,247,,1935.0,Enebolig,https://www.finn.no/realestate/homes/ad.html?finnkode=258360167,52024,59.950035,10.640232,14/04/2023,,Eier (Selveier),755,Oslo
Asperudtoppen 63,3400000,84,3.0,1981.0,Leilighet,https://www.finn.no/realestate/homes/ad.html?finnkode=295726570,40476,59.837568,10.801278,14/04/2023,4.0,Andel,1258,Oslo
Lauritz Hervigs vei 95D,2390000,79,3.0,1967.0,Leilighet,https://www.finn.no/realestate/homes/ad.html?finnkode=298642572,30253,59.714405,10.2288374,14/04/2023,1.0,Andel,3035,Drammen
Schultz' gate 12A,14000000,122,5.0,1899.0,Leilighet,https://www.finn.no/realestate/homes/ad.html?finnkode=288973861,114754,59.928371,10.72208,14/04/2023,2.0,Eier (Selveier),365,Oslo
Gransdalen 33H,5950000,192,8.0,1978.0,Leilighet,https://www.finn.no/realestate/homes/ad.html?finnkode=298768719,30989,59.945696,10.900764,14/04/2023,1.0,Andel,1054,Oslo
Sogstikollen 28,15490000,216,7.0,2021.0,Enebolig,https://www.finn.no/realestate/homes/ad.html?finnkode=245280610,71712,59.655908,10.637037,14/04/2023,2.0,Eier (Selveier),1446,Drøbak
Østre Strandgate 3,6490000,76,,1971.0,Leilighet,https://www.finn.no/realestate/homes/ad.html?finnkode=261647942,85394,58.1429886,7.9967484,14/04/2023,,Eier (Selveier),4610,Kristiansand S
Smedasundet 22A,4290000,105,3.0,2008.0,Leilighet,https://www.finn.no/realestate/homes/ad.html?finnkode=298773647,40857,59.4008197,5.2795235,14/04/2023,3.0,Eier (Selveier),5529,Haugesund
Grovamyr 14,3500000,188,4.0,1975.0,Enebolig,https://www.finn.no/realestate/homes/ad.html?finnkode=298773675,18617,59.425629,5.4666482,14/04/2023,2.0,Eier (Selveier),5570,Aksdal
Nyvei 14,2690000,63,,2018.0,Leilighet,https://www.finn.no/realestate/homes/ad.html?finnkode=298773683,42698,58.621906,8.93409,14/04/2023,2.0,Eier (Selveier),4900,Tvedestrand
Høybråtenveien 21A,3990000,104,5.0,1976.0,Leilighet,https://www.finn.no/realestate/homes/ad.html?finnkode=298655129,38365,59.945031,10.905279,14/04/2023,3.0,Andel,1055,Oslo
Elgveien 5,1950000,66,3.0,1963.0,Leilighet,https://www.finn.no/realestate/homes/ad.html?finnkode=298665625,29545,59.2212718,10.2851037,14/04/2023,1.0,Andel,3160,Stokke
Ginavegen 22G,1890000,78,3.0,1999.0,Leilighet,https://www.finn.no/realestate/homes/ad.html?finnkode=298760121,24230,59.408075,5.293116,14/04/2023,1.0,Eier (Selveier),5531,Haugesund
Blårevsvingen 3,6590000,122,5.0,2002.0,Leilighet,https://www.finn.no/realestate/homes/ad.html?finnkode=287403329,54016,69.644588,18.907754,14/04/2023,1.0,Eier (Selveier),9013,Tromsø
Fredrik Nannestads vei 10,3990000,125,,1953.0,Rekkehus,https://www.finn.no/realestate/homes/ad.html?finnkode=298770157,31920,58.954282,5.732944,14/04/2023,,Eier (Selveier),4011,Stavanger
Kjerrberg terrasse 7,2350000,70,2.0,2007.0,Leilighet,https://www.finn.no/realestate/homes/ad.html?finnkode=282067387,33571,58.8861743,5.6769432,14/04/2023,1.0,Andel,4051,Sola
Idavollen 4,4600000,217,,1980.0,Enebolig,https://www.finn.no/realestate/homes/ad.html?finnkode=289742333,21198,59.2176411,11.0807282,14/04/2023,,Eier (Selveier),1655,Sellebakk
Fuglerudvegen 10C,4490000,131,4.0,1997.0,Enebolig,https://www.finn.no/realestate/homes/ad.html?finnkode=298655193,34274,60.2786427,11.1850184,14/04/2023,2.0,Eier (Selveier),2070,Råholt
Pilestredet Park 32,6450000,56,2.0,1938.0,Leilighet,https://www.finn.no/realestate/homes/ad.html?finnkode=295593206,115178,59.920186,10.738007,14/04/2023,8.0,Eier (Selveier),176,Oslo
Neseveien 64,2850000,67,,2010.0,Leilighet,https://www.finn.no/realestate/homes/ad.html?finnkode=298772537,42537,58.0303409,7.4329256,14/04/2023,2.0,Eier (Selveier),4514,Mandal
Åslandhellinga 277A,3550000,67,3.0,2003.0,Leilighet,https://www.finn.no/realestate/homes/ad.html?finnkode=298680342,52985,59.8244,10.84222,14/04/2023,1.0,Eier (Selveier),1274,Oslo
Henckels gate 36,3800000,92,3.0,2012.0,Leilighet,https://www.finn.no/realestate/homes/ad.html?finnkode=298771856,41304,59.6731332,9.6651199,14/04/2023,1.0,Eier (Selveier),3613,Kongsberg
Tanumvegen 4F,1500000,70,3.0,1999.0,Leilighet,https://www.finn.no/realestate/homes/ad.html?finnkode=298491653,21428,60.2531953,11.6884778,14/04/2023,2.0,Andel,2100,Skarnes
Lageshallveien 42,4700000,211,6.0,1938.0,Enebolig,https://www.finn.no/realestate/homes/ad.html?finnkode=280940893,22274,60.1768522,10.2609628,14/04/2023,3.0,Eier (Selveier),3515,Hønefoss
Seljesvingen 38,6150000,139,,2023.0,Enebolig,https://www.finn.no/realestate/homes/ad.html?finnkode=298629983,44244,68.161619,13.635261,14/04/2023,2.0,Eier (Selveier),8370,Leknes
Kristian IVs gate 36A,2190000,53,,1966.0,Leilighet,https://www.finn.no/realestate/homes/ad.html?finnkode=298512679,41320,58.1483891,7.9925463,14/04/2023,5.0,Andel,4612,Kristiansand S
Veiskifte 30D,2790000,96,4.0,2016.0,Leilighet,https://www.finn.no/realestate/homes/ad.html?finnkode=293246869,29062,69.238746,19.230083,14/04/2023,2.0,Eier (Selveier),9050,Storsteinnes
Borggata 6,4500000,56,2.0,1990.0,Leilighet,https://www.finn.no/realestate/homes/ad.html?finnkode=298769579,80357,59.912364,10.770399,14/04/2023,5.0,Eier (Selveier),650,Oslo
Aslakveien 22,4100000,62,,2023.0,Leilighet,https://www.finn.no/realestate/homes/ad.html?finnkode=298752935,66129,59.939483,10.650844,14/04/2023,3.0,Andel,753,Oslo
Elgfaret 20 a,1900000,98,4.0,1966.0,Rekkehus,https://www.finn.no/realestate/homes/ad.html?finnkode=298717216,19387,59.6863717,9.6334491,14/04/2023,3.0,Andel,3617,Kongsberg
Andølingen 8,2800000,103,2.0,1864.0,Enebolig,https://www.finn.no/realestate/homes/ad.html?finnkode=298770564,27184,58.8701604,9.4125652,14/04/2023,2.0,Eier (Selveier),3770,Kragerø
Bibliotekgata 18,2150000,57,2.0,2010.0,Leilighet,https://www.finn.no/realestate/homes/ad.html?finnkode=298770265,37719,59.9277679,10.9600408,14/04/2023,1.0,Andel,1473,Lørenskog
Storgata 21,6800000,105,4.0,2019.0,Leilighet,https://www.finn.no/realestate/homes/ad.html?finnkode=298665325,64761,59.4353973,10.6593361,14/04/2023,4.0,Eier (Selveier),1531,Moss
Magnus den Godes gate 3B,4490000,108,5.0,1917.0,Leilighet,https://www.finn.no/realestate/homes/ad.html?finnkode=290479298,41574,63.4177371,10.3953652,14/04/2023,2.0,Andel,7030,Trondheim
Nordkappgata 27,4500000,61,2.0,1934.0,Leilighet,https://www.finn.no/realestate/homes/ad.html?finnkode=298768768,73770,59.935431,10.774579,14/04/2023,3.0,Eier (Selveier),479,Oslo
Vallefaret 15,4890000,75,3.0,1954.0,Leilighet,https://www.finn.no/realestate/homes/ad.html?finnkode=296974614,65200,59.919248,10.802573,14/04/2023,1.0,Andel,663,Oslo
Planteskoleveien 18,3200000,199,,1975.0,Enebolig,https://www.finn.no/realestate/homes/ad.html?finnkode=298522520,16080,59.5690652,11.3230635,14/04/2023,,Eier (Selveier),1850,Mysen
Rosenvinges vei 30,3500000,57,2.0,2021.0,Leilighet,https://www.finn.no/realestate/homes/ad.html?finnkode=298418525,61403,59.419677,10.676308,14/04/2023,3.0,Eier (Selveier),1523,Moss
Fürstveien 14,20500000,197,5.0,1990.0,Enebolig,https://www.finn.no/realestate/homes/ad.html?finnkode=295940332,104060,59.878901,10.609007,14/04/2023,,Eier (Selveier),1367,Snarøya
Nedre Silkestrå 14,9600000,91,4.0,1982.0,Leilighet,https://www.finn.no/realestate/homes/ad.html?finnkode=294074310,105494,59.929243,10.684423,14/04/2023,1.0,Andel,375,Oslo
Kleiva 8,3400000,162,6.0,1977.0,Enebolig,https://www.finn.no/realestate/homes/ad.html?finnkode=298668032,20987,59.7932426,9.5804015,14/04/2023,2.0,Eier (Selveier),3622,Svene
Nedrevegen 18C,5390000,148,,2016.0,Enebolig,https://www.finn.no/realestate/homes/ad.html?finnkode=292627876,36418,60.2799147,11.1819732,14/04/2023,,Eier (Selveier),2070,Råholt
Øvramarka 2,1990000,42,2.0,2014.0,Leilighet,https://www.finn.no/realestate/homes/ad.html?finnkode=298752639,47380,58.8351086,5.8181018,14/04/2023,3.0,Eier (Selveier),4337,Sandnes
Rådyrstien 9,3950000,158,,1975.0,Enebolig,https://www.finn.no/realestate/homes/ad.html?finnkode=298740899,25000,59.4957725,10.264084,14/04/2023,2.0,Eier (Selveier),3089,Holmestrand
Smed Qvales vei 2,7900000,420,,1963.0,Enebolig,https://www.finn.no/realestate/homes/ad.html?finnkode=296499407,18809,67.2988145,14.401339,14/04/2023,3.0,Eier (Selveier),8012,Bodø
Trondheimsveien 43,1990000,151,,1959.0,Enebolig,https://www.finn.no/realestate/homes/ad.html?finnkode=298324906,13178,63.2902827,9.0663825,14/04/2023,2.0,Eier (Selveier),7200,Kyrksæterøra
Hoveveien 7,2950000,92,,1977.0,Leilighet,https://www.finn.no/realestate/homes/ad.html?finnkode=298766408,32065,58.8430089,5.7344553,14/04/2023,,Eier (Selveier),4306,Sandnes
Haugen 17,8650000,313,6.0,1985.0,Enebolig,https://www.finn.no/realestate/homes/ad.html?finnkode=291726115,27635,58.8260503,5.7256357,14/04/2023,,Eier (Selveier),4323,Sandnes
Utsikten 8,3950000,266,,1985.0,Enebolig,https://www.finn.no/realestate/homes/ad.html?finnkode=274964397,14849,60.926877,10.7059943,14/04/2023,2.0,Eier (Selveier),2390,Moelv
Fredlihavna 34,12900000,242,9.0,2011.0,Enebolig,https://www.finn.no/realestate/homes/ad.html?finnkode=278463948,53305,59.7219674,10.1318171,14/04/2023,,Eier (Selveier),3031,Drammen
Øvre Fegriveien 20,5100000,124,,2023.0,Enebolig,https://www.finn.no/realestate/homes/ad.html?finnkode=298713676,41129,60.094738,10.107427,14/04/2023,1.0,Eier (Selveier),3533,Tyristrand
Slettevegen,1100000,136,4.0,1875.0,Gårdsbruk/Småbruk,https://www.finn.no/realestate/homes/ad.html?finnkode=298765846,8088,60.6879285,5.0442015,14/04/2023,3.0,Eier (Selveier),1020,Sletta
Einebrauta 8,3100000,185,,1970.0,Enebolig,https://www.finn.no/realestate/homes/ad.html?finnkode=298765577,16756,62.3783314,6.550335,14/04/2023,,Eier (Selveier),6222,Ikornnes
Storgata 276,3590000,169,4.0,1930.0,Enebolig,https://www.finn.no/realestate/homes/ad.html?finnkode=291337344,21242,59.1548061,9.6571007,14/04/2023,,Eier (Selveier),3912,Porsgrunn
Holmevegen 38,2350000,180,,1978.0,Enebolig,https://www.finn.no/realestate/homes/ad.html?finnkode=288461046,13055,60.6728302,10.3631034,14/04/2023,,Eier (Selveier),2864,Fall
Nedre Åsenvei 30,13950000,340,,1970.0,Enebolig,https://www.finn.no/realestate/homes/ad.html?finnkode=298765486,41029,59.137301,10.217626,14/04/2023,,Eier (Selveier),3215,Sandefjord
Hellemyr terrasse 38D,2890000,115,,1980.0,Tomannsbolig,https://www.finn.no/realestate/homes/ad.html?finnkode=298765265,25130,58.1441767,7.9328226,14/04/2023,,Eier (Selveier),4628,Kristiansand S
Nedre Ferstadveg 28,7990000,236,,1959.0,Enebolig,https://www.finn.no/realestate/homes/ad.html?finnkode=286495474,33855,63.4002048,10.3439297,14/04/2023,,Eier (Selveier),7023,Trondheim
Eilert Sundts gate 18B,5490000,45,2.0,1892.0,Leilighet,https://www.finn.no/realestate/homes/ad.html?finnkode=298534025,122000,59.921374,10.716565,14/04/2023,2.0,Eier (Selveier),259,Oslo
Solknatten 22,2390000,111,,2004.0,Tomannsbolig,https://www.finn.no/realestate/homes/ad.html?finnkode=298763424,21531,58.2692745,7.8269531,14/04/2023,,Eier (Selveier),4715,Øvrebø
Husebybakken 10,4100000,46,2.0,1986.0,Leilighet,https://www.finn.no/realestate/homes/ad.html?finnkode=297574587,89130,59.932805,10.667745,14/04/2023,1.0,Eier (Selveier),379,Oslo
Fåmyrsrøet 10B,4390000,115,,2021.0,Tomannsbolig,https://www.finn.no/realestate/homes/ad.html?finnkode=293948630,38173,60.208977,10.946966,14/04/2023,,Eier (Selveier),2030,Nannestad
Sundfaret 3,9400000,179,,1965.0,Tomannsbolig,https://www.finn.no/realestate/homes/ad.html?finnkode=292277742,52513,59.875209,10.5098314,14/04/2023,3.0,Eier (Selveier),1397,Nesøya
Ankerveien 87,18900000,315,,1973.0,Enebolig,https://www.finn.no/realestate/homes/ad.html?finnkode=261689216,60000,59.960756,10.649771,14/04/2023,,Eier (Selveier),766,Oslo
Wistings vei 38,1750000,77,3.0,1966.0,Leilighet,https://www.finn.no/realestate/homes/ad.html?finnkode=298762737,22727,59.4155819,10.4682457,14/04/2023,6.0,Andel,3182,Horten
Strandgata 11,3090000,429,,1953.0,Enebolig,https://www.finn.no/realestate/homes/ad.html?finnkode=298761206,7202,59.0968128,9.0634135,14/04/2023,4.0,Eier (Selveier),3750,Drangedal
Aasta Hansteens veg 7B,9950000,284,11.0,1966.0,Enebolig,https://www.finn.no/realestate/homes/ad.html?finnkode=292264477,35035,63.4263061,10.4409998,14/04/2023,1.0,Eier (Selveier),7046,Trondheim
Austhallet 10,6590000,203,5.0,1967.0,Enebolig,https://www.finn.no/realestate/homes/ad.html?finnkode=298762387,32463,58.8353965,5.7408584,14/04/2023,,Eier (Selveier),4325,Sandnes
Kjernåsveien 7A,1790000,57,,1979.0,Leilighet,https://www.finn.no/realestate/homes/ad.html?finnkode=298762216,31403,59.2399869,10.3918481,14/04/2023,6.0,Andel,3142,Vestskogen
Tommelstads gate 10,1900000,89,3.0,1946.0,Leilighet,https://www.finn.no/realestate/homes/ad.html?finnkode=298538428,21348,60.19241,11.9993121,14/04/2023,4.0,Andel,2212,Kongsvinger
Are Frodes veg 13,3990000,173,,1951.0,Enebolig,https://www.finn.no/realestate/homes/ad.html?finnkode=278825405,23063,59.2217079,9.594443,14/04/2023,,Eier (Selveier),3716,Skien
Grindbråtan 10B,4875000,169,5.0,2018.0,Rekkehus,https://www.finn.no/realestate/homes/ad.html?finnkode=273791418,28846,60.088582,10.870793,14/04/2023,3.0,Eier (Selveier),1484,Hakadal
Dronningens gate 91,3490000,64,,2016.0,Leilighet,https://www.finn.no/realestate/homes/ad.html?finnkode=295862274,54531,58.14828,8.0026584,14/04/2023,3.0,Eier (Selveier),4608,Kristiansand S
Carl Konows gate 36,1350000,25,1.0,1967.0,Leilighet,https://www.finn.no/realestate/homes/ad.html?finnkode=298533359,54000,60.38356,5.310809,14/04/2023,4.0,Eier (Selveier),5162,Laksevåg
Museumsvegen 7,3950000,290,4.0,1956.0,Enebolig,https://www.finn.no/realestate/homes/ad.html?finnkode=298760997,13620,62.5984727,9.7004826,14/04/2023,,Eier (Selveier),7340,Oppdal
Godøyvegen 296,2300000,202,,1960.0,Enebolig,https://www.finn.no/realestate/homes/ad.html?finnkode=264274402,11386,62.4707613,6.0373885,14/04/2023,3.0,Eier (Selveier),6055,Godøya
Benestadheia 52,5990000,166,,2022.0,Tomannsbolig,https://www.finn.no/realestate/homes/ad.html?finnkode=298760202,36084,58.156755,8.097491,14/04/2023,,Eier (Selveier),4638,Kristiansand S
Torridalsveien 4,7000000,258,,1932.0,Enebolig,https://www.finn.no/realestate/homes/ad.html?finnkode=298760280,27131,58.1521773,8.007805,14/04/2023,,Eier (Selveier),4630,Kristiansand S
Vestre Moåsen 53,2990000,115,,1996.0,Enebolig,https://www.finn.no/realestate/homes/ad.html?finnkode=298759998,26000,58.3713882,8.6481465,14/04/2023,,Eier (Selveier),4870,Fevik
Ludvig Skattums gate 28C,1650000,39,2.0,1958.0,Leilighet,https://www.finn.no/realestate/homes/ad.html?finnkode=278589863,42307,60.804701,10.677137,14/04/2023,2.0,Eier (Selveier),2819,Gjøvik
Båtstøo 25,2250000,92,3.0,1978.0,Leilighet,https://www.finn.no/realestate/homes/ad.html?finnkode=298758374,24456,59.7694046,5.5000827,14/04/2023,,Eier (Selveier),5411,Stord
Kveldroveien 54,2450000,200,,1977.0,Enebolig,https://www.finn.no/realestate/homes/ad.html?finnkode=265478464,12250,68.971267,15.635522,14/04/2023,,Eier (Selveier),8484,Risøyhamn
Kvileskogen 64,3600000,73,3.0,2009.0,Leilighet,https://www.finn.no/realestate/homes/ad.html?finnkode=298664357,49315,69.973593,23.287179,14/04/2023,2.0,Eier (Selveier),9510,Alta
Møllendalsveien 4,2550000,60,2.0,1948.0,Leilighet,https://www.finn.no/realestate/homes/ad.html?finnkode=298659750,42500,60.379887,5.336952,14/04/2023,3.0,Andel,5009,Bergen
Brynhilds veg 12B,2890000,140,5.0,1952.0,Rekkehus,https://www.finn.no/realestate/homes/ad.html?finnkode=290603909,20642,59.1504892,9.6724381,14/04/2023,3.0,Andel,3913,Porsgrunn
Bjarne Hansens vei 6,2000000,138,,1965.0,Enebolig,https://www.finn.no/realestate/homes/ad.html?finnkode=298487691,14492,59.5969358,9.26896,14/04/2023,,Eier (Selveier),3680,Notodden
Holtermanns veg 10,3790000,68,,1905.0,Leilighet,https://www.finn.no/realestate/homes/ad.html?finnkode=298653778,55735,63.413909,10.399208,14/04/2023,2.0,Eier (Selveier),7030,Trondheim
Kirkevegen 13B,4225000,123,,2010.0,Enebolig,https://www.finn.no/realestate/homes/ad.html?finnkode=274031265,34349,60.71761,11.1862828,14/04/2023,,Eier (Selveier),2335,Stange
Karlstadgata 12A,6600000,73,3.0,1894.0,Leilighet,https://www.finn.no/realestate/homes/ad.html?finnkode=298667020,90410,59.924298,10.764496,14/04/2023,5.0,Andel,553,Oslo
Vetabekkveien 71G,3290000,72,,2022.0,Leilighet,https://www.finn.no/realestate/homes/ad.html?finnkode=298497726,45694,59.277019,11.039958,14/04/2023,2.0,Eier (Selveier),1718,Greåker
Meheia 20B,4600000,73,,1997.0,Tomannsbolig,https://www.finn.no/realestate/homes/ad.html?finnkode=298336458,63013,59.8481654,10.6602886,14/04/2023,,Eier (Selveier),1452,Nesoddtangen
Borgundvegen 168 B,2250000,73,3.0,1963.0,Leilighet,https://www.finn.no/realestate/homes/ad.html?finnkode=298656034,30821,62.4710261,6.2010275,14/04/2023,1.0,Andel,6008,Ålesund
Øvre Solåsen 49,8400000,144,,2008.0,Enebolig,https://www.finn.no/realestate/homes/ad.html?finnkode=298639590,58333,59.8403547,10.6844277,14/04/2023,,Eier (Selveier),1459,Nesodden
Stongafjellsbakken 57B,5250000,128,6.0,2014.0,Tomannsbolig,https://www.finn.no/realestate/homes/ad.html?finnkode=298686175,41015,60.4060678,5.200908,14/04/2023,,Eier (Selveier),5301,Kleppestø
Årvollveien 41B,4250000,65,3.0,1956.0,Leilighet,https://www.finn.no/realestate/homes/ad.html?finnkode=298733526,65384,59.947507,10.817357,14/04/2023,3.0,Andel,590,Oslo
Lærums gate 1B,3490000,65,3.0,1950.0,Leilighet,https://www.finn.no/realestate/homes/ad.html?finnkode=298723841,53692,59.734232,10.210657,14/04/2023,3.0,Andel,3044,Drammen
Bjørnsrudskogen 6E,2890000,70,3.0,2007.0,Leilighet,https://www.finn.no/realestate/homes/ad.html?finnkode=298695577,41285,60.2501968,11.195899,14/04/2023,1.0,Eier (Selveier),2072,Dal
Heskestadveien 1,6900000,287,5.0,1952.0,Tomannsbolig,https://www.finn.no/realestate/homes/ad.html?finnkode=298754971,24041,58.9564871,5.748111,14/04/2023,,Eier (Selveier),4015,Stavanger
Arteidveien 105,5490000,110,,1980.0,Enebolig,https://www.finn.no/realestate/homes/ad.html?finnkode=296843475,49909,60.054431,11.150757,14/04/2023,1.0,Eier (Selveier),2040,Kløfta
Oserødmyra 6 B,3350000,90,4.0,2018.0,Leilighet,https://www.finn.no/realestate/homes/ad.html?finnkode=298658443,37222,59.198447,10.43808,14/04/2023,2.0,Eier (Selveier),3138,Skallestad
Stavsjøvegen 440,1850000,170,,1916.0,Enebolig,https://www.finn.no/realestate/homes/ad.html?finnkode=298754693,10882,60.841242,10.782631,14/04/2023,,Eier (Selveier),2355,Gaupen
Sverres gate 10,2900000,104,,2016.0,Leilighet,https://www.finn.no/realestate/homes/ad.html?finnkode=298754570,27884,59.054706,10.032101,14/04/2023,,Andel,3256,Larvik
Ægirs vei 28,4190000,128,4.0,2023.0,Tomannsbolig,https://www.finn.no/realestate/homes/ad.html?finnkode=290968073,32734,68.136814,13.604806,14/04/2023,1.0,Eier (Selveier),8370,Leknes
Thv. Bugges gate 17,4550000,225,,1959.0,Enebolig,https://www.finn.no/realestate/homes/ad.html?finnkode=298751922,20222,59.4110434,10.4620589,14/04/2023,,Eier (Selveier),3188,Horten
Færders gate 24,3200000,90,3.0,2011.0,Leilighet,https://www.finn.no/realestate/homes/ad.html?finnkode=298749513,35555,59.2865388,11.1126671,14/04/2023,4.0,Andel,1707,Sarpsborg
Parkveien 4,4750000,269,,1948.0,Enebolig,https://www.finn.no/realestate/homes/ad.html?finnkode=298742990,17657,68.7939679,16.5352513,14/04/2023,,Eier (Selveier),9406,Harstad
Brønndalsåsen 13,1850000,40,,1974.0,Leilighet,https://www.finn.no/realestate/homes/ad.html?finnkode=298738839,46250,60.3729138,5.2217067,14/04/2023,,Andel,5176,Loddefjord
Strondavegen 19,2190000,144,4.0,1966.0,Enebolig,https://www.finn.no/realestate/homes/ad.html?finnkode=264410688,15208,59.66607,5.93933,14/04/2023,,Eier (Selveier),5590,Etne
Haugsongelen 1,2300000,83,3.0,1993.0,Leilighet,https://www.finn.no/realestate/homes/ad.html?finnkode=298735086,27710,68.1262786,13.5400597,14/04/2023,1.0,Eier (Selveier),8372,Gravdal
Brothaugen 17,4290000,146,5.0,1977.0,Tomannsbolig,https://www.finn.no/realestate/homes/ad.html?finnkode=298653003,29383,60.174362,5.457004,14/04/2023,2.0,Eier (Selveier),5209,Os
Bakkehellet 7,5190000,70,3.0,2017.0,Leilighet,https://www.finn.no/realestate/homes/ad.html?finnkode=298705415,74142,63.407427,10.407051,14/04/2023,3.0,Eier (Selveier),7031,Trondheim
Kristofer Uppdals gate 5,2300000,240,5.0,1966.0,Enebolig,https://www.finn.no/realestate/homes/ad.html?finnkode=298681220,9583,59.572098,9.273151,14/04/2023,,Eier (Selveier),3679,Notodden
Veslemøys vei 7,8500000,203,,1937.0,Enebolig,https://www.finn.no/realestate/homes/ad.html?finnkode=297911683,41871,59.2900503,10.4168017,14/04/2023,,Eier (Selveier),3122,Tønsberg
Carl Jeppesens gate 12,3990000,44,,1937.0,Leilighet,https://www.finn.no/realestate/homes/ad.html?finnkode=298733551,90681,59.938967,10.771692,14/04/2023,3.0,Andel,481,Oslo
Snulteren 31,5800000,186,4.0,2017.0,Enebolig,https://www.finn.no/realestate/homes/ad.html?finnkode=298733549,31182,59.87513,11.574048,14/04/2023,1.0,Eier (Selveier),1940,Bjørkelangen
Thomas Heftyes Gate 64A,7690000,85,4.0,1929.0,Leilighet,https://www.finn.no/realestate/homes/ad.html?finnkode=278007372,90470,59.922176,10.70462,14/04/2023,,Aksje,262,Oslo
Nordahl Griegs gate 20B,6500000,231,,1966.0,Enebolig,https://www.finn.no/realestate/homes/ad.html?finnkode=298366947,28138,60.8073505,11.064314,14/04/2023,,Eier (Selveier),2319,Hamar
Rasmus Engers vei 2D,3450000,49,3.0,1961.0,Leilighet,https://www.finn.no/realestate/homes/ad.html?finnkode=298513406,70408,59.952977,10.856068,14/04/2023,1.0,Andel,956,Oslo
Gamleveien 91,5900000,88,4.0,2020.0,Leilighet,https://www.finn.no/realestate/homes/ad.html?finnkode=298567706,67045,59.918213,10.955849,14/04/2023,3.0,Eier (Selveier),1475,Finstadjordet
Udbyes gate 3A,3290000,62,3.0,1952.0,Leilighet,https://www.finn.no/realestate/homes/ad.html?finnkode=298665870,53064,63.4188284,10.3949089,14/04/2023,5.0,Andel,7030,Trondheim
Kantarellen terrasse 13,2750000,76,3.0,1990.0,Leilighet,https://www.finn.no/realestate/homes/ad.html?finnkode=298729271,36184,59.847855,10.813394,14/04/2023,1.0,Andel,1286,Oslo
Nordtvetveien 34B,6200000,144,,1949.0,Tomannsbolig,https://www.finn.no/realestate/homes/ad.html?finnkode=298728253,43055,59.952706,10.87079,14/04/2023,,Andel,952,Oslo
Brit Grytbaks veg 14,2200000,66,2.0,2001.0,Leilighet,https://www.finn.no/realestate/homes/ad.html?finnkode=298727995,33333,63.4075476,10.4547562,14/04/2023,2.0,Andel,7049,Trondheim
Kaares gate 3,10900000,116,4.0,1953.0,Enebolig,https://www.finn.no/realestate/homes/ad.html?finnkode=290301029,93965,59.9523323,11.0604665,14/04/2023,3.0,Eier (Selveier),2004,Lillestrøm
Plassen 30,1890000,54,2.0,2009.0,Leilighet,https://www.finn.no/realestate/homes/ad.html?finnkode=298496060,35000,59.148723,9.650189,14/04/2023,3.0,Andel,3919,Porsgrunn
Bergensveien 4A,2850000,34,2.0,1962.0,Leilighet,https://www.finn.no/realestate/homes/ad.html?finnkode=298726746,83823,59.960169,10.880708,14/04/2023,2.0,Eier (Selveier),963,Oslo
Lerdalsveien 5,5900000,160,6.0,1973.0,Enebolig,https://www.finn.no/realestate/homes/ad.html?finnkode=292085632,36875,59.838295,10.808545,14/04/2023,2.0,Eier (Selveier),1263,Oslo
Jomfru Winthers vei 24,4400000,142,4.0,1978.0,Enebolig,https://www.finn.no/realestate/homes/ad.html?finnkode=291453823,30985,59.596961,10.70438,14/04/2023,,Eier (Selveier),1542,Vestby
Fylkingen 5,3350000,71,3.0,2016.0,Leilighet,https://www.finn.no/realestate/homes/ad.html?finnkode=298523967,47183,59.356497,10.293942,14/04/2023,2.0,Eier (Selveier),3174,Revetal
Fjellveien 40,3590000,66,,1956.0,Tomannsbolig,https://www.finn.no/realestate/homes/ad.html?finnkode=298724521,54393,67.2939644,14.4217276,14/04/2023,1.0,Eier (Selveier),8012,Bodø
Harald Hårfagres gate 14,3750000,45,2.0,2020.0,Leilighet,https://www.finn.no/realestate/homes/ad.html?finnkode=298534989,83333,63.445781,10.44272,14/04/2023,2.0,Eier (Selveier),7041,Trondheim
Sørøygata 13,4250000,91,,2015.0,Leilighet,https://www.finn.no/realestate/homes/ad.html?finnkode=298722994,46703,70.663202,23.678997,14/04/2023,4.0,Eier (Selveier),9600,Hammerfest
Hagalia 16,4300000,121,4.0,2002.0,Enebolig,https://www.finn.no/realestate/homes/ad.html?finnkode=290857547,35537,59.1188103,10.2464684,14/04/2023,2.0,Eier (Selveier),3219,Sandefjord
Vestre Vallavegen 14,3500000,122,,1965.0,Rekkehus,https://www.finn.no/realestate/homes/ad.html?finnkode=298720496,28688,60.293765,5.37994,14/04/2023,,Eier (Selveier),5227,Nesttun
Lillogata 3C,7690000,79,3.0,2009.0,Leilighet,https://www.finn.no/realestate/homes/ad.html?finnkode=297286236,97341,59.942927,10.768413,14/04/2023,4.0,Andel,484,Oslo
Brattåstoppen 9,4990000,151,5.0,2021.0,Enebolig,https://www.finn.no/realestate/homes/ad.html?finnkode=285580845,33046,59.107194,11.441622,14/04/2023,,Eier (Selveier),1793,Tistedal
Sandviksveien 49C,2490000,56,2.0,1918.0,Leilighet,https://www.finn.no/realestate/homes/ad.html?finnkode=298441876,44464,60.408866,5.3236245,14/04/2023,3.0,Andel,5036,Bergen
Frøyas gate 55,2500000,80,3.0,1989.0,Leilighet,https://www.finn.no/realestate/homes/ad.html?finnkode=298718353,31250,59.2181026,10.9364287,14/04/2023,2.0,Andel,1608,Fredrikstad
Elgtråkket 3C,4250000,103,,1978.0,Leilighet,https://www.finn.no/realestate/homes/ad.html?finnkode=298716873,41262,59.9312954,11.0368092,14/04/2023,3.0,Andel,2014,Blystadlia
Steinsvikvegen 266,9260000,128,5.0,2017.0,Leilighet,https://www.finn.no/realestate/homes/ad.html?finnkode=273278941,72343,60.30151,5.308827,14/04/2023,7.0,Eier (Selveier),5237,Rådal
Vikveien 5,4700000,215,6.0,1991.0,Enebolig,https://www.finn.no/realestate/homes/ad.html?finnkode=298672964,21860,59.4312605,10.4263491,14/04/2023,2.0,Eier (Selveier),3180,Nykirke
Geitafjellet 38,3450000,141,3.0,1977.0,Rekkehus,https://www.finn.no/realestate/homes/ad.html?finnkode=298339829,24468,59.4167136,5.2839684,14/04/2023,,Eier (Selveier),5521,Haugesund
Råvarden 156B,4900000,115,4.0,2005.0,Rekkehus,https://www.finn.no/realestate/homes/ad.html?finnkode=298334788,42608,60.2867861,5.319992,14/04/2023,2.0,Eier (Selveier),5239,Rådal
Edvardsens gate 29,2890000,37,,1893.0,Leilighet,https://www.finn.no/realestate/homes/ad.html?finnkode=298715030,78108,60.4040479,5.3252221,14/04/2023,2.0,Eier (Selveier),5034,Bergen
Kristofer Jansons vei 23,2990000,69,3.0,1961.0,Leilighet,https://www.finn.no/realestate/homes/ad.html?finnkode=298683396,43333,60.3592684,5.3637815,14/04/2023,4.0,Aksje,5089,Bergen
Åsliveien 4C,3990000,99,,2002.0,Tomannsbolig,https://www.finn.no/realestate/homes/ad.html?finnkode=298713325,40303,59.3030669,10.7764309,14/04/2023,,Eier (Selveier),1642,Saltnes
Peter Hognestads gate 9C,2135000,79,3.0,2022.0,Leilighet,https://www.finn.no/realestate/homes/ad.html?finnkode=298512884,27025,59.563835,9.255218,14/04/2023,3.0,Andel,3675,Notodden
Gartnergaten 5,2990000,33,1.0,1905.0,Leilighet,https://www.finn.no/realestate/homes/ad.html?finnkode=298711087,90606,60.3932873,5.3180081,14/04/2023,4.0,Eier (Selveier),5011,Bergen
Båthavnveien 6,8975000,349,,1998.0,Enebolig,https://www.finn.no/realestate/homes/ad.html?finnkode=283041471,25716,59.2155019,11.07063,14/04/2023,2.0,Eier (Selveier),1655,Sellebakk
SINSENVEIEN 7,500000,15,,2005.0,Garasje/Parkering,https://www.finn.no/realestate/homes/ad.html?finnkode=298560859,33333,59.928729,10.780308,14/04/2023,,Annet,572,Oslo
Nitteberglia 1,3390000,51,,2018.0,Leilighet,https://www.finn.no/realestate/homes/ad.html?finnkode=298708365,66470,59.978032,11.02662,14/04/2023,1.0,Eier (Selveier),2007,Kjeller
Kristian Bings vei 1,3990000,94,4.0,1948.0,Tomannsbolig,https://www.finn.no/realestate/homes/ad.html?finnkode=298708225,42446,60.3666774,5.3370574,14/04/2023,1.0,Eier (Selveier),5073,Bergen
Øvergata 17 B,3990000,118,,1962.0,Leilighet,https://www.finn.no/realestate/homes/ad.html?finnkode=278360596,33813,63.8715298,11.2960512,14/04/2023,3.0,Eier (Selveier),7670,Inderøy
Malenas veg 15,3990000,184,4.0,1967.0,Enebolig,https://www.finn.no/realestate/homes/ad.html?finnkode=298686522,21684,63.3171877,10.1971249,14/04/2023,,Eier (Selveier),7350,Buvika
Haukelandsveien 48A,7990000,342,8.0,1939.0,Bygård/Flermannsbolig,https://www.finn.no/realestate/homes/ad.html?finnkode=298360725,23362,60.3690243,5.3626203,14/04/2023,4.0,Eier (Selveier),5096,Bergen
Nordbyen 25,5800000,67,,1900.0,Enebolig,https://www.finn.no/realestate/homes/ad.html?finnkode=290972389,86567,59.2713309,10.4011448,14/04/2023,2.0,Eier (Selveier),3111,Tønsberg
Rektorhaugen 35,6000000,57,,1960.0,Leilighet,https://www.finn.no/realestate/homes/ad.html?finnkode=298704530,105263,59.952341,10.746782,14/04/2023,2.0,Andel,876,Oslo
Steinhaugvegen 6,3490000,153,,1994.0,Enebolig,https://www.finn.no/realestate/homes/ad.html?finnkode=298702624,22810,59.5056209,5.5783428,14/04/2023,,Eier (Selveier),5574,Skjold
Dovresvingen 1,25800000,422,,1896.0,Enebolig,https://www.finn.no/realestate/homes/ad.html?finnkode=279867858,61137,59.885442,10.791931,14/04/2023,,Eier (Selveier),1184,Oslo
Ringshusveien 10 C,17600000,243,6.0,2022.0,Enebolig,https://www.finn.no/realestate/homes/ad.html?finnkode=285983812,72427,59.878629,10.799405,14/04/2023,,Eier (Selveier),1176,Oslo
Ringshusveien 10 A,16900000,244,6.0,2022.0,Tomannsbolig,https://www.finn.no/realestate/homes/ad.html?finnkode=291018713,69262,59.878535,10.799239,14/04/2023,,Eier (Selveier),1176,Oslo
Skippergata 12,2850000,116,,1900.0,Tomannsbolig,https://www.finn.no/realestate/homes/ad.html?finnkode=298697206,24568,59.4162974,10.487177,14/04/2023,1.0,Eier (Selveier),3187,Horten
Helga Blystads veg 32,3290000,111,,1987.0,Enebolig,https://www.finn.no/realestate/homes/ad.html?finnkode=298702630,29639,60.8093863,11.0279514,14/04/2023,,Andel,2316,Hamar
Midtunheia 40,5490000,208,5.0,1979.0,Tomannsbolig,https://www.finn.no/realestate/homes/ad.html?finnkode=298673098,26394,60.321789,5.366123,14/04/2023,3.0,Eier (Selveier),5224,Nesttun
Sørhaugleite 32,2900000,145,,1975.0,Enebolig,https://www.finn.no/realestate/homes/ad.html?finnkode=298499657,20000,59.4139433,5.2858067,14/04/2023,,Eier (Selveier),5521,Haugesund
Gjerdebakken 17,2790000,55,,2015.0,Leilighet,https://www.finn.no/realestate/homes/ad.html?finnkode=275784695,50727,58.9869159,5.6907936,14/04/2023,3.0,Eier (Selveier),4027,Stavanger
Lindebergåsen 30B,4060000,100,4.0,1976.0,Leilighet,https://www.finn.no/realestate/homes/ad.html?finnkode=287891118,40600,59.928376,10.883306,14/04/2023,3.0,Andel,1068,Oslo
Våkleivskogen 131,2590000,74,3.0,1982.0,Leilighet,https://www.finn.no/realestate/homes/ad.html?finnkode=298517859,35000,60.3298016,5.2847258,14/04/2023,1.0,Andel,5155,Bønes
Nyresvegen 88,2800000,213,7.0,1959.0,Enebolig,https://www.finn.no/realestate/homes/ad.html?finnkode=298692234,13145,60.623748,6.434609,14/04/2023,,Eier (Selveier),5700,Voss
Torggata 13,2490000,162,4.0,1947.0,Enebolig,https://www.finn.no/realestate/homes/ad.html?finnkode=297481990,15370,59.1112423,9.6442011,14/04/2023,2.0,Eier (Selveier),3936,Porsgrunn
Michael Krohns gate 64,3390000,57,3.0,1930.0,Leilighet,https://www.finn.no/realestate/homes/ad.html?finnkode=298642676,59473,60.3803252,5.3205981,14/04/2023,2.0,Eier (Selveier),5057,Bergen
Kommandørveien 25,10500000,132,7.0,1917.0,Enebolig,https://www.finn.no/realestate/homes/ad.html?finnkode=286626849,79545,58.9894282,5.7346302,14/04/2023,,Eier (Selveier),4077,Hundvåg
Njords veg 28 C,3200000,64,3.0,1966.0,Leilighet,https://www.finn.no/realestate/homes/ad.html?finnkode=298688640,50000,63.4038981,10.4154603,14/04/2023,3.0,Andel,7035,Trondheim
Øygardshaugen 84B,1550000,69,,1993.0,Leilighet,https://www.finn.no/realestate/homes/ad.html?finnkode=298687871,22463,59.1489,5.244797,14/04/2023,1.0,Eier (Selveier),4280,Skudeneshavn
Hestavangen 3,4350000,71,3.0,2018.0,Leilighet,https://www.finn.no/realestate/homes/ad.html?finnkode=298581177,61267,60.628664,6.421177,14/04/2023,2.0,Eier (Selveier),5700,Voss
Myrveien 22C,8500000,162,6.0,2015.0,Enebolig,https://www.finn.no/realestate/homes/ad.html?finnkode=298603432,52469,60.0561661,10.8653036,14/04/2023,2.0,Eier (Selveier),1482,Nittedal
Hangursvegen 37,5000000,181,5.0,1969.0,Enebolig,https://www.finn.no/realestate/homes/ad.html?finnkode=298601250,27624,60.629082,6.399553,14/04/2023,2.0,Eier (Selveier),5704,Voss
Gjerdrumsveien 73A,5800000,192,8.0,2002.0,Tomannsbolig,https://www.finn.no/realestate/homes/ad.html?finnkode=298685046,30208,60.0235261,11.0331321,14/04/2023,3.0,Eier (Selveier),2020,Skedsmokorset
Hafellbakkan 20,4795000,239,,2018.0,Enebolig,https://www.finn.no/realestate/homes/ad.html?finnkode=295201661,20062,63.50986,10.022756,14/04/2023,,Eier (Selveier),7105,Stadsbygd
Wingejordet 31B Sande i,3600000,111,5.0,2010.0,Leilighet,https://www.finn.no/realestate/homes/ad.html?finnkode=298680777,32432,59.5828788,10.2113066,14/04/2023,2.0,Eier (Selveier),3070,Vestfold
Asaldalbakken 99,2590000,127,,2008.0,Enebolig,https://www.finn.no/realestate/homes/ad.html?finnkode=298684550,20393,59.2863548,5.2897538,14/04/2023,2.0,Eier (Selveier),4250,Kopervik
Smålensgata 4A,5850000,84,3.0,1980.0,Leilighet,https://www.finn.no/realestate/homes/ad.html?finnkode=298495466,69642,59.907113,10.784086,14/04/2023,1.0,Andel,657,Oslo
Fossegrenda 25 A,2890000,87,1.0,1977.0,Leilighet,https://www.finn.no/realestate/homes/ad.html?finnkode=298683177,33218,63.387607,10.413017,14/04/2023,2.0,Eier (Selveier),7038,Trondheim
Søre Maggevarden 23,3850000,152,6.0,1995.0,Enebolig,https://www.finn.no/realestate/homes/ad.html?finnkode=298632852,25328,60.4026798,5.0103965,14/04/2023,3.0,Eier (Selveier),5363,Ågotnes
Flatåsenget 45 A,4150000,153,5.0,1978.0,Rekkehus,https://www.finn.no/realestate/homes/ad.html?finnkode=298356860,27124,63.3762764,10.3434037,14/04/2023,,Andel,7099,Flatåsen
Høiendal 6A,3250000,100,,1966.0,Enebolig,https://www.finn.no/realestate/homes/ad.html?finnkode=298665216,32500,59.235104,10.963768,14/04/2023,,Andel,1617,Fredrikstad
Søråshøgda 106 D,3390000,118,,1988.0,Rekkehus,https://www.finn.no/realestate/homes/ad.html?finnkode=298683415,28728,60.3054628,5.3228718,14/04/2023,,Eier (Selveier),5235,Rådal
Lindebergåsen 14A,2800000,44,2.0,1976.0,Leilighet,https://www.finn.no/realestate/homes/ad.html?finnkode=298650042,63636,59.929363,10.880266,14/04/2023,2.0,Andel,1068,Oslo
Ivar Aasens vei 8A,7700000,256,,1955.0,Enebolig,https://www.finn.no/realestate/homes/ad.html?finnkode=292259060,30078,59.9615016,10.9909071,14/04/2023,,Eier (Selveier),2013,Skjetten
Revsbakken 6,3080000,177,4.0,1971.0,Enebolig,https://www.finn.no/realestate/homes/ad.html?finnkode=290937069,17401,68.816724,16.5493991,14/04/2023,2.0,Eier (Selveier),9404,Harstad
Korsholms gate 2,3490000,172,,1957.0,Enebolig,https://www.finn.no/realestate/homes/ad.html?finnkode=298682001,20290,58.0266572,7.4415211,14/04/2023,,Eier (Selveier),4514,Mandal
Solheims tverrgate 13,3790000,90,3.0,1981.0,Leilighet,https://www.finn.no/realestate/homes/ad.html?finnkode=298640006,42111,60.3743778,5.3366281,14/04/2023,3.0,Andel,5054,Bergen
Breidablikkstien 2C,3750000,63,,2019.0,Tomannsbolig,https://www.finn.no/realestate/homes/ad.html?finnkode=298680541,59523,63.412532,10.377961,14/04/2023,2.0,Eier (Selveier),7019,Trondheim
Bjønnstien 12,5250000,253,6.0,1989.0,Enebolig,https://www.finn.no/realestate/homes/ad.html?finnkode=291552638,20750,60.1863519,11.9744581,14/04/2023,,Eier (Selveier),2208,Kongsvinger
Kalfarveien 20D,12600000,117,4.0,2023.0,Leilighet,https://www.finn.no/realestate/homes/ad.html?finnkode=298679656,107692,60.389769,5.339313,14/04/2023,10.0,Eier (Selveier),5018,Bergen
Stølen 33A,3150000,100,3.0,2005.0,Leilighet,https://www.finn.no/realestate/homes/ad.html?finnkode=298679590,31500,60.5583291,5.2553857,14/04/2023,1.0,Eier (Selveier),5911,Alversund
Torgny Segerstedts vei 150,1990000,45,,1971.0,Leilighet,https://www.finn.no/realestate/homes/ad.html?finnkode=298678909,44222,60.3448431,5.2970885,14/04/2023,10.0,Andel,5143,Fyllingsdalen
Bjørkelundvegen 17,7490000,213,5.0,2010.0,Enebolig,https://www.finn.no/realestate/homes/ad.html?finnkode=298530591,35164,60.3486465,5.1519579,14/04/2023,,Eier (Selveier),5350,Brattholmen
Prestestien 14,2850000,77,3.0,1970.0,Leilighet,https://www.finn.no/realestate/homes/ad.html?finnkode=298656375,37012,60.4673992,5.307131,14/04/2023,2.0,Andel,5118,Ulset
Haugenesveien 39,2990000,163,,1978.0,Rekkehus,https://www.finn.no/realestate/homes/ad.html?finnkode=289834040,18343,58.378818,8.7018138,14/04/2023,,Eier (Selveier),4870,Fevik
Kyavegen 8,2050000,47,2.0,1945.0,Leilighet,https://www.finn.no/realestate/homes/ad.html?finnkode=298617230,43617,63.4317963,10.4453858,14/04/2023,1.0,Andel,7045,Trondheim
Ekeliveien 10,1790000,160,,1955.0,Enebolig,https://www.finn.no/realestate/homes/ad.html?finnkode=298671532,11187,59.036406,9.7110522,14/04/2023,,Eier (Selveier),3961,Stathelle
Eventyrveien 23,6300000,223,6.0,1989.0,Enebolig,https://www.finn.no/realestate/homes/ad.html?finnkode=291318212,28251,59.7646105,10.0159504,14/04/2023,,Eier (Selveier),3055,Krokstadelva
Ensjøveien 34,4690000,35,2.0,,Leilighet,https://www.finn.no/realestate/homes/ad.html?finnkode=298513352,134000,59.9104461,10.7921051,14/04/2023,4.0,Eier (Selveier),661,Oslo
Karmsundgata 214,1750000,64,3.0,1922.0,Leilighet,https://www.finn.no/realestate/homes/ad.html?finnkode=298676284,27343,59.4159399,5.2729246,14/04/2023,2.0,Eier (Selveier),5525,Haugesund
Vesøygaten 1A,2980000,64,,2017.0,Leilighet,https://www.finn.no/realestate/homes/ad.html?finnkode=298676277,46562,58.3381642,8.5836429,14/04/2023,2.0,Eier (Selveier),4876,Grimstad
Nordlysbuen 4B,4990000,157,4.0,1964.0,Tomannsbolig,https://www.finn.no/realestate/homes/ad.html?finnkode=298492630,31783,67.2816548,14.4039713,14/04/2023,,Eier (Selveier),8007,Bodø
Elgfaret 7 A,800000,59,2.0,1994.0,Leilighet,https://www.finn.no/realestate/homes/ad.html?finnkode=298506402,13559,67.0936258,15.3921311,14/04/2023,1.0,Andel,8250,Rognan
Hesnesveien 41,3900000,146,,2002.0,Enebolig,https://www.finn.no/realestate/homes/ad.html?finnkode=296876705,26712,58.362598,8.622057,14/04/2023,2.0,Eier (Selveier),4885,Grimstad
Skedsmogata 25,5100000,40,2.0,,Leilighet,https://www.finn.no/realestate/homes/ad.html?finnkode=298675060,127500,59.913676,10.786392,14/04/2023,6.0,Eier (Selveier),655,Oslo
Hellinga 2A,3250000,103,5.0,1951.0,Enebolig,https://www.finn.no/realestate/homes/ad.html?finnkode=297770328,31553,60.7185314,11.1994705,14/04/2023,2.0,Eier (Selveier),2335,Stange
Løkkeveien 13,4450000,220,,1973.0,Enebolig,https://www.finn.no/realestate/homes/ad.html?finnkode=298675528,20227,59.008755,10.022333,14/04/2023,,Eier (Selveier),3292,Stavern
Enebakkveien 422 A,11950000,201,6.0,2022.0,Tomannsbolig,https://www.finn.no/realestate/homes/ad.html?finnkode=280366130,59452,59.833757,10.84607,14/04/2023,,Eier (Selveier),1279,Oslo
Ladeveien 30A,2790000,38,2.0,2020.0,Leilighet,https://www.finn.no/realestate/homes/ad.html?finnkode=293195653,73421,63.442862,10.43474,14/04/2023,1.0,Eier (Selveier),7066,Trondheim
Nordre Gommershaugen 52,11500000,349,,1989.0,Enebolig,https://www.finn.no/realestate/homes/ad.html?finnkode=297491915,32951,60.2931771,5.2739502,14/04/2023,3.0,Eier (Selveier),5254,Sandsli
Kristofer Jansons vei 85,3290000,67,,,Leilighet,https://www.finn.no/realestate/homes/ad.html?finnkode=298674835,49104,60.3547968,5.3613216,14/04/2023,,Andel,5089,Bergen
Fedjedalen 46,7390000,251,7.0,2013.0,Enebolig,https://www.finn.no/realestate/homes/ad.html?finnkode=298631833,29442,59.4134662,5.3360783,14/04/2023,,Eier (Selveier),5533,Haugesund
Breiviksveien 62,7690000,121,4.0,1957.0,Leilighet,https://www.finn.no/realestate/homes/ad.html?finnkode=291001887,63553,60.423537,5.297506,14/04/2023,2.0,Eier (Selveier),5043,Bergen
Valen 7,850000,52,3.0,2019.0,Leilighet,https://www.finn.no/realestate/homes/ad.html?finnkode=298648206,16346,59.001423,5.609365,14/04/2023,1.0,Andel,4070,Randaberg
Haumyrveien 27,6990000,236,,1972.0,Enebolig,https://www.finn.no/realestate/homes/ad.html?finnkode=298673238,29618,58.1608026,8.0653375,14/04/2023,,Eier (Selveier),4637,Kristiansand S
Lekvenmarka 222,3890000,80,4.0,2015.0,Leilighet,https://www.finn.no/realestate/homes/ad.html?finnkode=297740846,48625,60.1678105,5.4502142,14/04/2023,2.0,Eier (Selveier),5209,Os
Rosevegen 24,5250000,206,6.0,1993.0,Enebolig,https://www.finn.no/realestate/homes/ad.html?finnkode=298540068,25485,59.081366,9.6789195,14/04/2023,2.0,Eier (Selveier),3940,Porsgrunn
Strandstykket 77,1700000,80,,1977.0,Rekkehus,https://www.finn.no/realestate/homes/ad.html?finnkode=297676981,21250,60.908142,11.55852,14/04/2023,1.0,Andel,2409,Elverum
Valletangen 17,12500000,160,5.0,1992.0,Enebolig,https://www.finn.no/realestate/homes/ad.html?finnkode=298672356,78125,58.931513,9.5558838,14/04/2023,,Eier (Selveier),3967,Stathelle
Revebjelleveien 52,2300000,67,3.0,2004.0,Leilighet,https://www.finn.no/realestate/homes/ad.html?finnkode=298657055,34328,59.4109243,10.6947694,14/04/2023,2.0,Andel,1529,Moss
Odins gate 14 B,9650000,98,4.0,1897.0,Leilighet,https://www.finn.no/realestate/homes/ad.html?finnkode=274676550,98469,59.919741,10.706785,14/04/2023,,Eier (Selveier),266,Oslo
Renslostigen 11B,2850000,109,4.0,2008.0,Tomannsbolig,https://www.finn.no/realestate/homes/ad.html?finnkode=296877370,26146,60.7091278,8.9384027,14/04/2023,,Eier (Selveier),3550,Gol
Sandvikbakken 34A,2250000,101,3.0,2000.0,Leilighet,https://www.finn.no/realestate/homes/ad.html?finnkode=292290219,22277,58.8712616,5.768929,14/04/2023,2.0,Andel,4329,Sandnes
Dalveien 23,4700000,312,,1974.0,Enebolig,https://www.finn.no/realestate/homes/ad.html?finnkode=298670511,15064,59.270657,11.036671,14/04/2023,,Eier (Selveier),1718,Greåker
Guldmand brygge 9,2100000,47,2.0,2007.0,Leilighet,https://www.finn.no/realestate/homes/ad.html?finnkode=298670420,44680,58.3344401,8.591492,14/04/2023,1.0,Andel,4876,Grimstad
Astreavegen 12,3990000,218,,1975.0,Enebolig,https://www.finn.no/realestate/homes/ad.html?finnkode=296866140,18302,59.4207578,5.2915153,14/04/2023,,Eier (Selveier),5519,Haugesund
Mikaels vei 7,7750000,277,,2023.0,Enebolig,https://www.finn.no/realestate/homes/ad.html?finnkode=298670259,27978,59.132567,11.345732,14/04/2023,,Eier (Selveier),1783,Halden
Birkeveien 1,3750000,77,3.0,1949.0,Leilighet,https://www.finn.no/realestate/homes/ad.html?finnkode=298670183,48701,60.3646352,5.3605335,14/04/2023,2.0,Aksje,5093,Bergen
Ekholt hageby 6C,3600000,92,4.0,1961.0,Rekkehus,https://www.finn.no/realestate/homes/ad.html?finnkode=287699892,39130,59.4106528,10.6824047,14/04/2023,2.0,Andel,1526,Moss
Bølevegen 143,2360000,262,5.0,1930.0,Enebolig,https://www.finn.no/realestate/homes/ad.html?finnkode=296517797,9007,59.1814698,9.6317154,14/04/2023,3.0,Eier (Selveier),3713,Skien
Storhamargata 23B,2250000,45,,1959.0,Leilighet,https://www.finn.no/realestate/homes/ad.html?finnkode=298669135,50000,60.7948418,11.0652919,14/04/2023,5.0,Andel,2317,Hamar
Busterudgata 17,3990000,178,9.0,1836.0,Tomannsbolig,https://www.finn.no/realestate/homes/ad.html?finnkode=298669494,22415,59.126568,11.385211,14/04/2023,,Eier (Selveier),1776,Halden
A. K. Blix veg 52,850000,29,2.0,2005.0,Leilighet,https://www.finn.no/realestate/homes/ad.html?finnkode=298617798,29310,60.198093,11.993336,14/04/2023,1.0,Andel,2214,Kongsvinger
Moltevegen 6,3300000,197,5.0,1978.0,Enebolig,https://www.finn.no/realestate/homes/ad.html?finnkode=262470274,16751,60.9084882,11.5527233,14/04/2023,2.0,Eier (Selveier),2409,Elverum
Henrik Ourens veg 7,2990000,76,3.0,1968.0,Leilighet,https://www.finn.no/realestate/homes/ad.html?finnkode=298325117,39342,63.4173,10.456026,14/04/2023,2.0,Andel,7069,Trondheim
Amtmannvegen 37,2490000,94,3.0,1988.0,Leilighet,https://www.finn.no/realestate/homes/ad.html?finnkode=298534873,26489,62.743061,7.224239,14/04/2023,1.0,Eier (Selveier),6419,Molde
Stallmestervegen 2C,3990000,94,3.0,1972.0,Leilighet,https://www.finn.no/realestate/homes/ad.html?finnkode=297352795,42446,63.427559,10.444623,14/04/2023,3.0,Andel,7046,Trondheim
Lauritz Hervigs vei 115C,1890000,52,2.0,1970.0,Leilighet,https://www.finn.no/realestate/homes/ad.html?finnkode=298563467,36346,59.7140851,10.2246488,14/04/2023,1.0,Andel,3035,Drammen
Stongfjordvegen 680,2950000,227,,1928.0,Enebolig,https://www.finn.no/realestate/homes/ad.html?finnkode=298667111,12995,61.423582,5.152552,14/04/2023,,Eier (Selveier),6984,Stongfjorden
Konsul Børs' gate 15A,1790000,69,,1923.0,Leilighet,https://www.finn.no/realestate/homes/ad.html?finnkode=298667051,25942,60.384572,5.320083,14/04/2023,1.0,Aksje,5006,Bergen
Camilla Colletts gate 5F,3290000,49,2.0,1931.0,Leilighet,https://www.finn.no/realestate/homes/ad.html?finnkode=298666870,67142,60.372397,5.346307,14/04/2023,2.0,Eier (Selveier),5052,Bergen
Greåkerveien 92,3000000,75,,1900.0,Enebolig,https://www.finn.no/realestate/homes/ad.html?finnkode=284109925,40000,59.2669503,11.0552218,14/04/2023,,Eier (Selveier),1718,Greåker
Eikeneset 18,7690000,220,7.0,1972.0,Enebolig,https://www.finn.no/realestate/homes/ad.html?finnkode=298663485,34954,60.2657235,5.2626732,14/04/2023,2.0,Eier (Selveier),5259,Hjellestad
Magnussenløkka 1B,3500000,148,,1982.0,Rekkehus,https://www.finn.no/realestate/homes/ad.html?finnkode=298664954,23648,60.800673,11.0750414,14/04/2023,2.0,Andel,2318,Hamar
Skullerudskogen 9,3300000,42,2.0,2006.0,Leilighet,https://www.finn.no/realestate/homes/ad.html?finnkode=298648282,78571,59.868219,10.836677,14/04/2023,3.0,Andel,1188,Oslo
Rådhusvegen 7A,5750000,70,3.0,2018.0,Leilighet,https://www.finn.no/realestate/homes/ad.html?finnkode=286281324,82142,60.145229,11.174875,14/04/2023,5.0,Eier (Selveier),2066,Jessheim
Skullerudveien 89,5300000,105,4.0,1989.0,Leilighet,https://www.finn.no/realestate/homes/ad.html?finnkode=296989593,50476,59.864876,10.836814,14/04/2023,1.0,Eier (Selveier),1188,Oslo
Øvre Blekeveien 15A,3750000,41,3.0,1897.0,Leilighet,https://www.finn.no/realestate/homes/ad.html?finnkode=267618045,91463,60.3981154,5.3288167,14/04/2023,4.0,Eier (Selveier),5003,Bergen
Vindalveien 62,6300000,152,7.0,1963.0,Enebolig,https://www.finn.no/realestate/homes/ad.html?finnkode=295160599,41447,59.1100456,10.2435832,14/04/2023,2.0,Eier (Selveier),3219,Sandefjord
Sonjas vei 21,6800000,215,7.0,2001.0,Enebolig,https://www.finn.no/realestate/homes/ad.html?finnkode=290931969,31627,59.594401,10.703716,14/04/2023,2.0,Eier (Selveier),1542,Vestby
Svaneveien 40A,3650000,125,,1975.0,Rekkehus,https://www.finn.no/realestate/homes/ad.html?finnkode=298663772,29200,58.84262,5.710302,14/04/2023,,Andel,4318,Sandnes
Trøgstadveien 68,3950000,186,5.0,1947.0,Enebolig,https://www.finn.no/realestate/homes/ad.html?finnkode=298663679,21236,59.5964584,11.1829472,14/04/2023,2.0,Eier (Selveier),1808,Askim
Kunterudveien 23,4750000,122,3.0,1978.0,Enebolig,https://www.finn.no/realestate/homes/ad.html?finnkode=285263359,38934,59.756152,10.2924449,14/04/2023,1.0,Eier (Selveier),3426,Gullaug
Årdalsvegen 8B Øvre,1450000,78,4.0,1964.0,Leilighet,https://www.finn.no/realestate/homes/ad.html?finnkode=298663428,18589,61.3073953,7.8119384,14/04/2023,1.0,Andel,6884,Årdal
Utstrandveien 256,1850000,251,8.0,1976.0,Enebolig,https://www.finn.no/realestate/homes/ad.html?finnkode=297481484,7370,63.7295514,9.646535,14/04/2023,,Eier (Selveier),7140,Opphaug
Ole Aasveds veg 6,2470000,60,3.0,2003.0,Leilighet,https://www.finn.no/realestate/homes/ad.html?finnkode=298663477,41166,63.4089492,10.4530293,14/04/2023,5.0,Andel,7049,Trondheim
Dronningveien 39,6400000,247,6.0,1987.0,Enebolig,https://www.finn.no/realestate/homes/ad.html?finnkode=298662223,25910,60.0618113,10.3203261,14/04/2023,,Eier (Selveier),3531,Krokkleiva
Solengveien 20,4300000,144,,1956.0,Enebolig,https://www.finn.no/realestate/homes/ad.html?finnkode=298542895,29861,59.2466137,10.9951093,14/04/2023,,Eier (Selveier),1661,Rolvsøy
Øvragardsvegen 148,2450000,192,7.0,1969.0,Enebolig,https://www.finn.no/realestate/homes/ad.html?finnkode=298629155,12760,60.5745206,6.9202584,14/04/2023,,Eier (Selveier),5730,Ulvik
Skappels gate 1B,3150000,60,,1957.0,Leilighet,https://www.finn.no/realestate/homes/ad.html?finnkode=298662391,52500,60.7940608,11.0652978,14/04/2023,5.0,Andel,2317,Hamar
Fabriciusgata 8,1725000,56,,2022.0,Leilighet,https://www.finn.no/realestate/homes/ad.html?finnkode=292364025,30803,59.149599,9.657045,14/04/2023,2.0,Andel,3912,Porsgrunn
Andreas Markussons vei 31,4800000,116,4.0,1971.0,Tomannsbolig,https://www.finn.no/realestate/homes/ad.html?finnkode=298535550,41379,67.2760113,14.5039345,14/04/2023,2.0,Eier (Selveier),8019,Bodø
Fürstveien 47C,21900000,209,5.0,2009.0,Tomannsbolig,https://www.finn.no/realestate/homes/ad.html?finnkode=252321047,104784,59.877769,10.6040284,14/04/2023,,Eier (Selveier),1367,Snarøya
Porselensvegen 46,8950000,464,8.0,1776.0,Enebolig,https://www.finn.no/realestate/homes/ad.html?finnkode=298660611,19288,59.1398796,9.6369445,14/04/2023,,Eier (Selveier),3920,Porsgrunn
Boggestranda 444 Eidsvåg i,600000,207,4.0,1957.0,Enebolig,https://www.finn.no/realestate/homes/ad.html?finnkode=298660303,2898,62.739145,8.098894,14/04/2023,,Eier (Selveier),6460,Romsdal
Kvartsvegen 5B,4700000,91,4.0,1994.0,Leilighet,https://www.finn.no/realestate/homes/ad.html?finnkode=298659819,51648,59.9354714,11.0553213,14/04/2023,,Eier (Selveier),2008,Fjerdingby
