address,price,area,rooms,year,type,url,price_per_m2,lat,lon,date,floor,ownership,postal_code,city
Karolinerveien 4 B,2350000,35,2.0,1967.0,Leilighet,https://www.finn.no/realestate/homes/ad.html?finnkode=293223923,67142,63.4102219,10.3596369,09/03/2023,4.0,Andel,7021,Trondheim
Solgårdveien 8,3300000,61,,2013.0,Leilighet,https://www.finn.no/realestate/homes/ad.html?finnkode=294274247,54098,59.98296,11.227618,09/03/2023,2.0,Eier (Selveier),1920,Sørumsand
Storgata 36,3990000,44,,2017.0,Leilighet,https://www.finn.no/realestate/homes/ad.html?finnkode=294273766,90681,59.959039,11.049039,09/03/2023,5.0,Eier (Selveier),2000,Lillestrøm
Sundts veg 95,7800000,90,4.0,2021.0,Leilighet,https://www.finn.no/realestate/homes/ad.html?finnkode=294114183,86666,60.31336,5.332148,09/03/2023,2.0,Eier (Selveier),5221,Nesttun
Øyjordsveien 27,2700000,61,3.0,1966.0,Leilighet,https://www.finn.no/realestate/homes/ad.html?finnkode=294272612,44262,60.4274062,5.30891,09/03/2023,2.0,Andel,5038,Bergen
Strandvegen 100K,4090000,69,3.0,2016.0,Leilighet,https://www.finn.no/realestate/homes/ad.html?finnkode=280667022,59275,69.637514,18.936635,09/03/2023,2.0,Eier (Selveier),9006,Tromsø
Sydneskleiven 31,4190000,53,3.0,1898.0,Leilighet,https://www.finn.no/realestate/homes/ad.html?finnkode=294270681,79056,60.3895092,5.3172725,09/03/2023,4.0,Eier (Selveier),5010,Bergen
Moveien 113A,2350000,77,3.0,2021.0,Leilighet,https://www.finn.no/realestate/homes/ad.html?finnkode=293476011,30519,59.148157,10.193067,09/03/2023,1.0,Andel,3221,Sandefjord
Lervigbrygga 116,3990000,64,2.0,2020.0,Leilighet,https://www.finn.no/realestate/homes/ad.html?finnkode=293962861,62343,58.967553,5.763958,09/03/2023,3.0,Eier (Selveier),4014,Stavanger
Viksenga 24,4750000,144,,2005.0,Enebolig,https://www.finn.no/realestate/homes/ad.html?finnkode=289967993,32986,60.0837285,10.2618988,09/03/2023,,Eier (Selveier),3530,Røyse
Kolleveien 2,4275000,222,8.0,1950.0,Enebolig,https://www.finn.no/realestate/homes/ad.html?finnkode=286965121,19256,59.5838423,11.1424004,09/03/2023,,Eier (Selveier),1832,Askim
Gråtenvegen 25C,2590000,120,4.0,1955.0,Rekkehus,https://www.finn.no/realestate/homes/ad.html?finnkode=294264666,21583,59.1930164,9.6172768,09/03/2023,,Andel,3732,Skien
Gyldenløves gate 42,58000000,296,,1901.0,Leilighet,https://www.finn.no/realestate/homes/ad.html?finnkode=294267548,195945,59.922833,10.708966,09/03/2023,1.0,Eier (Selveier),260,Oslo
Fjellkroken 49D,5350000,134,5.0,1996.0,Enebolig,https://www.finn.no/realestate/homes/ad.html?finnkode=294113246,39925,60.087609,10.995038,09/03/2023,2.0,Eier (Selveier),2022,Gjerdrum
Eliasmarken 17,2500000,67,3.0,1958.0,Leilighet,https://www.finn.no/realestate/homes/ad.html?finnkode=294263446,37313,60.3847642,5.2737383,09/03/2023,1.0,Andel,5164,Laksevåg
Rådhusvegen 12,4090000,86,3.0,2003.0,Leilighet,https://www.finn.no/realestate/homes/ad.html?finnkode=294215370,47558,63.287772,10.281624,09/03/2023,1.0,Eier (Selveier),7224,Melhus
Stølen 7,3650000,184,7.0,1979.0,Enebolig,https://www.finn.no/realestate/homes/ad.html?finnkode=294112130,19836,59.4376961,5.2717468,09/03/2023,,Eier (Selveier),5516,Haugesund
Inga F. Gjerdrums vei 45,7600000,146,5.0,1971.0,Rekkehus,https://www.finn.no/realestate/homes/ad.html?finnkode=288017004,52054,59.872417,10.4780523,09/03/2023,3.0,Eier (Selveier),1396,Billingstad
RUSTABAKKEN 1,1900000,137,,1963.0,Enebolig,https://www.finn.no/realestate/homes/ad.html?finnkode=294098734,13868,61.768567,5.297067,09/03/2023,2.0,Eier (Selveier),6723,Svelgen
Stovner Senter 26,4550000,105,5.0,1975.0,Leilighet,https://www.finn.no/realestate/homes/ad.html?finnkode=294180663,43333,59.96194,10.926285,09/03/2023,4.0,Eier (Selveier),985,Oslo
Prost Aunes veg 4,3890000,194,5.0,1968.0,Enebolig,https://www.finn.no/realestate/homes/ad.html?finnkode=294152320,20051,63.2716888,10.2994571,09/03/2023,,Eier (Selveier),7224,Melhus
Lærums gate 6A,2990000,65,2.0,1950.0,Leilighet,https://www.finn.no/realestate/homes/ad.html?finnkode=294116837,46000,59.733606,10.211399,09/03/2023,2.0,Aksje,3044,Drammen
Austmannavegen 5C,1690000,87,3.0,1967.0,Leilighet,https://www.finn.no/realestate/homes/ad.html?finnkode=294260382,19425,59.3959603,5.2989167,09/03/2023,4.0,Andel,5537,Haugesund
Nedre Sølen 49,3100000,126,5.0,2013.0,Enebolig,https://www.finn.no/realestate/homes/ad.html?finnkode=294259751,24603,59.1510778,9.6740369,09/03/2023,,Andel,3913,Porsgrunn
Urds gate 15,5900000,262,,1909.0,Enebolig,https://www.finn.no/realestate/homes/ad.html?finnkode=294227971,22519,59.4060002,10.4712479,09/03/2023,,Eier (Selveier),3182,Horten
Bredalsmarken 6,3290000,69,3.0,1948.0,Leilighet,https://www.finn.no/realestate/homes/ad.html?finnkode=294258961,47681,60.3870582,5.3170422,09/03/2023,4.0,Andel,5006,Bergen
Fossen 8,1000000,262,,1910.0,Enebolig,https://www.finn.no/realestate/homes/ad.html?finnkode=294258387,3816,64.401481,12.342277,09/03/2023,,Eier (Selveier),7870,Grong
Ole Landmarks vei 52,5200000,108,3.0,1984.0,Leilighet,https://www.finn.no/realestate/homes/ad.html?finnkode=294257898,48148,60.378079,5.344531,09/03/2023,3.0,Eier (Selveier),5053,Bergen
Skuldsveg 7,3990000,283,8.0,1938.0,Enebolig,https://www.finn.no/realestate/homes/ad.html?finnkode=291751604,14098,59.1455759,9.670734,09/03/2023,4.0,Eier (Selveier),3913,Porsgrunn
Storgata 22,1150000,54,2.0,1957.0,Leilighet,https://www.finn.no/realestate/homes/ad.html?finnkode=293970987,21296,63.1091562,7.7305194,09/03/2023,2.0,Andel,6509,Kristiansund N
Ryttersvingene 120A,1790000,57,3.0,2006.0,Leilighet,https://www.finn.no/realestate/homes/ad.html?finnkode=294249806,31403,58.9577253,5.6345105,09/03/2023,1.0,Andel,4046,Hafrsfjord
Nattrutekaien 43,5300000,117,3.0,2003.0,Leilighet,https://www.finn.no/realestate/homes/ad.html?finnkode=294257073,45299,59.7815075,5.5033063,09/03/2023,3.0,Eier (Selveier),5411,Stord
Stensgata 35C,4000000,40,2.0,1902.0,Leilighet,https://www.finn.no/realestate/homes/ad.html?finnkode=294189841,100000,59.932634,10.733307,09/03/2023,3.0,Eier (Selveier),358,Oslo
Saudalen 46,3290000,110,4.0,1971.0,Rekkehus,https://www.finn.no/realestate/homes/ad.html?finnkode=294073422,29909,60.4794555,5.2624337,09/03/2023,1.0,Andel,5124,Morvik
Femsjøveien 5,4575000,234,4.0,1947.0,Enebolig,https://www.finn.no/realestate/homes/ad.html?finnkode=294255773,19551,59.1339569,11.4515597,09/03/2023,,Eier (Selveier),1791,Tistedal
Fossegrenda 27B,2990000,95,,1977.0,Leilighet,https://www.finn.no/realestate/homes/ad.html?finnkode=294255649,31473,63.388355,10.412713,09/03/2023,1.0,Eier (Selveier),7038,Trondheim
Nattlandsveien 111D,5990000,133,6.0,1964.0,Rekkehus,https://www.finn.no/realestate/homes/ad.html?finnkode=294255595,45037,60.3521173,5.3681694,09/03/2023,,Eier (Selveier),5094,Bergen
Vøyensvingen 17,5600000,63,3.0,1955.0,Leilighet,https://www.finn.no/realestate/homes/ad.html?finnkode=293433641,88888,59.931908,10.754225,09/03/2023,2.0,Aksje,458,Oslo
Steinsvikvegen 384,4150000,71,,2012.0,Leilighet,https://www.finn.no/realestate/homes/ad.html?finnkode=294253857,58450,60.297161,5.32143,09/03/2023,1.0,Eier (Selveier),5239,Rådal
Vollane 19 Eidsvåg i,11900000,234,9.0,1966.0,Enebolig,https://www.finn.no/realestate/homes/ad.html?finnkode=294253656,50854,60.440494,5.3141545,09/03/2023,,Eier (Selveier),5105,Åsane
Sanddalskollen 21,3490000,115,3.0,1986.0,Leilighet,https://www.finn.no/realestate/homes/ad.html?finnkode=294252265,30347,60.3265168,5.3700575,09/03/2023,,Andel,5225,Nesttun
C. Sundts gate 66,3990000,71,2.0,1963.0,Leilighet,https://www.finn.no/realestate/homes/ad.html?finnkode=294252031,56197,60.399375,5.308776,09/03/2023,1.0,Andel,5004,Bergen
Sundts veg 9A,4290000,94,4.0,2014.0,Leilighet,https://www.finn.no/realestate/homes/ad.html?finnkode=294251788,45638,60.3179121,5.3435898,09/03/2023,2.0,Eier (Selveier),5221,Nesttun
Sveriges gate 11 B,4000000,46,2.0,1938.0,Leilighet,https://www.finn.no/realestate/homes/ad.html?finnkode=294251466,86956,59.907622,10.791606,09/03/2023,3.0,Eier (Selveier),658,Oslo
Heimdalsgata 8,4490000,44,2.0,2006.0,Leilighet,https://www.finn.no/realestate/homes/ad.html?finnkode=294251190,102045,59.917967,10.762469,09/03/2023,3.0,Andel,561,Oslo
Bjørn Farmanns gate 42,7150000,121,5.0,1965.0,Enebolig,https://www.finn.no/realestate/homes/ad.html?finnkode=293833087,59090,58.9458449,5.6794105,09/03/2023,,Eier (Selveier),4041,Hafrsfjord
Stemmelia 47A,6000000,225,5.0,1967.0,Tomannsbolig,https://www.finn.no/realestate/homes/ad.html?finnkode=294108463,26666,60.3173133,5.3693939,09/03/2023,2.0,Eier (Selveier),5223,Nesttun
Midtunvegen 48C,6700000,128,4.0,2018.0,Tomannsbolig,https://www.finn.no/realestate/homes/ad.html?finnkode=294088438,52343,60.319495,5.356419,09/03/2023,2.0,Eier (Selveier),5224,Nesttun
Listerveien 54E,1950000,59,,1973.0,Leilighet,https://www.finn.no/realestate/homes/ad.html?finnkode=294249975,33050,58.1027719,7.9519008,09/03/2023,2.0,Eier (Selveier),4624,Kristiansand S
Øvre Gokstadvei 25B,3000000,88,3.0,2020.0,Leilighet,https://www.finn.no/realestate/homes/ad.html?finnkode=293326317,34090,59.135664,10.243977,09/03/2023,1.0,Andel,3228,Sandefjord
Vestvang 8,5500000,91,,2016.0,Leilighet,https://www.finn.no/realestate/homes/ad.html?finnkode=294249500,60439,60.0710205,11.033651,09/03/2023,,Eier (Selveier),2022,Gjerdrum
Odelsvegen 10,3950000,70,3.0,2018.0,Leilighet,https://www.finn.no/realestate/homes/ad.html?finnkode=294194498,56428,60.143735,11.159285,09/03/2023,3.0,Eier (Selveier),2063,Jessheim
Skjærvaveien 31,5450000,263,6.0,1983.0,Enebolig,https://www.finn.no/realestate/homes/ad.html?finnkode=243145231,20722,63.1020105,7.7246319,09/03/2023,,Eier (Selveier),6507,Kristiansund N
Gyldenløves gate 17,2450000,43,,1749.0,Leilighet,https://www.finn.no/realestate/homes/ad.html?finnkode=294246966,56976,58.1471096,7.9949977,09/03/2023,2.0,Eier (Selveier),4611,Kristiansand S
Koglehaugen 11,3350000,100,4.0,1984.0,Leilighet,https://www.finn.no/realestate/homes/ad.html?finnkode=294246871,33500,60.6543371,6.4332398,09/03/2023,2.0,Andel,5710,Skulestadmo
Sivert Thonstads vei 31,4490000,76,4.0,2016.0,Leilighet,https://www.finn.no/realestate/homes/ad.html?finnkode=294246264,59078,63.358953,10.3678264,09/03/2023,3.0,Eier (Selveier),7072,Heimdal
Vestre Drotningsvik 68,4800000,119,5.0,1979.0,Enebolig,https://www.finn.no/realestate/homes/ad.html?finnkode=294029827,40336,60.3740789,5.1735172,09/03/2023,1.0,Eier (Selveier),5179,Godvik
Lunden 37,4150000,44,2.0,2019.0,Leilighet,https://www.finn.no/realestate/homes/ad.html?finnkode=294245075,94318,59.938302,10.827088,09/03/2023,3.0,Eier (Selveier),598,Oslo
Haralds gate 2,1750000,57,,1968.0,Leilighet,https://www.finn.no/realestate/homes/ad.html?finnkode=294244830,30701,60.7910245,10.6953483,09/03/2023,5.0,Andel,2815,Gjøvik
Apeltunhaugene 189,5200000,103,4.0,2008.0,Leilighet,https://www.finn.no/realestate/homes/ad.html?finnkode=294206218,50485,60.2899272,5.338687,09/03/2023,2.0,Eier (Selveier),5238,Rådal
Storgata 1A,1660000,61,2.0,2020.0,Leilighet,https://www.finn.no/realestate/homes/ad.html?finnkode=293461090,27213,59.418467,10.484012,09/03/2023,3.0,Andel,3181,Horten
Smedgata 7B,6000000,71,3.0,1893.0,Leilighet,https://www.finn.no/realestate/homes/ad.html?finnkode=294243295,84507,59.912335,10.769861,09/03/2023,2.0,Andel,651,Oslo
Lesten 1,3650000,177,6.0,1989.0,Enebolig,https://www.finn.no/realestate/homes/ad.html?finnkode=294143595,20621,59.3819975,10.4014839,09/03/2023,2.0,Eier (Selveier),3185,Skoppum
Christopher Bruuns gate 11,6300000,234,,1968.0,Enebolig,https://www.finn.no/realestate/homes/ad.html?finnkode=294241850,26923,60.8028671,11.0614522,09/03/2023,,Eier (Selveier),2315,Hamar
Heien 25,2400000,37,2.0,1929.0,Leilighet,https://www.finn.no/realestate/homes/ad.html?finnkode=294192715,64864,60.4093621,5.3285653,09/03/2023,1.0,Eier (Selveier),5037,Bergen
Selma Ellefsens vei 3K,4000000,92,4.0,2021.0,Leilighet,https://www.finn.no/realestate/homes/ad.html?finnkode=294241202,43478,59.925312,10.811369,09/03/2023,4.0,Andel,581,Oslo
Tiriltunga 28,4600000,213,,1987.0,Enebolig,https://www.finn.no/realestate/homes/ad.html?finnkode=294239078,21596,63.121699,7.801136,09/03/2023,,Eier (Selveier),6518,Kristiansund N
Frivoldveien 26,3690000,126,,1984.0,Enebolig,https://www.finn.no/realestate/homes/ad.html?finnkode=294240990,29285,58.4816509,8.7544307,09/03/2023,,Eier (Selveier),4846,Arendal
Brochmanns gate 10C,4600000,53,2.0,1941.0,Leilighet,https://www.finn.no/realestate/homes/ad.html?finnkode=293846177,86792,59.940788,10.763824,09/03/2023,2.0,Andel,470,Oslo
Georg Feydts gate 20,1800000,85,3.0,1976.0,Leilighet,https://www.finn.no/realestate/homes/ad.html?finnkode=294240679,21176,59.12545,11.443756,09/03/2023,,Eier (Selveier),1792,Tistedal
Hjellevegen 19B,4150000,140,,2006.0,Tomannsbolig,https://www.finn.no/realestate/homes/ad.html?finnkode=294240277,29642,60.2012419,5.4860781,09/03/2023,,Eier (Selveier),5211,Os
Kongens gate 41,3150000,67,3.0,2006.0,Leilighet,https://www.finn.no/realestate/homes/ad.html?finnkode=294224774,47014,67.284171,14.390681,09/03/2023,5.0,Andel,8006,Bodø
Solbakken 56 A,1890000,116,4.0,1968.0,Rekkehus,https://www.finn.no/realestate/homes/ad.html?finnkode=294239732,16293,62.7450146,7.1884967,09/03/2023,1.0,Andel,6429,Molde
Svoldergata 22,4290000,190,,2010.0,Leilighet,https://www.finn.no/realestate/homes/ad.html?finnkode=294218293,22578,59.42457,5.2688523,09/03/2023,,Eier (Selveier),5518,Haugesund
Saudalen 26,3490000,104,,1973.0,Rekkehus,https://www.finn.no/realestate/homes/ad.html?finnkode=294239340,33557,60.4796386,5.2606461,09/03/2023,,Andel,5124,Morvik
Tulipanvegen 38,3850000,203,4.0,1972.0,Enebolig,https://www.finn.no/realestate/homes/ad.html?finnkode=293968036,18965,60.1410389,11.0435522,09/03/2023,2.0,Eier (Selveier),2034,Holter
Biermanns gate 12A,4650000,63,2.0,1895.0,Leilighet,https://www.finn.no/realestate/homes/ad.html?finnkode=286612935,73809,59.93051,10.762043,09/03/2023,1.0,Andel,473,Oslo
Ratvikvegen 19A,3990000,93,,2012.0,Tomannsbolig,https://www.finn.no/realestate/homes/ad.html?finnkode=294237990,42903,62.4637987,6.260645,09/03/2023,,Eier (Selveier),6015,Ålesund
Brekkefaret 24A,5100000,215,,1971.0,Enebolig,https://www.finn.no/realestate/homes/ad.html?finnkode=294237761,23720,59.2267978,10.8960176,09/03/2023,,Eier (Selveier),1624,Gressvik
Eikeveien 16B,4090000,126,4.0,1980.0,Tomannsbolig,https://www.finn.no/realestate/homes/ad.html?finnkode=294237608,32460,58.875534,5.736749,09/03/2023,1.0,Eier (Selveier),4315,Sandnes
Viromdalsvegen 17,1490000,275,6.0,1958.0,Enebolig,https://www.finn.no/realestate/homes/ad.html?finnkode=294235018,5418,62.7599981,8.5426956,09/03/2023,,Eier (Selveier),6620,Ålvundeid
Øvre Liavei 2,4300000,136,6.0,2014.0,Enebolig,https://www.finn.no/realestate/homes/ad.html?finnkode=271292518,31617,59.5019249,10.2520258,09/03/2023,,Eier (Selveier),3089,Holmestrand
K.M. Nordangers vei 22,9800000,102,,2007.0,Leilighet,https://www.finn.no/realestate/homes/ad.html?finnkode=294236646,96078,59.9592904,11.0305033,09/03/2023,1.0,Eier (Selveier),2003,Lillestrøm
Sukkestølveien 5,3790000,157,,1972.0,Enebolig,https://www.finn.no/realestate/homes/ad.html?finnkode=294234994,24140,58.1437648,8.105254,09/03/2023,,Eier (Selveier),4639,Kristiansand S
Steinrøysa 47,4300000,175,,1983.0,Enebolig,https://www.finn.no/realestate/homes/ad.html?finnkode=294004772,24571,59.233233,11.004676,09/03/2023,,Eier (Selveier),1658,Torp
Skjæret 16D,3350000,141,5.0,1972.0,Rekkehus,https://www.finn.no/realestate/homes/ad.html?finnkode=294233715,23758,61.4565028,5.8274514,09/03/2023,,Andel,6800,Førde
Møllnveien 11F,4900000,116,,2016.0,Leilighet,https://www.finn.no/realestate/homes/ad.html?finnkode=294120153,42241,67.258426,15.362619,09/03/2023,2.0,Eier (Selveier),8206,Fauske
Pedersgata 130,1175000,57,3.0,2018.0,Leilighet,https://www.finn.no/realestate/homes/ad.html?finnkode=294094419,20614,58.971325,5.752241,09/03/2023,1.0,Andel,4014,Stavanger
Bergsmeierivegen 360 Nes på,2690000,112,,1980.0,Enebolig,https://www.finn.no/realestate/homes/ad.html?finnkode=277725557,24017,60.790626,10.903953,09/03/2023,,Eier (Selveier),2350,Hedmarken
Heggelivegen 19G,1490000,47,,1971.0,Leilighet,https://www.finn.no/realestate/homes/ad.html?finnkode=294232322,31702,64.024579,11.49156,09/03/2023,,Eier (Selveier),7725,Steinkjer
Nedre Toppenhaug 96 Bærums,8300000,153,5.0,1987.0,Tomannsbolig,https://www.finn.no/realestate/homes/ad.html?finnkode=293472117,54248,59.939787,10.507936,09/03/2023,2.0,Eier (Selveier),1353,Verk
Fossekallveien 9D,3390000,142,,1978.0,Rekkehus,https://www.finn.no/realestate/homes/ad.html?finnkode=294232313,23873,59.1159444,10.2085507,09/03/2023,,Andel,3212,Sandefjord
Idretten 24,3950000,74,3.0,2015.0,Leilighet,https://www.finn.no/realestate/homes/ad.html?finnkode=294183320,53378,60.148567,11.165261,09/03/2023,1.0,Eier (Selveier),2068,Jessheim
Gamle Skuleveg 1 Åsnes,1100000,91,,1975.0,Enebolig,https://www.finn.no/realestate/homes/ad.html?finnkode=294231720,12087,60.6688109,12.2090951,09/03/2023,,Eier (Selveier),2283,Finnskog
Kleiverudveien 33,2690000,108,4.0,1980.0,Rekkehus,https://www.finn.no/realestate/homes/ad.html?finnkode=294222530,24907,59.507536,10.2863972,09/03/2023,2.0,Andel,3086,Holmestrand
Mustapartajordet 12D,2900000,68,3.0,2019.0,Leilighet,https://www.finn.no/realestate/homes/ad.html?finnkode=294231114,42647,68.816473,16.506739,09/03/2023,1.0,Eier (Selveier),9403,Harstad
Stasjonsvegen 50 Våler i,2550000,208,,1910.0,Enebolig,https://www.finn.no/realestate/homes/ad.html?finnkode=294230604,12259,60.6769264,11.8353798,09/03/2023,,Eier (Selveier),2436,Solør
Revesandveien 391d,9250000,170,5.0,2019.0,Leilighet,https://www.finn.no/realestate/homes/ad.html?finnkode=294230423,54411,58.446392,8.786767,09/03/2023,1.0,Eier (Selveier),4818,Færvik
Bruvegen 26,2490000,96,,1971.0,Enebolig,https://www.finn.no/realestate/homes/ad.html?finnkode=294230270,25937,60.902118,11.5693266,09/03/2023,,Eier (Selveier),2409,Elverum
Lade alle 96,4250000,54,3.0,2022.0,Leilighet,https://www.finn.no/realestate/homes/ad.html?finnkode=294229905,78703,63.438819,10.467169,09/03/2023,2.0,Eier (Selveier),7041,Trondheim
Baklivegen 92A,3600000,229,5.0,1989.0,Enebolig,https://www.finn.no/realestate/homes/ad.html?finnkode=294085359,15720,61.1524162,10.374766,09/03/2023,2.0,Eier (Selveier),2625,Fåberg
Thornegata 3,3100000,56,2.0,1945.0,Leilighet,https://www.finn.no/realestate/homes/ad.html?finnkode=294085485,55357,59.745314,10.207819,09/03/2023,2.0,Eier (Selveier),3015,Drammen
Lineveien 3,4200000,124,6.0,1993.0,Enebolig,https://www.finn.no/realestate/homes/ad.html?finnkode=294229137,33870,69.987739,23.2898113,09/03/2023,2.0,Eier (Selveier),9515,Alta
Trondheimsveien 145,3950000,51,,1939.0,Leilighet,https://www.finn.no/realestate/homes/ad.html?finnkode=292899191,77450,59.930252,10.7786,09/03/2023,2.0,Eier (Selveier),570,Oslo
Josefinegata 6D,2600000,69,,1988.0,Leilighet,https://www.finn.no/realestate/homes/ad.html?finnkode=294228920,37681,59.0524663,10.0303782,09/03/2023,2.0,Andel,3256,Larvik
Roald Amundsens vei 10,6090000,155,6.0,1937.0,Enebolig,https://www.finn.no/realestate/homes/ad.html?finnkode=280239745,39290,58.9455073,5.7421244,09/03/2023,3.0,Eier (Selveier),4016,Stavanger
Brunlaløkka 54,3250000,76,,2020.0,Leilighet,https://www.finn.no/realestate/homes/ad.html?finnkode=294228732,42763,59.012047,10.004803,09/03/2023,1.0,Eier (Selveier),3292,Stavern
Tangen 42,2690000,60,,2008.0,Leilighet,https://www.finn.no/realestate/homes/ad.html?finnkode=294228649,44833,58.146867,8.0093968,09/03/2023,3.0,Andel,4608,Kristiansand S
Klubben 3,2690000,112,4.0,1978.0,Rekkehus,https://www.finn.no/realestate/homes/ad.html?finnkode=294228561,24017,60.5470228,5.2905113,09/03/2023,,Andel,5914,Isdalstø
Ervikveien 47 Øvre,2490000,45,,2003.0,Leilighet,https://www.finn.no/realestate/homes/ad.html?finnkode=294228478,55333,60.442369,5.324439,09/03/2023,2.0,Eier (Selveier),5106,Ervik
Mølleroddveien 7,6300000,149,5.0,1904.0,Enebolig,https://www.finn.no/realestate/homes/ad.html?finnkode=293995440,42281,59.1931643,10.9435975,09/03/2023,,Eier (Selveier),1673,Kråkerøy
Nygata 6,1650000,43,,2008.0,Leilighet,https://www.finn.no/realestate/homes/ad.html?finnkode=294228110,38372,58.149344,7.9912328,09/03/2023,2.0,Andel,4612,Kristiansand S
Fagernes 15,2250000,68,3.0,1951.0,Leilighet,https://www.finn.no/realestate/homes/ad.html?finnkode=294227874,33088,60.4224826,5.2976696,09/03/2023,2.0,Aksje,5043,Bergen
Olavs gate 12A,2950000,114,4.0,1958.0,Rekkehus,https://www.finn.no/realestate/homes/ad.html?finnkode=294104172,25877,59.4079954,10.4663485,09/03/2023,2.0,Andel,3188,Horten
Hervikvegen 25,2990000,177,8.0,1958.0,Enebolig,https://www.finn.no/realestate/homes/ad.html?finnkode=294227402,16892,59.4193876,5.2875907,09/03/2023,,Eier (Selveier),5521,Haugesund
Breilia 33,2390000,157,5.0,1950.0,Enebolig,https://www.finn.no/realestate/homes/ad.html?finnkode=289236265,15222,70.6653191,23.7075191,09/03/2023,,Eier (Selveier),9603,Hammerfest
Bethelveien 11F,2450000,76,3.0,1995.0,Leilighet,https://www.finn.no/realestate/homes/ad.html?finnkode=294222642,32236,58.7653075,5.8524455,09/03/2023,2.0,Eier (Selveier),4330,Ålgård
Senjavegen 41 C,7990000,117,5.0,2022.0,Tomannsbolig,https://www.finn.no/realestate/homes/ad.html?finnkode=287066850,68290,69.6446858,18.9214746,09/03/2023,,Eier (Selveier),9012,Tromsø
Øvre Hovsbakkan 12,2990000,187,,1980.0,Enebolig,https://www.finn.no/realestate/homes/ad.html?finnkode=294183042,15989,63.3060524,9.8593311,09/03/2023,,Eier (Selveier),7300,Orkanger
Fossumsvingen 149,3750000,70,,2021.0,Leilighet,https://www.finn.no/realestate/homes/ad.html?finnkode=294226986,53571,59.982077,11.258503,09/03/2023,2.0,Eier (Selveier),1920,Sørumsand
Adalsveien 16C,3000000,111,4.0,1980.0,Rekkehus,https://www.finn.no/realestate/homes/ad.html?finnkode=294186396,27027,59.3820058,10.4138596,09/03/2023,1.0,Andel,3185,Skoppum
Døliringen 39,2900000,33,2.0,2021.0,Leilighet,https://www.finn.no/realestate/homes/ad.html?finnkode=294198079,87878,60.139364,11.159772,09/03/2023,6.0,Eier (Selveier),2050,Jessheim
Grønlandsleiret 61C,7500000,83,4.0,2015.0,Leilighet,https://www.finn.no/realestate/homes/ad.html?finnkode=292455491,90361,59.909614,10.768086,09/03/2023,4.0,Eier (Selveier),190,Oslo
Heggeveien 17C,2690000,80,2.0,1969.0,Leilighet,https://www.finn.no/realestate/homes/ad.html?finnkode=294226729,33625,60.0020145,10.9283099,09/03/2023,,Andel,1481,Hagan
Nygårdsvegen 91,11990000,299,,2008.0,Enebolig,https://www.finn.no/realestate/homes/ad.html?finnkode=273962606,40100,60.3539074,5.1560726,09/03/2023,,Eier (Selveier),5350,Brattholmen
Middelthuns gate 21A,5190000,57,2.0,2000.0,Leilighet,https://www.finn.no/realestate/homes/ad.html?finnkode=294226112,91052,59.928222,10.710728,09/03/2023,2.0,Eier (Selveier),368,Oslo
Colletts gate 14,3800000,47,2.0,1927.0,Leilighet,https://www.finn.no/realestate/homes/ad.html?finnkode=291921803,80851,59.925887,10.737482,09/03/2023,1.0,Aksje,169,Oslo
Stornesvika 9,4900000,205,5.0,1987.0,Enebolig,https://www.finn.no/realestate/homes/ad.html?finnkode=294225960,23902,60.7540771,5.0652945,09/03/2023,3.0,Eier (Selveier),5955,Lindås
Hans Bulows gate 2,4190000,214,,1970.0,Enebolig,https://www.finn.no/realestate/homes/ad.html?finnkode=291416677,19579,59.1957781,9.6313151,09/03/2023,,Eier (Selveier),3746,Skien
Ådnavegen 25K Indre,4500000,68,4.0,2011.0,Leilighet,https://www.finn.no/realestate/homes/ad.html?finnkode=294225606,66176,60.4245561,5.4683609,09/03/2023,1.0,Eier (Selveier),5260,Arna
Storgata 40,3790000,59,3.0,1959.0,Leilighet,https://www.finn.no/realestate/homes/ad.html?finnkode=271200095,64237,59.6590606,10.6306089,09/03/2023,3.0,Aksje,1440,Drøbak
Knud Øyens vei 13B,4000000,71,3.0,1950.0,Leilighet,https://www.finn.no/realestate/homes/ad.html?finnkode=294164666,56338,59.850369,10.797168,09/03/2023,2.0,Eier (Selveier),1166,Oslo
Mogreinavegen 400,2850000,249,,1969.0,Enebolig,https://www.finn.no/realestate/homes/ad.html?finnkode=294225277,11445,60.225461,11.1464084,09/03/2023,,Eier (Selveier),2054,Mogreina
Møinichens gate 11,2580000,65,3.0,1954.0,Leilighet,https://www.finn.no/realestate/homes/ad.html?finnkode=293998558,39692,61.1049278,10.4718159,09/03/2023,2.0,Andel,2613,Lillehammer
Eikelikollen 7 C Sande i,1990000,54,2.0,1971.0,Leilighet,https://www.finn.no/realestate/homes/ad.html?finnkode=294205757,36851,59.5853578,10.2273392,09/03/2023,1.0,Eier (Selveier),3072,Vestfold
Dokmoveien 3,3800000,213,,2010.0,Enebolig,https://www.finn.no/realestate/homes/ad.html?finnkode=294216515,17840,66.0091073,12.6264776,09/03/2023,1.0,Eier (Selveier),8803,Sandnessjøen
Plommeveien 12,3990000,145,,1982.0,Enebolig,https://www.finn.no/realestate/homes/ad.html?finnkode=294224354,27517,58.1711209,8.0971046,09/03/2023,,Eier (Selveier),4635,Kristiansand S
Kongsvingervegen,2400000,166,4.0,1950.0,Enebolig,https://www.finn.no/realestate/homes/ad.html?finnkode=294224217,14457,60.1276485,11.3157926,09/03/2023,,Eier (Selveier),1344,Hvam
Hardangervegen 7,2000000,58,2.0,1999.0,Leilighet,https://www.finn.no/realestate/homes/ad.html?finnkode=294223970,34482,60.6289442,6.4310165,09/03/2023,3.0,Andel,5705,Voss
Bergfrueveien 14A,3150000,109,3.0,1973.0,Leilighet,https://www.finn.no/realestate/homes/ad.html?finnkode=293987667,28899,59.2592884,11.0009592,09/03/2023,1.0,Andel,1663,Rolvsøy
Ambolten 5,7350000,304,,1981.0,Enebolig,https://www.finn.no/realestate/homes/ad.html?finnkode=273229990,24177,59.7260391,10.142783,09/03/2023,3.0,Eier (Selveier),3031,Drammen
Elgeseter gate 58A,2990000,61,,1953.0,Leilighet,https://www.finn.no/realestate/homes/ad.html?finnkode=293994363,49016,63.4150309,10.3976062,09/03/2023,6.0,Aksje,7030,Trondheim
Huk aveny 46A,35000000,234,7.0,1930.0,Enebolig,https://www.finn.no/realestate/homes/ad.html?finnkode=294087379,149572,59.9027,10.684008,09/03/2023,3.0,Eier (Selveier),287,Oslo
Sjursvikveien 1 A,750000,68,,2007.0,Leilighet,https://www.finn.no/realestate/homes/ad.html?finnkode=294103425,11029,63.107484,7.742399,09/03/2023,3.0,Andel,6507,Kristiansund N
Aagaards plass 5,3200000,57,,2021.0,Leilighet,https://www.finn.no/realestate/homes/ad.html?finnkode=272382833,56140,59.131558,10.2190292,09/03/2023,4.0,Eier (Selveier),3211,Sandefjord
Skovveien 39 B,19500000,130,4.0,1906.0,Leilighet,https://www.finn.no/realestate/homes/ad.html?finnkode=294222544,150000,59.920803,10.720472,09/03/2023,4.0,Eier (Selveier),258,Oslo
Kløvervegen 22,4890000,145,5.0,2013.0,Enebolig,https://www.finn.no/realestate/homes/ad.html?finnkode=294112062,33724,58.7268756,5.6437713,09/03/2023,,Eier (Selveier),4340,Bryne
Tollbugata 34,2990000,59,2.0,1968.0,Leilighet,https://www.finn.no/realestate/homes/ad.html?finnkode=293355585,50677,59.737306,10.204595,09/03/2023,6.0,Andel,3044,Drammen
Rostengrenda 39,4450000,157,5.0,1979.0,Rekkehus,https://www.finn.no/realestate/homes/ad.html?finnkode=286171731,28343,63.3647434,10.3833341,09/03/2023,1.0,Andel,7091,Tiller
Hellåsen 35 Bø i,2900000,132,,1982.0,Enebolig,https://www.finn.no/realestate/homes/ad.html?finnkode=294220508,21969,59.4444562,9.0772395,09/03/2023,,Eier (Selveier),3804,Telemark
Kapellvegen 13,3750000,173,3.0,1959.0,Enebolig,https://www.finn.no/realestate/homes/ad.html?finnkode=293972407,21676,59.280718,5.3142967,09/03/2023,,Eier (Selveier),4250,Kopervik
Holtegata 16A,5950000,58,,1892.0,Leilighet,https://www.finn.no/realestate/homes/ad.html?finnkode=293122772,102586,59.922253,10.720166,09/03/2023,3.0,Eier (Selveier),259,Oslo
Værlebakken 18,7500000,120,3.0,1976.0,Leilighet,https://www.finn.no/realestate/homes/ad.html?finnkode=294199955,62500,59.4143308,10.6581822,09/03/2023,-1.0,Eier (Selveier),1525,Moss
Kroken 2,4500000,159,6.0,1976.0,Enebolig,https://www.finn.no/realestate/homes/ad.html?finnkode=294089487,28301,63.1434677,10.2859388,09/03/2023,,Eier (Selveier),7232,Lundamo
Markaneset 28,3100000,76,3.0,1952.0,Leilighet,https://www.finn.no/realestate/homes/ad.html?finnkode=272403764,40789,60.3148349,5.2882401,09/03/2023,1.0,Eier (Selveier),5251,Søreidgrend
Fløytarvegen 6,1800000,97,,2020.0,Leilighet,https://www.finn.no/realestate/homes/ad.html?finnkode=272388559,18556,63.789314,11.480986,09/03/2023,1.0,Andel,7650,Verdal
Oksval terrasse 12A,6500000,108,,1969.0,Rekkehus,https://www.finn.no/realestate/homes/ad.html?finnkode=293835123,60185,59.8571633,10.6685823,09/03/2023,2.0,Eier (Selveier),1456,Nesoddtangen
Nedre vei 7F,2890000,89,,1851.0,Leilighet,https://www.finn.no/realestate/homes/ad.html?finnkode=294218911,32471,59.4250768,10.4902669,09/03/2023,1.0,Andel,3183,Horten
Steinhagen 65,2745000,81,3.0,2007.0,Leilighet,https://www.finn.no/realestate/homes/ad.html?finnkode=276813528,33888,59.011616,6.055019,09/03/2023,3.0,Eier (Selveier),4100,Jørpeland
Tidemands gate 17,3750000,79,3.0,1976.0,Leilighet,https://www.finn.no/realestate/homes/ad.html?finnkode=294218593,47468,60.3989723,5.3071551,09/03/2023,1.0,Andel,5005,Bergen
Gaupevegen 66A,2690000,69,3.0,2018.0,Leilighet,https://www.finn.no/realestate/homes/ad.html?finnkode=294104195,38985,59.03159,6.031348,09/03/2023,1.0,Eier (Selveier),4103,Jørpeland
Hauglandsvegen 25,6490000,236,,1960.0,Enebolig,https://www.finn.no/realestate/homes/ad.html?finnkode=294217824,27500,60.105036,5.21824,09/03/2023,,Eier (Selveier),5392,Storebø
Vipevegen 1,2800000,213,,1959.0,Enebolig,https://www.finn.no/realestate/homes/ad.html?finnkode=293953878,13145,59.4098959,5.2939386,09/03/2023,,Eier (Selveier),5532,Haugesund
Kaldslettneset 49,3030000,58,3.0,2019.0,Leilighet,https://www.finn.no/realestate/homes/ad.html?finnkode=288789628,52241,69.597646,18.936922,09/03/2023,1.0,Eier (Selveier),9020,Tromsdalen
Skiparviklia 15,2590000,44,2.0,2021.0,Leilighet,https://www.finn.no/realestate/homes/ad.html?finnkode=294138573,58863,60.318032,5.334273,09/03/2023,,Eier (Selveier),5221,Nesttun
Øvre Skalstadvei 34,6690000,458,5.0,2001.0,Enebolig,https://www.finn.no/realestate/homes/ad.html?finnkode=253073992,14606,59.9085877,9.9461962,09/03/2023,2.0,Eier (Selveier),3340,Åmot
Myrringen 7,6750000,198,,2016.0,Enebolig,https://www.finn.no/realestate/homes/ad.html?finnkode=277875419,34090,60.1445173,11.195805,09/03/2023,,Eier (Selveier),2052,Jessheim
Holta 11,12900000,444,,1990.0,Enebolig,https://www.finn.no/realestate/homes/ad.html?finnkode=264290290,29054,58.0808686,8.0075,09/03/2023,,Eier (Selveier),4625,Flekkerøy
Torggata 22D,1150000,73,,2005.0,Leilighet,https://www.finn.no/realestate/homes/ad.html?finnkode=294216360,15753,59.1100309,9.6457852,09/03/2023,2.0,Andel,3936,Porsgrunn
Paal Bergs vei 131B,4700000,65,3.0,2020.0,Leilighet,https://www.finn.no/realestate/homes/ad.html?finnkode=275073155,72307,59.934503,10.474511,09/03/2023,2.0,Eier (Selveier),1349,Rykkinn
Skoghusveien 30,3590000,80,3.0,1994.0,Leilighet,https://www.finn.no/realestate/homes/ad.html?finnkode=271335372,44875,59.72502,10.862273,09/03/2023,1.0,Andel,1400,Ski
C. Sundts gate 56,3390000,52,2.0,1961.0,Leilighet,https://www.finn.no/realestate/homes/ad.html?finnkode=288370479,65192,60.3981054,5.3112143,09/03/2023,6.0,Eier (Selveier),5004,Bergen
Håkon Herdebreis veg 4,3150000,86,3.0,1966.0,Leilighet,https://www.finn.no/realestate/homes/ad.html?finnkode=293110538,36627,63.423162,10.44358,09/03/2023,6.0,Andel,7046,Trondheim
Bukkene Bruses veg 24,2000000,80,3.0,1984.0,Leilighet,https://www.finn.no/realestate/homes/ad.html?finnkode=293998577,25000,60.2068675,11.9803433,09/03/2023,3.0,Andel,2212,Kongsvinger
Nedre Møllenberg gate 72A,4490000,88,,1891.0,Leilighet,https://www.finn.no/realestate/homes/ad.html?finnkode=294214692,51022,63.4299062,10.4073425,09/03/2023,2.0,Andel,7014,Trondheim
Jevnakervegen 731,3090000,113,,1923.0,Enebolig,https://www.finn.no/realestate/homes/ad.html?finnkode=294213650,27345,60.7904358,10.1437573,09/03/2023,,Eier (Selveier),2870,Dokka
Høivold brygge 14,13500000,193,,1990.0,Leilighet,https://www.finn.no/realestate/homes/ad.html?finnkode=216903488,69948,58.1480697,8.0129097,09/03/2023,,Eier (Selveier),4631,Kristiansand S
Skogveien 49,7190000,198,7.0,1995.0,Enebolig,https://www.finn.no/realestate/homes/ad.html?finnkode=284534997,36313,60.0640185,10.8670832,09/03/2023,,Eier (Selveier),1482,Nittedal
Foldvikskogen 11A,4350000,169,,2018.0,Tomannsbolig,https://www.finn.no/realestate/homes/ad.html?finnkode=294212956,25739,59.00226,9.980075,09/03/2023,,Eier (Selveier),3294,Stavern
Sagbruksveien 30A,3450000,105,5.0,2013.0,Leilighet,https://www.finn.no/realestate/homes/ad.html?finnkode=294212459,32857,59.6767598,9.6375759,09/03/2023,2.0,Eier (Selveier),3617,Kongsberg
Hemsbakken 18 B,5950000,140,,2023.0,Enebolig,https://www.finn.no/realestate/homes/ad.html?finnkode=293290200,42500,59.149635,10.182539,09/03/2023,2.0,Eier (Selveier),3242,Sandefjord
Apeltunhaugene 147,5990000,144,4.0,2005.0,Enebolig,https://www.finn.no/realestate/homes/ad.html?finnkode=293663237,41597,60.2921431,5.3378593,09/03/2023,2.0,Eier (Selveier),5238,Rådal
Frankendalsveien 47,4190000,123,4.0,2009.0,Tomannsbolig,https://www.finn.no/realestate/homes/ad.html?finnkode=294094405,34065,59.0578092,10.0450795,09/03/2023,,Eier (Selveier),3258,Larvik
Nils Paulsens veg 31F,2590000,56,,2004.0,Leilighet,https://www.finn.no/realestate/homes/ad.html?finnkode=294212280,46250,60.2556186,11.1987729,09/03/2023,2.0,Eier (Selveier),2072,Dal
Skiparviklia 24,2890000,45,2.0,2021.0,Leilighet,https://www.finn.no/realestate/homes/ad.html?finnkode=294211959,64222,60.31726,5.334541,09/03/2023,1.0,Eier (Selveier),5221,Nesttun
Skogholtet 18,2590000,68,,1972.0,Leilighet,https://www.finn.no/realestate/homes/ad.html?finnkode=294066499,38088,59.2780592,11.0605088,09/03/2023,3.0,Andel,1715,Yven
Egsveien 7,5750000,118,4.0,2013.0,Leilighet,https://www.finn.no/realestate/homes/ad.html?finnkode=294100005,48728,58.1534304,7.9962046,09/03/2023,3.0,Eier (Selveier),4615,Kristiansand S
Høienhaldgata 5,5490000,104,,1997.0,Leilighet,https://www.finn.no/realestate/homes/ad.html?finnkode=262316948,52788,59.432682,10.662887,09/03/2023,2.0,Eier (Selveier),1532,Moss
Hokkåsveien 19A,2490000,59,2.0,1992.0,Leilighet,https://www.finn.no/realestate/homes/ad.html?finnkode=294131463,42203,67.2922496,14.573357,09/03/2023,2.0,Andel,8028,Bodø
Vestbygdvegen 102,1350000,217,,1962.0,Enebolig,https://www.finn.no/realestate/homes/ad.html?finnkode=294209572,6221,60.8199579,9.5462124,09/03/2023,,Eier (Selveier),2930,Bagn
Nedre Møllenberg gate 54B,2750000,44,2.0,1890.0,Leilighet,https://www.finn.no/realestate/homes/ad.html?finnkode=293947902,62500,63.432718,10.413516,09/03/2023,3.0,Eier (Selveier),7014,Trondheim
Arnulf Øverlands vei 246,8900000,123,,1983.0,Rekkehus,https://www.finn.no/realestate/homes/ad.html?finnkode=294208768,72357,59.975556,10.64626,09/03/2023,,Eier (Selveier),763,Oslo
Postvegen 12A,1750000,169,4.0,1957.0,Tomannsbolig,https://www.finn.no/realestate/homes/ad.html?finnkode=294180580,10355,60.5962477,5.8215773,09/03/2023,,Eier (Selveier),5722,Dalekvam
Einar Østvedts gate 13A,2290000,67,,1995.0,Leilighet,https://www.finn.no/realestate/homes/ad.html?finnkode=294208792,34179,59.205527,9.6037389,09/03/2023,1.0,Eier (Selveier),3724,Skien
Solbyveien 28,4500000,275,,1974.0,Enebolig,https://www.finn.no/realestate/homes/ad.html?finnkode=293986891,16363,59.3757236,10.3646694,09/03/2023,,Eier (Selveier),3176,Undrumsdal
Øvre Langgate 8,3500000,71,3.0,1983.0,Leilighet,https://www.finn.no/realestate/homes/ad.html?finnkode=290462928,49295,59.2656891,10.4129307,09/03/2023,3.0,Eier (Selveier),3110,Tønsberg
Høybråtenveien 7A,4000000,109,4.0,1977.0,Leilighet,https://www.finn.no/realestate/homes/ad.html?finnkode=294081456,36697,59.946163,10.90315,09/03/2023,1.0,Andel,1055,Oslo
Ole Martinussens vei 25,3400000,119,5.0,1960.0,Rekkehus,https://www.finn.no/realestate/homes/ad.html?finnkode=280267046,28571,68.445376,17.418254,09/03/2023,2.0,Eier (Selveier),8516,Narvik
Ladebekken 13,5990000,72,3.0,2022.0,Leilighet,https://www.finn.no/realestate/homes/ad.html?finnkode=281069803,83194,63.442754,10.44136,09/03/2023,7.0,Eier (Selveier),7066,Trondheim
Saltnesbjørka 1,6200000,214,,1990.0,Enebolig,https://www.finn.no/realestate/homes/ad.html?finnkode=292985615,28971,59.2962889,10.7614839,09/03/2023,,Eier (Selveier),1642,Saltnes
Thora Holms gate 11,2300000,63,3.0,1952.0,Tomannsbolig,https://www.finn.no/realestate/homes/ad.html?finnkode=292726526,36507,59.4067443,10.4682324,09/03/2023,2.0,Eier (Selveier),3188,Horten
Rådhusgata 54,2490000,58,,1982.0,Leilighet,https://www.finn.no/realestate/homes/ad.html?finnkode=294206299,42931,58.1485347,8.0000856,09/03/2023,1.0,Andel,4614,Kristiansand S
Uelands gate 16,4265000,42,,1938.0,Leilighet,https://www.finn.no/realestate/homes/ad.html?finnkode=292972992,101547,59.926281,10.749813,09/03/2023,5.0,Eier (Selveier),175,Oslo
Fagernes 19,3200000,67,3.0,1952.0,Leilighet,https://www.finn.no/realestate/homes/ad.html?finnkode=294116965,47761,60.421692,5.2976695,09/03/2023,8.0,Aksje,5043,Bergen
Gregorius Dagssons gate 204B,1950000,65,,1957.0,Leilighet,https://www.finn.no/realestate/homes/ad.html?finnkode=294205267,30000,59.1726049,9.6483459,09/03/2023,1.0,Andel,3712,Skien
Thereses gate 47B,7800000,72,3.0,1896.0,Leilighet,https://www.finn.no/realestate/homes/ad.html?finnkode=285269250,108333,59.926398,10.730745,09/03/2023,2.0,Eier (Selveier),354,Oslo
Paul Holmsens vei 50,2590000,67,3.0,1951.0,Tomannsbolig,https://www.finn.no/realestate/homes/ad.html?finnkode=288801299,38656,59.23008,10.934247,09/03/2023,2.0,Eier (Selveier),1613,Fredrikstad
Beverveien 12,2900000,29,1.0,1956.0,Leilighet,https://www.finn.no/realestate/homes/ad.html?finnkode=294097649,100000,59.943457,10.848374,09/03/2023,1.0,Andel,596,Oslo
Valhallaveien 60B,5030000,96,,1962.0,Rekkehus,https://www.finn.no/realestate/homes/ad.html?finnkode=290326358,52395,59.811304,10.817606,09/03/2023,,Eier (Selveier),1412,Sofiemyr
Apeltunvegen 2F,6750000,104,3.0,2022.0,Leilighet,https://www.finn.no/realestate/homes/ad.html?finnkode=293989601,64903,60.311555,5.355364,09/03/2023,4.0,Eier (Selveier),5222,Nesttun
Glassverkvegen 27 C,2090000,78,3.0,1984.0,Leilighet,https://www.finn.no/realestate/homes/ad.html?finnkode=294203294,26794,60.4394737,11.0571254,09/03/2023,1.0,Eier (Selveier),2090,Hurdal
Ospeveien 10,2990000,105,3.0,2002.0,Tomannsbolig,https://www.finn.no/realestate/homes/ad.html?finnkode=294203278,28476,59.2979575,10.1932786,09/03/2023,1.0,Eier (Selveier),3158,Andebu
Verven 2A,2190000,33,1.0,2003.0,Leilighet,https://www.finn.no/realestate/homes/ad.html?finnkode=294084258,66363,58.971525,5.74741,09/03/2023,4.0,Eier (Selveier),4014,Stavanger
Eidsvågveien 72,6490000,189,5.0,1961.0,Enebolig,https://www.finn.no/realestate/homes/ad.html?finnkode=293221566,34338,60.4431438,5.2927143,09/03/2023,2.0,Eier (Selveier),5101,Eidsvågneset
Wessels gate 2A,5950000,62,3.0,1870.0,Leilighet,https://www.finn.no/realestate/homes/ad.html?finnkode=291675154,95967,59.919795,10.743174,09/03/2023,2.0,Eier (Selveier),165,Oslo
Sævollen 6,2790000,206,6.0,1946.0,Enebolig,https://www.finn.no/realestate/homes/ad.html?finnkode=294202681,13543,62.4556337,6.1036146,09/03/2023,,Eier (Selveier),6006,Ålesund
Almeveien 32,4950000,165,,1969.0,Enebolig,https://www.finn.no/realestate/homes/ad.html?finnkode=294202621,30000,59.2802035,10.4432464,09/03/2023,,Eier (Selveier),3118,Tønsberg
Østre Strandgate 3,6500000,104,3.0,1971.0,Leilighet,https://www.finn.no/realestate/homes/ad.html?finnkode=292988669,62500,58.1429886,7.9967484,09/03/2023,4.0,Eier (Selveier),4610,Kristiansand S
Skomagergada 4D,1820000,43,,1988.0,Leilighet,https://www.finn.no/realestate/homes/ad.html?finnkode=294201861,42325,58.1480728,7.9231657,09/03/2023,2.0,Andel,4628,Kristiansand S
Syvermarka 45,2990000,83,3.0,2012.0,Leilighet,https://www.finn.no/realestate/homes/ad.html?finnkode=294201554,36024,62.4964312,6.1172635,09/03/2023,2.0,Eier (Selveier),6050,Valderøya
Taraldsgårdsveita 10,3250000,50,3.0,1847.0,Leilighet,https://www.finn.no/realestate/homes/ad.html?finnkode=292498112,65000,63.4337243,10.3945006,09/03/2023,1.0,Eier (Selveier),7010,Trondheim
Hotvetveien 69,4690000,123,5.0,1920.0,Leilighet,https://www.finn.no/realestate/homes/ad.html?finnkode=293685759,38130,59.751261,10.1698416,09/03/2023,1.0,Eier (Selveier),3023,Drammen
Landeveien 114,4500000,182,,2009.0,Enebolig,https://www.finn.no/realestate/homes/ad.html?finnkode=294200345,24725,58.0151164,7.3976555,09/03/2023,,Eier (Selveier),4513,Mandal
Råholtgutua 7,5600000,320,,1964.0,Enebolig,https://www.finn.no/realestate/homes/ad.html?finnkode=285683291,17500,60.2805181,11.1785943,09/03/2023,,Eier (Selveier),2070,Råholt
Grindbakken 38,6950000,90,3.0,1983.0,Leilighet,https://www.finn.no/realestate/homes/ad.html?finnkode=292963316,77222,59.969394,10.6478,09/03/2023,2.0,Andel,764,Oslo
Aasta Hansteens veg 7B,9950000,284,11.0,1966.0,Enebolig,https://www.finn.no/realestate/homes/ad.html?finnkode=292264477,35035,63.4263061,10.4409998,09/03/2023,1.0,Eier (Selveier),7046,Trondheim
Botn 9C,2500000,59,2.0,2022.0,Leilighet,https://www.finn.no/realestate/homes/ad.html?finnkode=294071401,42372,61.313641,7.225989,09/03/2023,2.0,Eier (Selveier),6869,Hafslo
Hauslia 1E,2190000,68,3.0,2010.0,Leilighet,https://www.finn.no/realestate/homes/ad.html?finnkode=294083373,32205,58.2182431,7.9325366,09/03/2023,,Eier (Selveier),4619,Mosby
Viksveien 9,3300000,64,3.0,2008.0,Leilighet,https://www.finn.no/realestate/homes/ad.html?finnkode=291429949,51562,60.0780543,10.2803921,09/03/2023,2.0,Eier (Selveier),3530,Røyse
Breimyrstien 6,3650000,122,,1987.0,Tomannsbolig,https://www.finn.no/realestate/homes/ad.html?finnkode=293965025,29918,58.1475607,7.925944,09/03/2023,,Eier (Selveier),4628,Kristiansand S
Eugenies gate 8 B,6100000,74,3.0,1929.0,Leilighet,https://www.finn.no/realestate/homes/ad.html?finnkode=294187890,82432,59.927628,10.733529,09/03/2023,1.0,Aksje,168,Oslo
Strandveien 8A,7900000,205,,1860.0,Tomannsbolig,https://www.finn.no/realestate/homes/ad.html?finnkode=294197737,38536,58.157195,7.9969787,09/03/2023,,Eier (Selveier),4630,Kristiansand S
Hasserheien 8,3350000,78,3.0,2014.0,Leilighet,https://www.finn.no/realestate/homes/ad.html?finnkode=294197599,42948,59.2677586,11.0061944,09/03/2023,1.0,Eier (Selveier),1664,Rolvsøy
Nesttunbrekka 86,4200000,74,3.0,2019.0,Leilighet,https://www.finn.no/realestate/homes/ad.html?finnkode=294197427,56756,60.311045,5.351145,09/03/2023,2.0,Eier (Selveier),5221,Nesttun
Lyngåsen 7,3250000,78,,1985.0,Leilighet,https://www.finn.no/realestate/homes/ad.html?finnkode=294197401,41666,59.7636754,10.8466013,09/03/2023,2.0,Andel,1405,Langhus
Løkkevegen 20C,5490000,101,3.0,2012.0,Tomannsbolig,https://www.finn.no/realestate/homes/ad.html?finnkode=294102647,54356,59.9410721,11.0216576,09/03/2023,2.0,Eier (Selveier),2006,Løvenstad
Skrenten 1,2690000,149,5.0,1965.0,Enebolig,https://www.finn.no/realestate/homes/ad.html?finnkode=294193789,18053,60.742642,5.1562894,09/03/2023,,Eier (Selveier),5955,Lindås
Ulvedalen 3,2200000,59,2.0,1981.0,Leilighet,https://www.finn.no/realestate/homes/ad.html?finnkode=294097573,37288,60.4649603,5.3622188,09/03/2023,2.0,Andel,5134,Flaktveit
Nøkkefaret 19,3950000,100,,2016.0,Enebolig,https://www.finn.no/realestate/homes/ad.html?finnkode=294195673,39500,60.4143998,11.0526355,09/03/2023,,Eier (Selveier),2090,Hurdal
Udneskroken 162,2500000,175,,1950.0,Enebolig,https://www.finn.no/realestate/homes/ad.html?finnkode=294195910,14285,60.095293,11.3982099,09/03/2023,,Eier (Selveier),2150,Årnes
Ulvedalen 3,2100000,58,2.0,1981.0,Leilighet,https://www.finn.no/realestate/homes/ad.html?finnkode=294195724,36206,60.4649603,5.3622188,09/03/2023,1.0,Andel,5134,Flaktveit
Rådhusgata 9,3590000,65,2.0,1991.0,Leilighet,https://www.finn.no/realestate/homes/ad.html?finnkode=293968148,55230,59.745585,10.204732,09/03/2023,3.0,Andel,3016,Drammen
Asdalstrand 33,1100000,288,,,Enebolig,https://www.finn.no/realestate/homes/ad.html?finnkode=294194445,3819,59.0618947,9.6254201,09/03/2023,,Eier (Selveier),3962,Stathelle
Prestestien 4,1750000,57,2.0,1972.0,Leilighet,https://www.finn.no/realestate/homes/ad.html?finnkode=294113081,30701,60.4674129,5.3092412,09/03/2023,8.0,Andel,5118,Ulset
Wessels gate 15,7800000,92,4.0,2001.0,Leilighet,https://www.finn.no/realestate/homes/ad.html?finnkode=293920371,84782,59.9058805,10.68531184185606,09/03/2023,3.0,Andel,165,Oslo
Sjøvegen 69 Årdal i,4590000,193,7.0,1930.0,Enebolig,https://www.finn.no/realestate/homes/ad.html?finnkode=269421788,23782,59.1505026,6.1549525,09/03/2023,3.0,Eier (Selveier),4137,Ryfylke
Mykingvegen,1790000,134,,1944.0,Enebolig,https://www.finn.no/realestate/homes/ad.html?finnkode=294193014,13358,60.7036442,5.3248138,09/03/2023,,Eier (Selveier),1203,Myking
Tøftumsvegen 290 Vestre,1800000,112,5.0,1850.0,Enebolig,https://www.finn.no/realestate/homes/ad.html?finnkode=294190049,16071,61.1747113,10.1640649,09/03/2023,2.0,Eier (Selveier),2653,Gausdal
Innværfjorden 28,4790000,167,,2006.0,Enebolig,https://www.finn.no/realestate/homes/ad.html?finnkode=294192459,28682,59.7998,5.2469303,09/03/2023,,Eier (Selveier),5420,Rubbestadneset
Lia 114,3450000,260,,1960.0,Enebolig,https://www.finn.no/realestate/homes/ad.html?finnkode=294192096,13269,58.3925636,8.6501762,09/03/2023,,Eier (Selveier),4885,Grimstad
Nyhuskollen 16,4190000,62,,2008.0,Leilighet,https://www.finn.no/realestate/homes/ad.html?finnkode=279349134,67580,59.7861355,10.446674,09/03/2023,-2.0,Eier (Selveier),1389,Heggedal
Vinterkroken 10B,3950000,67,3.0,1991.0,Leilighet,https://www.finn.no/realestate/homes/ad.html?finnkode=293859323,58955,59.8554115,10.4752626,09/03/2023,2.0,Eier (Selveier),1395,Hvalstad
Kjempenhøy 19,5700000,80,,2021.0,Leilighet,https://www.finn.no/realestate/homes/ad.html?finnkode=294192036,71250,68.689545,15.417493,09/03/2023,,Eier (Selveier),8400,Sortland
Nøtteskrikevegen 4 E,1980000,55,2.0,2006.0,Leilighet,https://www.finn.no/realestate/homes/ad.html?finnkode=276308139,36000,60.2527772,11.0245259,09/03/2023,3.0,Andel,2032,Maura
Straumsfjellvegen 5C,3370000,77,3.0,2017.0,Leilighet,https://www.finn.no/realestate/homes/ad.html?finnkode=291766929,43766,60.360163,5.128474,09/03/2023,,Eier (Selveier),5353,Straume
Holmavegen 20,3290000,328,,1980.0,Enebolig,https://www.finn.no/realestate/homes/ad.html?finnkode=294191579,10030,59.2601521,5.178385,09/03/2023,3.0,Eier (Selveier),4270,Åkrehamn
Roskliå 19,4490000,228,10.0,1987.0,Enebolig,https://www.finn.no/realestate/homes/ad.html?finnkode=276581499,19692,58.6572967,5.6575932,09/03/2023,3.0,Eier (Selveier),4365,Nærbø
Steinsvikvegen 2,2950000,57,,2019.0,Leilighet,https://www.finn.no/realestate/homes/ad.html?finnkode=294190942,51754,60.315508,5.271138,09/03/2023,3.0,Eier (Selveier),5251,Søreidgrend
Lille Tømmerås 20,3990000,246,6.0,2004.0,Enebolig,https://www.finn.no/realestate/homes/ad.html?finnkode=260798695,16219,58.335551,8.237109,09/03/2023,,Eier (Selveier),4760,Birkeland
Hans Nordahls gate 46,4900000,50,2.0,2017.0,Leilighet,https://www.finn.no/realestate/homes/ad.html?finnkode=294100359,98000,59.941179,10.779211,09/03/2023,2.0,Eier (Selveier),481,Oslo
Moldelivegen 59,4150000,246,8.0,1950.0,Enebolig,https://www.finn.no/realestate/homes/ad.html?finnkode=294190136,16869,62.7413108,7.1568697,09/03/2023,,Eier (Selveier),6413,Molde
Høyeggen 68,4950000,345,9.0,1985.0,Enebolig,https://www.finn.no/realestate/homes/ad.html?finnkode=294150617,14347,63.2878527,10.2878011,09/03/2023,,Eier (Selveier),7224,Melhus
Lyngveien 2,3650000,264,,1971.0,Enebolig,https://www.finn.no/realestate/homes/ad.html?finnkode=294102377,13825,58.289541,6.670344,09/03/2023,,Eier (Selveier),4407,Flekkefjord
Astrids gate 43A,1900000,63,,1983.0,Leilighet,https://www.finn.no/realestate/homes/ad.html?finnkode=294189271,30158,59.284261,11.11629,09/03/2023,4.0,Andel,1706,Sarpsborg
Tøftveien 4 A,2360000,60,3.0,2020.0,Tomannsbolig,https://www.finn.no/realestate/homes/ad.html?finnkode=276588289,39333,63.047936,9.71387,09/03/2023,1.0,Eier (Selveier),7336,Meldal
Tostrups gate 24,14800000,154,4.0,1900.0,Leilighet,https://www.finn.no/realestate/homes/ad.html?finnkode=294092420,96103,59.9178,10.701963,09/03/2023,3.0,Eier (Selveier),264,Oslo
Øvre Torvgate 21A,2790000,75,3.0,1899.0,Leilighet,https://www.finn.no/realestate/homes/ad.html?finnkode=287510154,37200,60.7989886,10.6883617,09/03/2023,2.0,Eier (Selveier),2821,Gjøvik
Linderngata 4,6700000,65,3.0,1918.0,Leilighet,https://www.finn.no/realestate/homes/ad.html?finnkode=294128845,103076,59.93388,10.742285,09/03/2023,3.0,Andel,455,Oslo
Østre ringvei 69,2990000,69,,1956.0,Leilighet,https://www.finn.no/realestate/homes/ad.html?finnkode=294188222,43333,58.1565243,8.021951,09/03/2023,4.0,Andel,4632,Kristiansand S
Vollsveien 166,12300000,109,,2015.0,Leilighet,https://www.finn.no/realestate/homes/ad.html?finnkode=277581842,112844,59.941097,10.625465,09/03/2023,1.0,Eier (Selveier),1359,Eiksmarka
Heimdals gate 6,2900000,76,,1953.0,Leilighet,https://www.finn.no/realestate/homes/ad.html?finnkode=294187855,38157,58.1548242,8.0188929,09/03/2023,3.0,Aksje,4631,Kristiansand S
Askeladdveien 4,8400000,184,,2007.0,Enebolig,https://www.finn.no/realestate/homes/ad.html?finnkode=285870100,45652,60.033635,11.071615,09/03/2023,2.0,Eier (Selveier),2016,Frogner
Udbyes gate 9B,3990000,68,,1950.0,Leilighet,https://www.finn.no/realestate/homes/ad.html?finnkode=294187642,58676,63.4175271,10.3961014,09/03/2023,2.0,Andel,7030,Trondheim
Nybrottveien 23A,8500000,145,6.0,2020.0,Rekkehus,https://www.finn.no/realestate/homes/ad.html?finnkode=294069168,58620,59.725149,10.817596,09/03/2023,3.0,Eier (Selveier),1406,Ski
Abelsborg gate 13,2790000,46,,1959.0,Leilighet,https://www.finn.no/realestate/homes/ad.html?finnkode=294187111,60652,63.42957,10.367025,09/03/2023,4.0,Andel,7018,Trondheim
Furuveien 9 B,674110,57,,2007.0,Leilighet,https://www.finn.no/realestate/homes/ad.html?finnkode=294187060,11826,63.0651592,7.6496986,09/03/2023,,Andel,6530,Averøy
Kvassåsveien 21 Hauge i,2490000,194,,1994.0,Enebolig,https://www.finn.no/realestate/homes/ad.html?finnkode=293950127,12835,58.3481882,6.2823342,09/03/2023,,Eier (Selveier),4380,Dalane
Seminarbakken 41,2990000,43,2.0,2005.0,Leilighet,https://www.finn.no/realestate/homes/ad.html?finnkode=294001280,69534,69.6553387,18.9670765,09/03/2023,5.0,Eier (Selveier),9008,Tromsø
Ølvegata 45B,1800000,64,,1989.0,Leilighet,https://www.finn.no/realestate/homes/ad.html?finnkode=294185760,28125,64.0205418,11.4960125,09/03/2023,1.0,Eier (Selveier),7715,Steinkjer
Bjønnesveien 25,3500000,153,,1950.0,Enebolig,https://www.finn.no/realestate/homes/ad.html?finnkode=287878415,22875,59.2143554,10.4248045,09/03/2023,2.0,Eier (Selveier),3140,Nøtterøy
Sinsenveien 27D,5950000,74,4.0,1982.0,Leilighet,https://www.finn.no/realestate/homes/ad.html?finnkode=281036527,80405,59.931492,10.787221,09/03/2023,3.0,Eier (Selveier),585,Oslo
Bjørkanvegen 21,990000,179,,1950.0,Enebolig,https://www.finn.no/realestate/homes/ad.html?finnkode=294095006,5530,64.0692062,11.2139586,09/03/2023,,Eier (Selveier),7790,Malm
Fjellveien 57 B,4500000,143,5.0,1963.0,Tomannsbolig,https://www.finn.no/realestate/homes/ad.html?finnkode=288865359,31468,67.2951754,14.4292672,09/03/2023,,Eier (Selveier),8011,Bodø
Nesveien 23,3800000,235,6.0,1954.0,Enebolig,https://www.finn.no/realestate/homes/ad.html?finnkode=294183816,16170,59.2937493,11.1430633,09/03/2023,,Eier (Selveier),1734,Hafslundsøy
Bjørkåsen 10,5400000,255,6.0,2005.0,Enebolig,https://www.finn.no/realestate/homes/ad.html?finnkode=293981838,21176,59.7954292,5.1395187,09/03/2023,,Eier (Selveier),5430,Bremnes
Norheimtunet 59,4490000,297,7.0,1965.0,Enebolig,https://www.finn.no/realestate/homes/ad.html?finnkode=273750909,15117,59.3811462,5.3036692,09/03/2023,,Eier (Selveier),5542,Karmsund
Rossåsstien 18,6700000,325,8.0,2013.0,Enebolig,https://www.finn.no/realestate/homes/ad.html?finnkode=294069320,20615,58.7776538,5.8225035,09/03/2023,,Eier (Selveier),4332,Figgjo
Øverlandsvegen 10,4500000,255,7.0,1952.0,Tomannsbolig,https://www.finn.no/realestate/homes/ad.html?finnkode=285085138,17647,62.7426914,7.2024927,09/03/2023,,Eier (Selveier),6416,Molde
Blindheimsneset 2A+B,6500000,159,,2022.0,Tomannsbolig,https://www.finn.no/realestate/homes/ad.html?finnkode=294073279,40880,62.442674,6.357203,09/03/2023,2.0,Eier (Selveier),6020,Ålesund
Strandgaten 207,3300000,53,2.0,1954.0,Leilighet,https://www.finn.no/realestate/homes/ad.html?finnkode=294003027,62264,60.3979891,5.3109365,09/03/2023,3.0,Eier (Selveier),5004,Bergen
Hjortestien 20,2850000,69,2.0,1982.0,Leilighet,https://www.finn.no/realestate/homes/ad.html?finnkode=294070202,41304,58.8975792,5.7297394,09/03/2023,6.0,Andel,4034,Stavanger
Floen 28,3400000,109,4.0,2011.0,Rekkehus,https://www.finn.no/realestate/homes/ad.html?finnkode=294111656,31192,58.7718888,5.7324363,09/03/2023,,Andel,4355,Kvernaland
Odderhei terrasse 17B,3990000,144,5.0,1988.0,Tomannsbolig,https://www.finn.no/realestate/homes/ad.html?finnkode=294140714,27708,58.1348384,8.0771728,09/03/2023,3.0,Eier (Selveier),4639,Kristiansand S
Dalveien 139,3500000,205,,1963.0,Enebolig,https://www.finn.no/realestate/homes/ad.html?finnkode=294106332,17073,59.2832363,11.0483733,09/03/2023,,Eier (Selveier),1718,Greåker
Austlisvingen 17A,8750000,255,,1946.0,Tomannsbolig,https://www.finn.no/realestate/homes/ad.html?finnkode=294091026,34313,59.72359,10.825383,09/03/2023,,Eier (Selveier),1423,Ski
Teglhageveien 27,4900000,82,,2019.0,Leilighet,https://www.finn.no/realestate/homes/ad.html?finnkode=294142412,59756,59.275678,10.405658,09/03/2023,5.0,Eier (Selveier),3125,Tønsberg
Buskerudveien 146G,2950000,67,3.0,2004.0,Leilighet,https://www.finn.no/realestate/homes/ad.html?finnkode=294069321,44029,59.7522761,10.12348,09/03/2023,2.0,Andel,3027,Drammen
Lavskrikevegen 10D,5200000,102,4.0,2022.0,Tomannsbolig,https://www.finn.no/realestate/homes/ad.html?finnkode=294092650,50980,60.25172,11.022974,09/03/2023,2.0,Eier (Selveier),2032,Maura
Turkisveien 10A,2990000,68,3.0,2020.0,Leilighet,https://www.finn.no/realestate/homes/ad.html?finnkode=294099379,43970,58.838232,5.706626,09/03/2023,1.0,Eier (Selveier),4318,Sandnes
Fjordvegen 19,5450000,116,,2007.0,Leilighet,https://www.finn.no/realestate/homes/ad.html?finnkode=290617248,46982,60.774752,11.087305,09/03/2023,,Andel,2312,Ottestad
Solheimslien 20A,1290000,34,2.0,2018.0,Leilighet,https://www.finn.no/realestate/homes/ad.html?finnkode=294079795,37941,60.376332,5.325759,09/03/2023,1.0,Andel,5056,Bergen
Elgeseter gate 58B,2890000,59,2.0,1953.0,Leilighet,https://www.finn.no/realestate/homes/ad.html?finnkode=294107792,48983,63.4149828,10.3972326,09/03/2023,1.0,Aksje,7030,Trondheim
Ragnhild Jølsens veg 42E,3290000,83,3.0,1967.0,Leilighet,https://www.finn.no/realestate/homes/ad.html?finnkode=294152904,39638,59.937992,11.0241878,09/03/2023,3.0,Andel,2006,Løvenstad
Bjørnhollo 7A,8550000,137,5.0,2022.0,Leilighet,https://www.finn.no/realestate/homes/ad.html?finnkode=294123023,62408,67.277347,14.550506,09/03/2023,,Eier (Selveier),8020,Bodø
Trollsteinenga 13,3490000,110,3.0,1959.0,Rekkehus,https://www.finn.no/realestate/homes/ad.html?finnkode=293969760,31727,63.1233622,7.7212554,09/03/2023,,Eier (Selveier),6514,Kristiansund N
Åssiden 5B,1250000,49,2.0,1978.0,Leilighet,https://www.finn.no/realestate/homes/ad.html?finnkode=294141278,25510,59.6416672,11.3287023,09/03/2023,1.0,Andel,1860,Trøgstad
Aslakveien 25,3745000,48,,1962.0,Leilighet,https://www.finn.no/realestate/homes/ad.html?finnkode=294160497,78020,59.940455,10.64936,09/03/2023,4.0,Eier (Selveier),753,Oslo
Storheia 28,5490000,167,6.0,2019.0,Tomannsbolig,https://www.finn.no/realestate/homes/ad.html?finnkode=294160313,32874,60.451466,5.131355,09/03/2023,,Eier (Selveier),5310,Hauglandshella
KIRKERØNNINGEN 27,6490000,273,4.0,1997.0,Enebolig,https://www.finn.no/realestate/homes/ad.html?finnkode=286764030,23772,59.114267,10.397209,09/03/2023,2.0,Eier (Selveier),3145,Tjøme
Jonas Lies vei 25,3350000,56,,1994.0,Leilighet,https://www.finn.no/realestate/homes/ad.html?finnkode=294159348,59821,60.3759675,5.3467231,09/03/2023,3.0,Eier (Selveier),5053,Bergen
Kjærlighetsstien 11,3100000,245,5.0,1974.0,Enebolig,https://www.finn.no/realestate/homes/ad.html?finnkode=294158767,12653,59.563599,9.28354,09/03/2023,,Eier (Selveier),3681,Notodden
Solheiveien 5,3650000,217,,1983.0,Enebolig,https://www.finn.no/realestate/homes/ad.html?finnkode=294157220,16820,58.1108274,7.0590446,09/03/2023,,Eier (Selveier),4580,Lyngdal
Schøllers gate 2,1990000,38,,1930.0,Leilighet,https://www.finn.no/realestate/homes/ad.html?finnkode=294156800,52368,63.435769,10.435194,09/03/2023,,Eier (Selveier),7068,Trondheim
Johan Schaannings gate 106,4950000,218,6.0,1966.0,Enebolig,https://www.finn.no/realestate/homes/ad.html?finnkode=294156701,22706,59.1845899,9.6327188,09/03/2023,,Eier (Selveier),3746,Skien
Gerhard Grans vei 9,2890000,74,,1958.0,Leilighet,https://www.finn.no/realestate/homes/ad.html?finnkode=294155848,39054,60.352793,5.367242,09/03/2023,1.0,Aksje,5094,Bergen
Smørbukken 11,4490000,151,,1994.0,Enebolig,https://www.finn.no/realestate/homes/ad.html?finnkode=292977621,29735,59.7643398,10.0102996,09/03/2023,,Eier (Selveier),3055,Krokstadelva
Vennavegen 279,4890000,237,,1979.0,Gårdsbruk/Småbruk,https://www.finn.no/realestate/homes/ad.html?finnkode=294155476,20632,63.3348179,10.8553291,09/03/2023,,Eier (Selveier),7550,Hommelvik
Almebakken 8,8950000,326,5.0,2009.0,Enebolig,https://www.finn.no/realestate/homes/ad.html?finnkode=292582784,27453,60.186618,10.272122,09/03/2023,,Eier (Selveier),3516,Hønefoss
Stjerneveien 4B,4500000,147,5.0,2001.0,Tomannsbolig,https://www.finn.no/realestate/homes/ad.html?finnkode=293978768,30612,59.791668,10.893674,09/03/2023,2.0,Eier (Selveier),1404,Siggerud
Fredlundveien 7C,6590000,102,5.0,2019.0,Rekkehus,https://www.finn.no/realestate/homes/ad.html?finnkode=294114638,64607,60.359695,5.339705,09/03/2023,3.0,Eier (Selveier),5073,Bergen
Landstads gate 33,4020000,40,2.0,2021.0,Leilighet,https://www.finn.no/realestate/homes/ad.html?finnkode=294072632,100500,59.956269,11.054351,09/03/2023,6.0,Eier (Selveier),2000,Lillestrøm
Treskeveien 1,4850000,80,3.0,1964.0,Leilighet,https://www.finn.no/realestate/homes/ad.html?finnkode=294140167,60625,59.893725,10.818011,09/03/2023,3.0,Andel,681,Oslo
Reinsdyrveien 1,2150000,63,,2022.0,Leilighet,https://www.finn.no/realestate/homes/ad.html?finnkode=294087181,34126,58.470642,6.007008,09/03/2023,1.0,Eier (Selveier),4373,Egersund
Ognaveien 1,5120000,237,,1957.0,Enebolig,https://www.finn.no/realestate/homes/ad.html?finnkode=255545413,21603,58.458257,6.00867,09/03/2023,3.0,Eier (Selveier),4370,Egersund
Julianus Holms veg 28,3950000,68,3.0,2019.0,Leilighet,https://www.finn.no/realestate/homes/ad.html?finnkode=287154207,58088,63.443169,10.459632,09/03/2023,,Eier (Selveier),7041,Trondheim
Rogalandgata 180,1265000,76,3.0,2005.0,Leilighet,https://www.finn.no/realestate/homes/ad.html?finnkode=293838796,16644,59.4211968,5.2731751,09/03/2023,2.0,Andel,5522,Haugesund
Tokerudberget 15,3890000,118,,1972.0,Leilighet,https://www.finn.no/realestate/homes/ad.html?finnkode=294148568,32966,59.96384,10.923475,09/03/2023,-1.0,Eier (Selveier),986,Oslo
Østbyveien 25B,6000000,215,,1980.0,Enebolig,https://www.finn.no/realestate/homes/ad.html?finnkode=293306534,27906,59.924416,10.996772,09/03/2023,2.0,Eier (Selveier),1474,Lørenskog
Niels Juels gate 40A,9000000,75,3.0,1898.0,Leilighet,https://www.finn.no/realestate/homes/ad.html?finnkode=294148151,120000,59.916634,10.714213,09/03/2023,4.0,Eier (Selveier),257,Oslo
Havnegata 13A,3190000,101,3.0,2001.0,Leilighet,https://www.finn.no/realestate/homes/ad.html?finnkode=294147774,31584,63.5542203,10.2240467,09/03/2023,1.0,Eier (Selveier),7125,Vanvikan
Nesseveien 7 B,2500000,117,4.0,2006.0,Tomannsbolig,https://www.finn.no/realestate/homes/ad.html?finnkode=293954906,21367,68.7744698,16.5622535,09/03/2023,,Andel,9411,Harstad
Badehusgata 45,2590000,75,3.0,2006.0,Leilighet,https://www.finn.no/realestate/homes/ad.html?finnkode=293950263,34533,58.9734805,5.7515424,09/03/2023,3.0,Andel,4014,Stavanger
Skolebakken 6,3600000,177,6.0,1969.0,Enebolig,https://www.finn.no/realestate/homes/ad.html?finnkode=294012437,20338,59.2102949,11.1931532,09/03/2023,2.0,Eier (Selveier),1746,Skjeberg
Karlsminnegata 115,6500000,174,,1914.0,Enebolig,https://www.finn.no/realestate/homes/ad.html?finnkode=293451276,37356,58.96255,5.753666,09/03/2023,4.0,Eier (Selveier),4015,Stavanger
Grefsenveien 21B,4700000,57,2.0,1936.0,Leilighet,https://www.finn.no/realestate/homes/ad.html?finnkode=294142934,82456,59.942635,10.773446,09/03/2023,5.0,Eier (Selveier),482,Oslo
Oscar Pedersens vei 3,3100000,99,3.0,2022.0,Leilighet,https://www.finn.no/realestate/homes/ad.html?finnkode=293825747,31313,59.283043,11.1204,09/03/2023,2.0,Andel,1707,Sarpsborg
Kvilarvegen 36B,2230000,42,2.0,2018.0,Leilighet,https://www.finn.no/realestate/homes/ad.html?finnkode=294141685,53095,62.756655,7.277343,09/03/2023,2.0,Eier (Selveier),6421,Molde
Skåravegen 3,2290000,177,5.0,1971.0,Enebolig,https://www.finn.no/realestate/homes/ad.html?finnkode=294141620,12937,61.2389221,7.7227053,09/03/2023,2.0,Eier (Selveier),6885,Årdalstangen
Granåsen 15D,11950000,210,,1964.0,Rekkehus,https://www.finn.no/realestate/homes/ad.html?finnkode=280750242,56904,59.936138,10.587412,09/03/2023,,Eier (Selveier),1362,Hosle
Vindalsvegen 24,5890000,213,,1998.0,Enebolig,https://www.finn.no/realestate/homes/ad.html?finnkode=294139488,27652,60.2346166,5.4437689,09/03/2023,,Eier (Selveier),5212,Søfteland
Nonshaugen 67,3350000,65,3.0,1983.0,Leilighet,https://www.finn.no/realestate/homes/ad.html?finnkode=294131295,51538,67.3117337,14.4495505,09/03/2023,1.0,Andel,8015,Bodø
Fosnagata 1,3490000,89,3.0,1950.0,Leilighet,https://www.finn.no/realestate/homes/ad.html?finnkode=294052788,39213,63.113584,7.732359,09/03/2023,2.0,Eier (Selveier),6509,Kristiansund N
Godheimveien 46,3000000,69,3.0,1989.0,Leilighet,https://www.finn.no/realestate/homes/ad.html?finnkode=294107363,43478,59.749719,10.4003,09/03/2023,1.0,Eier (Selveier),3440,Røyken
Ladebekken 10,5190000,62,,2021.0,Leilighet,https://www.finn.no/realestate/homes/ad.html?finnkode=288339926,83709,63.443756,10.428809,09/03/2023,4.0,Eier (Selveier),7041,Trondheim
Rosenborg gate 15B,3590000,61,,1895.0,Leilighet,https://www.finn.no/realestate/homes/ad.html?finnkode=294136215,58852,63.4334815,10.4168472,09/03/2023,,Eier (Selveier),7014,Trondheim
Solheimsgaten 72,2490000,54,3.0,1965.0,Leilighet,https://www.finn.no/realestate/homes/ad.html?finnkode=294135794,46111,60.3750106,5.3393874,09/03/2023,4.0,Andel,5054,Bergen
Spinnerivegen 15,5350000,253,,1933.0,Tomannsbolig,https://www.finn.no/realestate/homes/ad.html?finnkode=293975162,21146,61.1180784,10.4689383,09/03/2023,,Eier (Selveier),2615,Lillehammer
Drammensveien 54B,13500000,104,4.0,1937.0,Leilighet,https://www.finn.no/realestate/homes/ad.html?finnkode=294082200,129807,59.91288,10.713676,09/03/2023,3.0,Eier (Selveier),271,Oslo
Kampensgata 67,2990000,63,3.0,1920.0,Leilighet,https://www.finn.no/realestate/homes/ad.html?finnkode=294133559,47460,58.9745556,5.7133391,09/03/2023,1.0,Eier (Selveier),4007,Stavanger
Kveldeveien 354,3290000,210,,1972.0,Enebolig,https://www.finn.no/realestate/homes/ad.html?finnkode=294133409,15666,59.2013085,9.9700205,09/03/2023,,Eier (Selveier),3282,Kvelde
Tranevegen 195,5750000,134,4.0,2003.0,Rekkehus,https://www.finn.no/realestate/homes/ad.html?finnkode=293661653,42910,60.3042827,5.3547386,09/03/2023,2.0,Eier (Selveier),5238,Rådal
Lillefjell terrasse 79,3500000,142,,2008.0,Enebolig,https://www.finn.no/realestate/homes/ad.html?finnkode=293988803,24647,58.2285464,7.9290087,09/03/2023,,Eier (Selveier),4619,Mosby
Østbyveien 25B,6000000,215,,1980.0,Enebolig,https://www.finn.no/realestate/homes/ad.html?finnkode=293306534,27906,59.924416,10.996772,09/03/2023,2.0,Eier (Selveier),1474,Lørenskog
Georgernes Verft 16,4690000,67,2.0,2001.0,Leilighet,https://www.finn.no/realestate/homes/ad.html?finnkode=294092725,70000,60.3961997,5.3079781,09/03/2023,2.0,Andel,5011,Bergen
Lundejordet 4,3190000,121,5.0,2022.0,Enebolig,https://www.finn.no/realestate/homes/ad.html?finnkode=293912068,26363,59.08098,9.689558,09/03/2023,,Andel,3941,Porsgrunn
Klostergata 44 B,2350000,35,,1920.0,Leilighet,https://www.finn.no/realestate/homes/ad.html?finnkode=293860485,67142,63.4232161,10.3912729,09/03/2023,1.0,Andel,7030,Trondheim
Granlivegen 19C,9490000,257,,1967.0,Enebolig,https://www.finn.no/realestate/homes/ad.html?finnkode=294130231,36926,63.3926388,10.3424513,09/03/2023,,Eier (Selveier),7024,Trondheim
Øverbygdsvegen Østre,3200000,169,4.0,1920.0,Enebolig,https://www.finn.no/realestate/homes/ad.html?finnkode=279262790,18934,61.2410092,10.2161576,09/03/2023,2.0,Eier (Selveier),1580,Gausdal
Frøyas gate 47,2400000,72,3.0,1989.0,Leilighet,https://www.finn.no/realestate/homes/ad.html?finnkode=294129272,33333,59.2185723,10.936699,09/03/2023,2.0,Andel,1608,Fredrikstad
Hovlandveien 9D,3140000,200,5.0,1973.0,Rekkehus,https://www.finn.no/realestate/homes/ad.html?finnkode=289008191,15700,59.150275,10.2235559,09/03/2023,3.0,Andel,3225,Sandefjord
Nissens gate 1,6500000,68,3.0,1896.0,Leilighet,https://www.finn.no/realestate/homes/ad.html?finnkode=294128401,95588,59.926041,10.761788,09/03/2023,4.0,Andel,556,Oslo
Engene 87 A,3900000,88,4.0,1971.0,Leilighet,https://www.finn.no/realestate/homes/ad.html?finnkode=294128182,44318,59.743269,10.222104,09/03/2023,1.0,Andel,3011,Drammen
Nord-Fugløyveien,2300000,206,,1998.0,Enebolig,https://www.finn.no/realestate/homes/ad.html?finnkode=294117833,11165,70.0730589,19.9836558,09/03/2023,,Eier (Selveier),2486,Vannvåg
Lysakerveien 22A,6290000,140,5.0,2022.0,Enebolig,https://www.finn.no/realestate/homes/ad.html?finnkode=293110839,44928,59.761824,9.99828,09/03/2023,2.0,Eier (Selveier),3055,Krokstadelva
Østre Moholt-tun 14,2650000,43,2.0,1968.0,Leilighet,https://www.finn.no/realestate/homes/ad.html?finnkode=294125926,61627,63.4083141,10.4356774,09/03/2023,2.0,Andel,7050,Trondheim
Trollstigen 2,7990000,212,,1969.0,Enebolig,https://www.finn.no/realestate/homes/ad.html?finnkode=293321992,37688,59.6590638,10.64043,09/03/2023,,Eier (Selveier),1446,Drøbak
Kreklingvegen 2,5390000,200,6.0,1998.0,Enebolig,https://www.finn.no/realestate/homes/ad.html?finnkode=294018244,26950,63.722428,11.279244,09/03/2023,,Eier (Selveier),7606,Levanger
Symraveien 6A,6550000,169,4.0,1958.0,Tomannsbolig,https://www.finn.no/realestate/homes/ad.html?finnkode=294101636,38757,67.2902837,14.4310084,09/03/2023,4.0,Eier (Selveier),8009,Bodø
Solveig Hansens gate 11,5990000,204,6.0,2018.0,Enebolig,https://www.finn.no/realestate/homes/ad.html?finnkode=294123393,29362,59.414352,5.328083,09/03/2023,2.0,Eier (Selveier),5533,Haugesund
Stubben 6,6750000,136,3.0,1987.0,Leilighet,https://www.finn.no/realestate/homes/ad.html?finnkode=293940978,49632,59.4361337,10.6265043,09/03/2023,-1.0,Eier (Selveier),1512,Moss
Vikjordet 27,3490000,155,5.0,2003.0,Enebolig,https://www.finn.no/realestate/homes/ad.html?finnkode=294122350,22516,58.3666649,8.6325006,09/03/2023,2.0,Eier (Selveier),4885,Grimstad
Langsethveien 3,2990000,65,,2008.0,Leilighet,https://www.finn.no/realestate/homes/ad.html?finnkode=291775450,46000,59.6768195,10.5340362,09/03/2023,1.0,Eier (Selveier),3475,Sætre
Svaneveien 62,5750000,208,,1991.0,Enebolig,https://www.finn.no/realestate/homes/ad.html?finnkode=277454091,27644,58.8434061,5.7087022,09/03/2023,3.0,Eier (Selveier),4318,Sandnes
Solliveien 27D,7000000,310,7.0,1981.0,Enebolig,https://www.finn.no/realestate/homes/ad.html?finnkode=294027677,22580,58.926693,5.723447,09/03/2023,3.0,Eier (Selveier),4020,Stavanger
Lerkerinden 7C,2490000,45,2.0,2006.0,Leilighet,https://www.finn.no/realestate/homes/ad.html?finnkode=294120509,55333,60.3407281,5.3651751,09/03/2023,2.0,Andel,5099,Bergen
Tveitevågkleiva 1,4800000,163,,1974.0,Enebolig,https://www.finn.no/realestate/homes/ad.html?finnkode=294119988,29447,60.4471046,5.1352256,09/03/2023,,Eier (Selveier),5310,Hauglandshella
Enggata 38,4290000,139,,1908.0,Enebolig,https://www.finn.no/realestate/homes/ad.html?finnkode=260168915,30863,59.2796937,11.1160063,09/03/2023,,Eier (Selveier),1721,Sarpsborg
Ekraveien 76,5900000,77,4.0,1959.0,Leilighet,https://www.finn.no/realestate/homes/ad.html?finnkode=292134645,76623,59.959208,10.631544,09/03/2023,2.0,Eier (Selveier),757,Oslo
Ringkollen 12C,1690000,52,2.0,1976.0,Leilighet,https://www.finn.no/realestate/homes/ad.html?finnkode=294118800,32500,59.1193012,10.2561291,09/03/2023,1.0,Andel,3227,Sandefjord
Nygaten 8,2600000,125,6.0,1912.0,Enebolig,https://www.finn.no/realestate/homes/ad.html?finnkode=293964741,20800,58.45021,5.997596,09/03/2023,,Eier (Selveier),4370,Egersund
Gammelvegen 11,4490000,140,,2016.0,Enebolig,https://www.finn.no/realestate/homes/ad.html?finnkode=294118278,32071,63.358088,10.1669563,09/03/2023,,Eier (Selveier),7074,Spongdal
Åsenveien 26,2750000,105,,2008.0,Tomannsbolig,https://www.finn.no/realestate/homes/ad.html?finnkode=291460071,26190,59.2270475,10.3376287,09/03/2023,2.0,Eier (Selveier),3159,Melsomvik
Alnagata 11,3190000,54,3.0,1898.0,Leilighet,https://www.finn.no/realestate/homes/ad.html?finnkode=278850935,59074,59.903255,10.772629,09/03/2023,,Andel,192,Oslo
Kløverenga 8,11750000,241,,1965.0,Enebolig,https://www.finn.no/realestate/homes/ad.html?finnkode=293944990,48755,59.896604,10.5737,09/03/2023,,Eier (Selveier),1363,Høvik
Strimmelen 44,3250000,66,4.0,1957.0,Leilighet,https://www.finn.no/realestate/homes/ad.html?finnkode=294072298,49242,60.3557693,5.3696143,09/03/2023,2.0,Andel,5097,Bergen
Korallveien 9,3550000,167,,1955.0,Enebolig,https://www.finn.no/realestate/homes/ad.html?finnkode=294116417,21257,68.4217708,17.3272143,09/03/2023,2.0,Eier (Selveier),8520,Ankenes
Dugstadfossen 28,4500000,188,7.0,1971.0,Enebolig,https://www.finn.no/realestate/homes/ad.html?finnkode=294116535,23936,60.656913,6.443942,09/03/2023,,Eier (Selveier),5710,Skulestadmo
Skjervenveien 7C,6490000,221,,1989.0,Tomannsbolig,https://www.finn.no/realestate/homes/ad.html?finnkode=288292666,29366,59.7690632,10.8075413,09/03/2023,3.0,Eier (Selveier),1415,Oppegård
Holtet 2B,15950000,296,7.0,2011.0,Tomannsbolig,https://www.finn.no/realestate/homes/ad.html?finnkode=270140722,53885,59.9034463,10.6025348,09/03/2023,4.0,Eier (Selveier),1368,Stabekk
Petter Dass gate 1 Mo i,5200000,105,9.0,2010.0,Leilighet,https://www.finn.no/realestate/homes/ad.html?finnkode=294115418,49523,66.3083187,14.1385672,09/03/2023,2.0,Andel,8624,Rana
Havnegata 5,5690000,98,,1990.0,Leilighet,https://www.finn.no/realestate/homes/ad.html?finnkode=294115227,58061,58.2474457,8.3781304,09/03/2023,2.0,Eier (Selveier),4790,Lillesand
Østre Strandgate 66C,2990000,59,2.0,1933.0,Andre,https://www.finn.no/realestate/homes/ad.html?finnkode=156764447,50677,58.1462077,8.0036465,09/03/2023,3.0,Eier (Selveier),4608,Kristiansand S
Prins Oscars gate 1A,5290000,80,3.0,2010.0,Leilighet,https://www.finn.no/realestate/homes/ad.html?finnkode=288768290,66125,59.741034,10.219316,09/03/2023,4.0,Eier (Selveier),3015,Drammen
Grønngjelet 22,2790000,117,,1975.0,Enebolig,https://www.finn.no/realestate/homes/ad.html?finnkode=294113835,23846,58.0851331,7.8186274,09/03/2023,,Eier (Selveier),4640,Søgne
Åfossmoen 22,2595000,176,,1971.0,Enebolig,https://www.finn.no/realestate/homes/ad.html?finnkode=294113573,14744,59.1961458,9.5397471,09/03/2023,,Eier (Selveier),3731,Skien
Kantarellen terrasse 12,3490000,75,4.0,1990.0,Leilighet,https://www.finn.no/realestate/homes/ad.html?finnkode=294112941,46533,59.848074,10.81323,09/03/2023,2.0,Andel,1286,Oslo
Stensgata 10B,6000000,62,,1939.0,Leilighet,https://www.finn.no/realestate/homes/ad.html?finnkode=294112526,96774,59.930033,10.732348,09/03/2023,3.0,Eier (Selveier),358,Oslo
Kjerrevegen 2,4300000,256,4.0,1981.0,Enebolig,https://www.finn.no/realestate/homes/ad.html?finnkode=293593403,16796,58.6577329,5.6511729,09/03/2023,3.0,Eier (Selveier),4365,Nærbø
Erik Hansens vei 5,4500000,148,,1964.0,Enebolig,https://www.finn.no/realestate/homes/ad.html?finnkode=293867444,30405,59.7435176,10.3367534,09/03/2023,,Eier (Selveier),3430,Spikkestad
Kråfjellet 9,4990000,94,3.0,2014.0,Leilighet,https://www.finn.no/realestate/homes/ad.html?finnkode=293999942,53085,58.499886,5.802624,09/03/2023,5.0,Eier (Selveier),4364,Sirevåg
Kirkeveien 50,2690000,24,1.0,1938.0,Leilighet,https://www.finn.no/realestate/homes/ad.html?finnkode=294112356,112083,59.927812,10.713301,09/03/2023,3.0,Andel,368,Oslo
Nygardsvegen 6A,10250000,215,6.0,2023.0,Tomannsbolig,https://www.finn.no/realestate/homes/ad.html?finnkode=293823357,47674,59.928924,11.067571,09/03/2023,,Eier (Selveier),2008,Fjerdingby
Byfjordparken 6,9200000,135,4.0,2017.0,Leilighet,https://www.finn.no/realestate/homes/ad.html?finnkode=227889665,68148,58.981276,5.7129979,09/03/2023,4.0,Eier (Selveier),4007,Stavanger
Bentsebrugata 17C,7790000,100,4.0,1959.0,Leilighet,https://www.finn.no/realestate/homes/ad.html?finnkode=294111584,77900,59.936527,10.762984,09/03/2023,1.0,Eier (Selveier),476,Oslo
Eliløkken 17,3490000,81,3.0,2016.0,Leilighet,https://www.finn.no/realestate/homes/ad.html?finnkode=294088353,43086,63.334142,10.067769,09/03/2023,2.0,Eier (Selveier),7353,Børsa
Storestraumen 299,3290000,65,,2021.0,Leilighet,https://www.finn.no/realestate/homes/ad.html?finnkode=280224088,50615,60.224356,5.454092,09/03/2023,4.0,Eier (Selveier),5212,Søfteland
St. Marie gate 32,3900000,158,3.0,1903.0,Enebolig,https://www.finn.no/realestate/homes/ad.html?finnkode=294111249,24683,59.280062,11.121075,09/03/2023,3.0,Eier (Selveier),1706,Sarpsborg
Skåregata 213,1330000,62,,1912.0,Leilighet,https://www.finn.no/realestate/homes/ad.html?finnkode=294110633,21451,59.4168192,5.2665843,09/03/2023,2.0,Eier (Selveier),5525,Haugesund
Kjeldsrudenga 14,4600000,183,,2019.0,Enebolig,https://www.finn.no/realestate/homes/ad.html?finnkode=293830405,25136,60.556918,11.259612,09/03/2023,2.0,Eier (Selveier),2338,Espa
Morvikbotn 258,3600000,74,3.0,2015.0,Leilighet,https://www.finn.no/realestate/homes/ad.html?finnkode=293983601,48648,60.4714503,5.2807136,09/03/2023,1.0,Eier (Selveier),5122,Morvik
Vognstølen 18F,2850000,44,1.0,1960.0,Leilighet,https://www.finn.no/realestate/homes/ad.html?finnkode=293943835,64772,60.3698661,5.3636754,09/03/2023,4.0,Andel,5096,Bergen
Pauline Halls vei 79,7650000,160,,1982.0,Tomannsbolig,https://www.finn.no/realestate/homes/ad.html?finnkode=277617161,47812,59.8080993,10.7867971,09/03/2023,,Eier (Selveier),1410,Kolbotn
Øvre Vikane 15,3600000,86,,1907.0,Enebolig,https://www.finn.no/realestate/homes/ad.html?finnkode=294110232,41860,60.4282397,5.1498901,09/03/2023,,Eier (Selveier),5304,Hetlevik
Austbøsvingene 37,4300000,130,4.0,1984.0,Rekkehus,https://www.finn.no/realestate/homes/ad.html?finnkode=293945545,33076,58.994507,5.734931,09/03/2023,3.0,Andel,4085,Hundvåg
Kaptein Mejlænders gate 9D,2600000,149,,1954.0,Rekkehus,https://www.finn.no/realestate/homes/ad.html?finnkode=294109875,17449,58.9785991,5.7133018,09/03/2023,,Eier (Selveier),4026,Stavanger
Slettestølsvegen 38,6390000,263,7.0,1989.0,Enebolig,https://www.finn.no/realestate/homes/ad.html?finnkode=288277625,24296,60.486698,5.26781,09/03/2023,,Eier (Selveier),5136,Mjølkeråen
Gardtunet 12,2990000,120,5.0,1993.0,Enebolig,https://www.finn.no/realestate/homes/ad.html?finnkode=294108574,24916,59.4290239,5.2674264,09/03/2023,,Eier (Selveier),5518,Haugesund
Kronprinsens gate 7,1000000,46,,1959.0,Kontor,https://www.finn.no/realestate/homes/ad.html?finnkode=294108572,21739,58.1475702,8.0026962,09/03/2023,1.0,Eier (Selveier),4608,Kristiansand S
Saurdalsbakken 26,2350000,82,3.0,2015.0,Tomannsbolig,https://www.finn.no/realestate/homes/ad.html?finnkode=294031377,28658,58.4632274,5.9396398,09/03/2023,,Eier (Selveier),4374,Egersund
Setra vei 9 A,17600000,189,7.0,1979.0,Enebolig,https://www.finn.no/realestate/homes/ad.html?finnkode=278357683,93121,59.958787,10.665702,09/03/2023,,Eier (Selveier),786,Oslo
Landstads gate 43,4890000,70,,2021.0,Leilighet,https://www.finn.no/realestate/homes/ad.html?finnkode=294107913,69857,59.955851,11.053355,09/03/2023,1.0,Eier (Selveier),2000,Lillestrøm
Myrdalskogen 28,2150000,52,2.0,1970.0,Leilighet,https://www.finn.no/realestate/homes/ad.html?finnkode=294107906,41346,60.4648232,5.3129992,09/03/2023,2.0,Andel,5118,Ulset
Skøyteveien 34,3000000,174,,1988.0,Enebolig,https://www.finn.no/realestate/homes/ad.html?finnkode=293999534,17241,58.4490905,5.9746418,09/03/2023,,Eier (Selveier),4374,Egersund
Ullevålsveien 56D,5400000,67,2.0,1931.0,Leilighet,https://www.finn.no/realestate/homes/ad.html?finnkode=288362219,80597,59.929529,10.737869,09/03/2023,1.0,Andel,454,Oslo
Follstadveien 104,2350000,60,3.0,2019.0,Leilighet,https://www.finn.no/realestate/homes/ad.html?finnkode=294107225,39166,63.033609,10.309287,09/03/2023,2.0,Eier (Selveier),7290,Støren
Sagdalsveien 13B,3460000,66,3.0,1958.0,Leilighet,https://www.finn.no/realestate/homes/ad.html?finnkode=290983698,52424,59.9523105,11.0076848,09/03/2023,3.0,Andel,2010,Strømmen
Midtunhaugen 162,5990000,143,5.0,1989.0,Rekkehus,https://www.finn.no/realestate/homes/ad.html?finnkode=294040650,41888,60.3193234,5.3591131,09/03/2023,2.0,Eier (Selveier),5224,Nesttun
Solløkkasletta 1,6900000,279,,1987.0,Enebolig,https://www.finn.no/realestate/homes/ad.html?finnkode=294106793,24731,59.1432222,10.2914623,09/03/2023,,Eier (Selveier),3233,Sandefjord
Kisevegen 324 Nes på,850000,59,,1913.0,Enebolig,https://www.finn.no/realestate/homes/ad.html?finnkode=293850940,14406,60.779928,10.806008,09/03/2023,,Eier (Selveier),2350,Hedmarken
Gabriel Lunds gate 21,5400000,336,,1947.0,Enebolig,https://www.finn.no/realestate/homes/ad.html?finnkode=294101047,16071,58.0919187,6.8024339,09/03/2023,3.0,Eier (Selveier),4550,Farsund
Kjerrheia 10D,2290000,63,3.0,1967.0,Leilighet,https://www.finn.no/realestate/homes/ad.html?finnkode=294105470,36349,58.1266799,7.958042,09/03/2023,4.0,Andel,4621,Kristiansand S
Prost Holms vei 193,3100000,57,2.0,1985.0,Leilighet,https://www.finn.no/realestate/homes/ad.html?finnkode=294084749,54385,59.9912961,11.036757,09/03/2023,1.0,Andel,2019,Skedsmokorset
Gjettumtunet 17,2720000,70,3.0,1984.0,Leilighet,https://www.finn.no/realestate/homes/ad.html?finnkode=294106196,38857,59.906372,10.529953,09/03/2023,2.0,Andel,1346,Gjettum
Hertug Guthorms gate 25 D,2200000,47,2.0,1979.0,Leilighet,https://www.finn.no/realestate/homes/ad.html?finnkode=294105965,46808,59.2719612,10.4069092,09/03/2023,1.0,Andel,3111,Tønsberg
Skorkeberg alle 13D,2900000,56,2.0,1990.0,Leilighet,https://www.finn.no/realestate/homes/ad.html?finnkode=293980940,51785,59.6594102,10.6463398,09/03/2023,1.0,Andel,1447,Drøbak
Berglyveien 7,2190000,65,3.0,1953.0,Leilighet,https://www.finn.no/realestate/homes/ad.html?finnkode=294103467,33692,59.1127422,11.3925142,09/03/2023,2.0,Andel,1768,Halden
Krokenveien,1720000,387,,1960.0,Produksjon/Industri,https://www.finn.no/realestate/homes/ad.html?finnkode=294105890,4444,58.9678245,9.1579666,09/03/2023,,Eier (Selveier),1661,Neslandsvatn
Rasmus Winderens vei 6,16500000,187,,1931.0,Tomannsbolig,https://www.finn.no/realestate/homes/ad.html?finnkode=293491543,88235,59.940491,10.714869,09/03/2023,2.0,Eier (Selveier),373,Oslo
Brødbølvegen 539,2550000,161,,1944.0,Enebolig,https://www.finn.no/realestate/homes/ad.html?finnkode=294105710,15838,60.0557273,12.3717021,09/03/2023,,Eier (Selveier),2224,Austmarka
Laboveien 8,4500000,126,5.0,1954.0,Leilighet,https://www.finn.no/realestate/homes/ad.html?finnkode=294105309,35714,59.9784248,10.9645027,09/03/2023,1.0,Eier (Selveier),2013,Skjetten
Mellombølgen 18,3990000,57,3.0,1959.0,Leilighet,https://www.finn.no/realestate/homes/ad.html?finnkode=294010921,70000,59.866476,10.817291,09/03/2023,1.0,Andel,1157,Oslo
Mor Smes Veg 7J,4500000,128,5.0,1965.0,Rekkehus,https://www.finn.no/realestate/homes/ad.html?finnkode=294105102,35156,59.933042,11.064246,09/03/2023,,Eier (Selveier),2008,Fjerdingby
Valsetvegen 10,2990000,129,,1985.0,Leilighet,https://www.finn.no/realestate/homes/ad.html?finnkode=294104612,23178,60.6731315,10.8118632,09/03/2023,2.0,Eier (Selveier),2850,Lena
Industrivegen 7,2100000,80,3.0,2006.0,Leilighet,https://www.finn.no/realestate/homes/ad.html?finnkode=294100344,26250,61.8765553,9.1067331,09/03/2023,2.0,Eier (Selveier),2680,Vågå
Otto Sogns vei 13,3650000,79,3.0,1963.0,Leilighet,https://www.finn.no/realestate/homes/ad.html?finnkode=283979479,46202,59.899833,10.817325,09/03/2023,2.0,Andel,681,Oslo
Trøffelveien 42,2690000,86,,2008.0,Leilighet,https://www.finn.no/realestate/homes/ad.html?finnkode=294103757,31279,58.4412226,8.7140648,09/03/2023,2.0,Eier (Selveier),4824,Bjorbekk
Heiamarka 13,2500000,90,,1900.0,Enebolig,https://www.finn.no/realestate/homes/ad.html?finnkode=249956826,27777,58.7201744,5.5814439,09/03/2023,3.0,Eier (Selveier),4343,Orre
Spinnargata 8,3990000,214,5.0,1958.0,Enebolig,https://www.finn.no/realestate/homes/ad.html?finnkode=294103719,18644,58.844891,5.7477692,09/03/2023,3.0,Eier (Selveier),4306,Sandnes
Gravarverket 5,4950000,75,3.0,2021.0,Leilighet,https://www.finn.no/realestate/homes/ad.html?finnkode=294103483,66000,58.848032,5.742878,09/03/2023,3.0,Eier (Selveier),4327,Sandnes
Tyholtveien 51,11800000,285,5.0,1927.0,Tomannsbolig,https://www.finn.no/realestate/homes/ad.html?finnkode=294103174,41403,63.4267354,10.4232265,09/03/2023,,Eier (Selveier),7052,Trondheim
Strandgaten 207,2590000,42,1.0,1954.0,Leilighet,https://www.finn.no/realestate/homes/ad.html?finnkode=293440287,61666,60.3979891,5.3109365,09/03/2023,2.0,Eier (Selveier),5004,Bergen
Nyvegen 14,7500000,194,4.0,1984.0,Enebolig,https://www.finn.no/realestate/homes/ad.html?finnkode=293078850,38659,60.2869366,11.174426,09/03/2023,,Eier (Selveier),2070,Råholt
Ullevålsveien 7,5800000,69,2.0,1991.0,Leilighet,https://www.finn.no/realestate/homes/ad.html?finnkode=292596036,84057,59.919186,10.74342,09/03/2023,6.0,Eier (Selveier),165,Oslo
Solholmsveien 1,1990000,65,,1956.0,Leilighet,https://www.finn.no/realestate/homes/ad.html?finnkode=294101717,30615,58.1485745,7.9665668,09/03/2023,4.0,Andel,4617,Kristiansand S
Edvard Myhres veg 1,1390000,64,,1968.0,Leilighet,https://www.finn.no/realestate/homes/ad.html?finnkode=294100861,21718,59.1486466,9.6127189,09/03/2023,1.0,Andel,3738,Skien
Braarudveien 95,3100000,78,4.0,2023.0,Tomannsbolig,https://www.finn.no/realestate/homes/ad.html?finnkode=294095682,39743,59.476877,11.664078,09/03/2023,2.0,Eier (Selveier),1870,Ørje
Frøsetløkkja 41,1990000,125,4.0,1989.0,Tomannsbolig,https://www.finn.no/realestate/homes/ad.html?finnkode=294046538,15920,63.039144,10.307319,09/03/2023,,Andel,7290,Støren
Tømmervågen 41,3890000,82,,2007.0,Leilighet,https://www.finn.no/realestate/homes/ad.html?finnkode=288693396,47439,60.4422424,5.2997486,09/03/2023,,Andel,5101,Eidsvågneset
Elleskjærveien 3B,4560000,73,3.0,1980.0,Leilighet,https://www.finn.no/realestate/homes/ad.html?finnkode=274958939,62465,59.64583,10.637037,09/03/2023,,Eier (Selveier),1444,Drøbak
Kirkeveien 10,4975000,181,,1933.0,Tomannsbolig,https://www.finn.no/realestate/homes/ad.html?finnkode=294100056,27486,59.2925721,11.0995442,09/03/2023,3.0,Eier (Selveier),1710,Sarpsborg
Mannsverk 54,3190000,92,3.0,1958.0,Leilighet,https://www.finn.no/realestate/homes/ad.html?finnkode=293897818,34673,60.353967,5.365152,09/03/2023,1.0,Aksje,5094,Bergen
Hutaheiti 12,2800000,97,4.0,1890.0,Enebolig,https://www.finn.no/realestate/homes/ad.html?finnkode=294099073,28865,58.4660158,8.7857539,09/03/2023,,Eier (Selveier),4842,Arendal
Sirius 38,6150000,188,,1975.0,Enebolig,https://www.finn.no/realestate/homes/ad.html?finnkode=294099166,32712,60.8136089,11.0503392,09/03/2023,,Eier (Selveier),2315,Hamar
Åråsveien 14,2500000,46,,1998.0,Leilighet,https://www.finn.no/realestate/homes/ad.html?finnkode=294098701,54347,59.967611,11.054311,09/03/2023,2.0,Andel,2007,Kjeller
Kårtorpvegen 49A,4120000,223,6.0,1967.0,Enebolig,https://www.finn.no/realestate/homes/ad.html?finnkode=290060640,18475,60.820117,11.054493,09/03/2023,2.0,Eier (Selveier),2320,Furnes
Skolegata 4B,3300000,54,3.0,2008.0,Leilighet,https://www.finn.no/realestate/homes/ad.html?finnkode=294067892,61111,59.9502708,11.0124381,09/03/2023,3.0,Andel,2010,Strømmen
Sverres vei 12,3300000,76,3.0,1965.0,Leilighet,https://www.finn.no/realestate/homes/ad.html?finnkode=293019268,43421,59.9261846,10.9573142,09/03/2023,4.0,Andel,1473,Lørenskog
Trondheimsvegen - Jessheim 96,1680000,37,2.0,2009.0,Leilighet,https://www.finn.no/realestate/homes/ad.html?finnkode=290083682,45405,60.144088,11.169176,09/03/2023,5.0,Andel,2050,Jessheim
Nystuvegen 7C,3790000,71,3.0,1993.0,Leilighet,https://www.finn.no/realestate/homes/ad.html?finnkode=293979953,53380,60.8044241,11.0282248,09/03/2023,1.0,Eier (Selveier),2316,Hamar
Tverrvegen 1,799000,78,,2022.0,Leilighet,https://www.finn.no/realestate/homes/ad.html?finnkode=285424815,10243,64.469177,11.506118,09/03/2023,1.0,Andel,7803,Namsos
Sverre Iversens vei 17,2900000,60,2.0,1974.0,Leilighet,https://www.finn.no/realestate/homes/ad.html?finnkode=294025253,48333,59.970233,10.896953,09/03/2023,1.0,Andel,972,Oslo
Kirkeveien 192,3975000,86,,2012.0,Leilighet,https://www.finn.no/realestate/homes/ad.html?finnkode=294096859,46220,58.4358439,8.7439934,09/03/2023,6.0,Eier (Selveier),4817,His
Øyaveien 34,4200000,198,5.0,1970.0,Enebolig,https://www.finn.no/realestate/homes/ad.html?finnkode=292112882,21212,59.959518,9.9967689,09/03/2023,3.0,Eier (Selveier),3370,Vikersund
Johan Arnt Høiseths veg 45,3990000,90,4.0,2019.0,Rekkehus,https://www.finn.no/realestate/homes/ad.html?finnkode=293215209,44333,63.347685,10.321997,09/03/2023,1.0,Eier (Selveier),7089,Heimdal
Gunnar Schjelderups vei 15C,7890000,93,4.0,1988.0,Leilighet,https://www.finn.no/realestate/homes/ad.html?finnkode=294096626,84838,59.950158,10.773704,09/03/2023,,Eier (Selveier),485,Oslo
Vilhelm Bjerknes' vei 53,3100000,71,3.0,1959.0,Leilighet,https://www.finn.no/realestate/homes/ad.html?finnkode=293876196,43661,60.348126,5.359291,09/03/2023,3.0,Andel,5081,Bergen
Kaldbekkhagan 7,4600000,216,6.0,1987.0,Enebolig,https://www.finn.no/realestate/homes/ad.html?finnkode=294037589,21296,60.8970338,10.9512928,09/03/2023,3.0,Eier (Selveier),2386,Brumunddal
Kannikgata 27,6500000,446,,1902.0,Tomannsbolig,https://www.finn.no/realestate/homes/ad.html?finnkode=294089851,14573,58.9645063,5.7259763,09/03/2023,,Eier (Selveier),4008,Stavanger
Jøriberget 6,5950000,188,,2002.0,Enebolig,https://www.finn.no/realestate/homes/ad.html?finnkode=293984484,31648,63.097957,7.8089715,09/03/2023,,Eier (Selveier),6520,Frei
Blomstervegen 29D,5300000,99,4.0,1973.0,Rekkehus,https://www.finn.no/realestate/homes/ad.html?finnkode=293433374,53535,59.9392106,11.0586319,09/03/2023,,Eier (Selveier),2005,Rælingen
Lenes ås 4,2490000,204,,1949.0,Enebolig,https://www.finn.no/realestate/homes/ad.html?finnkode=294095954,12205,59.0045231,9.7447251,09/03/2023,,Eier (Selveier),3970,Langesund
Totenvegen,6000000,342,8.0,1987.0,Gårdsbruk/Småbruk,https://www.finn.no/realestate/homes/ad.html?finnkode=294095968,17543,60.6473943,11.0260102,09/03/2023,3.0,Eier (Selveier),1291,Skreia
Eivind Nielsens gate 16B,2590000,110,4.0,1992.0,Tomannsbolig,https://www.finn.no/realestate/homes/ad.html?finnkode=294088985,23545,59.4070766,5.302287,09/03/2023,,Eier (Selveier),5532,Haugesund
Brattåsvegen 262,2990000,143,,1962.0,Enebolig,https://www.finn.no/realestate/homes/ad.html?finnkode=287139830,20909,59.0881666,9.6869598,09/03/2023,,Eier (Selveier),3942,Porsgrunn
Holmavegen 15,3550000,162,,2010.0,Enebolig,https://www.finn.no/realestate/homes/ad.html?finnkode=294094161,21913,59.9244759,5.7973332,09/03/2023,,Eier (Selveier),5462,Herøysundet
Ringgata 7,4200000,179,,1958.0,Enebolig,https://www.finn.no/realestate/homes/ad.html?finnkode=294095481,23463,68.8011288,16.5310362,09/03/2023,,Eier (Selveier),9405,Harstad
Skarahødden 73,4890000,157,7.0,2002.0,Enebolig,https://www.finn.no/realestate/homes/ad.html?finnkode=294095486,31146,58.8396129,5.7702145,09/03/2023,2.0,Eier (Selveier),4326,Sandnes
Eikelia 8,6400000,221,,1994.0,Enebolig,https://www.finn.no/realestate/homes/ad.html?finnkode=294095239,28959,59.0857727,9.6929838,09/03/2023,,Eier (Selveier),3943,Porsgrunn
Sandbukta 41,5300000,212,5.0,1987.0,Enebolig,https://www.finn.no/realestate/homes/ad.html?finnkode=252220783,25000,58.63155475000001,9.134233536139996,09/03/2023,2.0,Eier (Selveier),4910,Lyngør
Olav Engelbrektssons alle 40,2790000,52,,1955.0,Leilighet,https://www.finn.no/realestate/homes/ad.html?finnkode=294094469,53653,63.4489223,10.4585498,09/03/2023,4.0,Andel,7040,Trondheim
Skjeneholen 41,4390000,103,4.0,2001.0,Leilighet,https://www.finn.no/realestate/homes/ad.html?finnkode=294094476,42621,58.8657347,5.7169393,09/03/2023,5.0,Eier (Selveier),4313,Sandnes
Lerkerinden 61,3150000,57,3.0,2012.0,Leilighet,https://www.finn.no/realestate/homes/ad.html?finnkode=293980362,55263,60.3417705,5.3650565,09/03/2023,3.0,Eier (Selveier),5099,Bergen
Hjalmar Brantings vei 105,3790000,92,3.0,1973.0,Leilighet,https://www.finn.no/realestate/homes/ad.html?finnkode=293471479,41195,60.3455353,5.290644,09/03/2023,3.0,Andel,5143,Fyllingsdalen
Siriskjeret 4,2600000,43,2.0,2008.0,Leilighet,https://www.finn.no/realestate/homes/ad.html?finnkode=294093663,60465,58.9676533,5.7600094,09/03/2023,1.0,Eier (Selveier),4014,Stavanger
Stavangergata 46A,2790000,17,1.0,1955.0,Leilighet,https://www.finn.no/realestate/homes/ad.html?finnkode=294070423,164117,59.944407,10.758821,09/03/2023,3.0,Andel,467,Oslo
Kornveien 7,2950000,166,,1962.0,Enebolig,https://www.finn.no/realestate/homes/ad.html?finnkode=294093220,17771,59.4324522,11.3437154,09/03/2023,,Eier (Selveier),1890,Rakkestad
Kvitura 138,9950000,232,,1993.0,Enebolig,https://www.finn.no/realestate/homes/ad.html?finnkode=294092724,42887,60.3106289,5.2074593,09/03/2023,,Eier (Selveier),5252,Søreidgrend
Solveig Abrahamsens veg 40B,5850000,118,,2021.0,Rekkehus,https://www.finn.no/realestate/homes/ad.html?finnkode=280264894,49576,63.419134,10.551033,09/03/2023,,Eier (Selveier),7054,Ranheim
Olav Aukrusts veg 7F,4100000,118,,1967.0,Rekkehus,https://www.finn.no/realestate/homes/ad.html?finnkode=294087045,34745,63.3954283,10.3295851,09/03/2023,,Eier (Selveier),7071,Trondheim
Bjoråvegen 60,1090000,43,,2007.0,Leilighet,https://www.finn.no/realestate/homes/ad.html?finnkode=289742300,25348,58.5785985,7.7884404,09/03/2023,1.0,Eier (Selveier),4735,Evje
Vardestien 9,2500000,177,,1979.0,Enebolig,https://www.finn.no/realestate/homes/ad.html?finnkode=291369969,14124,60.7735667,10.6860957,09/03/2023,,Andel,2817,Gjøvik
Sandviksbodene 2C,12900000,109,,2014.0,Leilighet,https://www.finn.no/realestate/homes/ad.html?finnkode=294089608,118348,60.4061367,5.3221293,09/03/2023,3.0,Eier (Selveier),5035,Bergen
Tunvegen 9,12500000,317,,1988.0,Enebolig,https://www.finn.no/realestate/homes/ad.html?finnkode=294089490,39432,60.3356961,5.3488195,09/03/2023,,Eier (Selveier),5231,Paradis
Spettestubben 4,5990000,221,4.0,1989.0,Enebolig,https://www.finn.no/realestate/homes/ad.html?finnkode=286632838,27104,60.072834,10.998247,09/03/2023,2.0,Eier (Selveier),2022,Gjerdrum
Bruket 13A,4900000,70,2.0,2020.0,Leilighet,https://www.finn.no/realestate/homes/ad.html?finnkode=272245379,70000,59.214068,10.909042,09/03/2023,1.0,Eier (Selveier),1621,Gressvik
Granhaugkroken 16 A Eidsvoll,5490000,159,,2019.0,Rekkehus,https://www.finn.no/realestate/homes/ad.html?finnkode=294089003,34528,60.279987,11.153365,09/03/2023,,Eier (Selveier),2074,Verk
Overhallsvegen 50 C,1290000,83,3.0,1987.0,Tomannsbolig,https://www.finn.no/realestate/homes/ad.html?finnkode=294088748,15542,64.4687694,11.5105323,09/03/2023,1.0,Andel,7803,Namsos
Storvannsveien 92 - 128,1690000,94,,1961.0,Leilighet,https://www.finn.no/realestate/homes/ad.html?finnkode=294088451,17978,70.6644595,23.7066633,09/03/2023,1.0,Andel,9603,Hammerfest
Haugland 116,3500000,245,2.0,1950.0,Enebolig,https://www.finn.no/realestate/homes/ad.html?finnkode=293437644,14285,60.101942,5.223816,09/03/2023,,Eier (Selveier),5392,Storebø
Vågavegen 21A,3190000,101,4.0,1972.0,Leilighet,https://www.finn.no/realestate/homes/ad.html?finnkode=294084387,31584,62.4720775,6.2236229,09/03/2023,4.0,Andel,6008,Ålesund
Linjeveien 40,7190000,310,6.0,1929.0,Tomannsbolig,https://www.finn.no/realestate/homes/ad.html?finnkode=291813550,23193,59.948399,10.918677,09/03/2023,,Eier (Selveier),1087,Oslo
Myratoppen 36,10000000,282,,2000.0,Enebolig,https://www.finn.no/realestate/homes/ad.html?finnkode=293837900,35460,59.2274178,10.9362403,09/03/2023,,Eier (Selveier),1613,Fredrikstad
Dalveien 181,9800000,113,4.0,2022.0,Leilighet,https://www.finn.no/realestate/homes/ad.html?finnkode=294086414,86725,59.284099,11.050408,09/03/2023,,Eier (Selveier),1712,Grålum
Iver Haugans veg 32,2500000,55,,2006.0,Leilighet,https://www.finn.no/realestate/homes/ad.html?finnkode=294085836,45454,63.3602052,10.3564193,09/03/2023,1.0,Eier (Selveier),7088,Heimdal
Mellomila 88,3690000,56,3.0,2004.0,Leilighet,https://www.finn.no/realestate/homes/ad.html?finnkode=294085592,65892,63.4321629,10.3563015,09/03/2023,3.0,Eier (Selveier),7018,Trondheim
Nebbestølen 23,2200000,75,,1972.0,Leilighet,https://www.finn.no/realestate/homes/ad.html?finnkode=294085696,29333,60.353205,5.292982,09/03/2023,3.0,Andel,5033,Bergen
Bjerchs gate 2,3990000,55,2.0,2009.0,Leilighet,https://www.finn.no/realestate/homes/ad.html?finnkode=293987741,72545,59.742613,10.19379,09/03/2023,8.0,Eier (Selveier),3045,Drammen
Funkelbråtan 20,6890000,202,,2021.0,Enebolig,https://www.finn.no/realestate/homes/ad.html?finnkode=262938947,34108,59.919698,11.198176,09/03/2023,,Eier (Selveier),1900,Fetsund
Torvteigen 8,1850000,95,3.0,1985.0,Leilighet,https://www.finn.no/realestate/homes/ad.html?finnkode=294084858,19473,62.4770894,6.2458277,09/03/2023,2.0,Andel,6009,Ålesund
Fritzners gate 3,75000000,571,8.0,1913.0,Enebolig,https://www.finn.no/realestate/homes/ad.html?finnkode=270385225,131348,59.915794,10.705724,09/03/2023,,Eier (Selveier),264,Oslo
Lærums gate 6B,3290000,65,3.0,1950.0,Leilighet,https://www.finn.no/realestate/homes/ad.html?finnkode=293815666,50615,59.733488,10.211483,09/03/2023,1.0,Aksje,3044,Drammen
Gudeberg Allé 18 Gamle,1400000,36,1.0,1960.0,Leilighet,https://www.finn.no/realestate/homes/ad.html?finnkode=294084718,38888,59.20569,10.967169,09/03/2023,,Andel,1632,Fredrikstad
Vågavegen 21A,3190000,101,4.0,1972.0,Leilighet,https://www.finn.no/realestate/homes/ad.html?finnkode=294084387,31584,62.4720775,6.2236229,09/03/2023,4.0,Andel,6008,Ålesund
Skolevegen 11,3150000,139,,1997.0,Enebolig,https://www.finn.no/realestate/homes/ad.html?finnkode=294083411,22661,58.5045406,8.6520825,09/03/2023,,Eier (Selveier),4820,Froland
Lensmann Haaversens vei 4,3890000,108,,1988.0,Rekkehus,https://www.finn.no/realestate/homes/ad.html?finnkode=288983600,36018,59.987208,11.0339346,09/03/2023,,Andel,2019,Skedsmokorset
Brustugguvegen 3 Hovin i,2650000,90,3.0,2018.0,Leilighet,https://www.finn.no/realestate/homes/ad.html?finnkode=290822149,29444,63.105623,10.209133,09/03/2023,1.0,Eier (Selveier),7236,Gauldal
Moses vei 20,7000000,150,5.0,1995.0,Enebolig,https://www.finn.no/realestate/homes/ad.html?finnkode=279271270,46666,59.6716171,10.654254,09/03/2023,2.0,Eier (Selveier),1448,Drøbak
Nylendvegen 7,7500000,193,,1912.0,Enebolig,https://www.finn.no/realestate/homes/ad.html?finnkode=294083096,38860,60.8053076,11.0790915,09/03/2023,,Eier (Selveier),2318,Hamar
Slettheiveien 37,1390000,78,,1971.0,Leilighet,https://www.finn.no/realestate/homes/ad.html?finnkode=294082899,17820,58.1369238,7.9394981,09/03/2023,9.0,Andel,4626,Kristiansand S
Steinkjersannan 7 D,1450000,68,,2006.0,Leilighet,https://www.finn.no/realestate/homes/ad.html?finnkode=293951563,21323,64.0096154,11.5037346,09/03/2023,2.0,Andel,7713,Steinkjer
Veradammen 19,7750000,107,,2023.0,Leilighet,https://www.finn.no/realestate/homes/ad.html?finnkode=294080651,72429,59.111004,10.238553,09/03/2023,4.0,Eier (Selveier),3219,Sandefjord
Støperigata 15,3800000,86,,2016.0,Leilighet,https://www.finn.no/realestate/homes/ad.html?finnkode=294082098,44186,59.767448,9.913874,09/03/2023,1.0,Eier (Selveier),3300,Hokksund
Breimyrkollen 7,3550000,156,4.0,1983.0,Tomannsbolig,https://www.finn.no/realestate/homes/ad.html?finnkode=269428238,22756,58.1463747,7.9253623,09/03/2023,3.0,Eier (Selveier),4628,Kristiansand S
Øvre Bergsvingen 11,3990000,71,4.0,1949.0,Leilighet,https://www.finn.no/realestate/homes/ad.html?finnkode=293231048,56197,63.4177975,10.4249154,09/03/2023,2.0,Eier (Selveier),7052,Trondheim
Solheimslien 20A,1290000,34,2.0,2018.0,Leilighet,https://www.finn.no/realestate/homes/ad.html?finnkode=294079795,37941,60.376332,5.325759,09/03/2023,1.0,Andel,5056,Bergen
Anders Haarstads veg 11C,4500000,195,3.0,1977.0,Enebolig,https://www.finn.no/realestate/homes/ad.html?finnkode=294018761,23076,63.3473392,10.3682535,09/03/2023,,Eier (Selveier),7072,Heimdal
Skaret 5,5950000,278,,1979.0,Enebolig,https://www.finn.no/realestate/homes/ad.html?finnkode=294080840,21402,58.8426093,5.7685654,09/03/2023,,Eier (Selveier),4326,Sandnes
Nedberget 25,4990000,181,6.0,1978.0,Enebolig,https://www.finn.no/realestate/homes/ad.html?finnkode=294069234,27569,60.3829222,5.2323114,09/03/2023,,Eier (Selveier),5178,Loddefjord
Lidarende 1,3790000,99,4.0,1972.0,Leilighet,https://www.finn.no/realestate/homes/ad.html?finnkode=292393375,38282,63.4150653,10.4367489,09/03/2023,1.0,Andel,7050,Trondheim
Strandvegen 27 C,1490000,67,3.0,2006.0,Leilighet,https://www.finn.no/realestate/homes/ad.html?finnkode=278018672,22238,64.4638327,11.4787095,09/03/2023,1.0,Andel,7802,Namsos
Vågavegen 417,1790000,293,,1971.0,Enebolig,https://www.finn.no/realestate/homes/ad.html?finnkode=293987748,6109,63.896643,11.18637,09/03/2023,,Eier (Selveier),7670,Inderøy
Strandvegen 45,6300000,223,10.0,1955.0,Enebolig,https://www.finn.no/realestate/homes/ad.html?finnkode=250850640,28251,69.641795,18.941015,09/03/2023,,Eier (Selveier),9007,Tromsø
Orødgrenda 2A,3700000,118,4.0,2017.0,Rekkehus,https://www.finn.no/realestate/homes/ad.html?finnkode=293970702,31355,59.116301,11.430887,09/03/2023,,Eier (Selveier),1793,Tistedal
Brusemyrtoppen 35D,2400000,102,,1979.0,Rekkehus,https://www.finn.no/realestate/homes/ad.html?finnkode=293956124,23529,59.2738019,11.1704529,09/03/2023,,Andel,1739,Borgenhaugen
Frostaveien 1,2490000,48,2.0,1940.0,Leilighet,https://www.finn.no/realestate/homes/ad.html?finnkode=293465499,51875,63.435502,10.425058,09/03/2023,3.0,Andel,7014,Trondheim
Vestengaten 48B,3290000,110,3.0,1910.0,Enebolig,https://www.finn.no/realestate/homes/ad.html?finnkode=294073053,29909,59.2650848,11.0646553,09/03/2023,2.0,Eier (Selveier),1659,Torp
Mariskovegen 24,3990000,128,,2018.0,Enebolig,https://www.finn.no/realestate/homes/ad.html?finnkode=231997410,31171,58.263285,7.946493,09/03/2023,,Eier (Selveier),4706,Vennesla
Dyngvollveien 17,2150000,223,,1956.0,Enebolig,https://www.finn.no/realestate/homes/ad.html?finnkode=260778133,9641,58.0950432,6.6861189,09/03/2023,,Eier (Selveier),4560,Vanse
Høgsetgrenda 1 B,5190000,169,4.0,1996.0,Tomannsbolig,https://www.finn.no/realestate/homes/ad.html?finnkode=293304944,30710,63.383153,10.329963,09/03/2023,,Eier (Selveier),7026,Trondheim
Verven 2B,1662000,21,1.0,2003.0,Leilighet,https://www.finn.no/realestate/homes/ad.html?finnkode=283122166,79142,58.971802,5.747349,09/03/2023,3.0,Eier (Selveier),4014,Stavanger
Hamang terrasse 77,4350000,73,2.0,1983.0,Leilighet,https://www.finn.no/realestate/homes/ad.html?finnkode=294076328,59589,59.895404,10.503744,09/03/2023,2.0,Eier (Selveier),1336,Sandvika
Ladeveien 17,4990000,89,,2018.0,Leilighet,https://www.finn.no/realestate/homes/ad.html?finnkode=294076086,56067,63.442965,10.4361,09/03/2023,2.0,Eier (Selveier),7066,Trondheim
Lademoens Kirkealle 18,3190000,45,,1939.0,Leilighet,https://www.finn.no/realestate/homes/ad.html?finnkode=294076046,70888,63.4384068,10.4327668,09/03/2023,1.0,Eier (Selveier),7067,Trondheim
Hammerstads gate 7,4000000,34,2.0,1994.0,Leilighet,https://www.finn.no/realestate/homes/ad.html?finnkode=293875562,117647,59.928311,10.723205,09/03/2023,2.0,Eier (Selveier),363,Oslo
Langårdvegen 1,4350000,137,,2000.0,Enebolig,https://www.finn.no/realestate/homes/ad.html?finnkode=293856398,31751,59.2318835,9.5924107,09/03/2023,,Eier (Selveier),3716,Skien
Gjerdebakken 40,1275000,73,3.0,2022.0,Leilighet,https://www.finn.no/realestate/homes/ad.html?finnkode=288906021,17465,58.986345,5.688708,09/03/2023,3.0,Andel,4027,Stavanger
Strandvegen 116B,2300000,64,3.0,2020.0,Leilighet,https://www.finn.no/realestate/homes/ad.html?finnkode=289755008,35937,69.634373,18.929461,09/03/2023,5.0,Andel,9006,Tromsø
Nedre Bakklandet 56,5650000,67,3.0,2009.0,Leilighet,https://www.finn.no/realestate/homes/ad.html?finnkode=263225886,84328,63.4314624,10.4063488,09/03/2023,3.0,Eier (Selveier),7014,Trondheim
