address,price,area,rooms,year,type,url,price_per_m2,lat,lon,date,floor,ownership,postal_code,city
Plassen 19,2300000,46,,1929.0,Leilighet,https://www.finn.no/realestate/homes/ad.html?finnkode=300714074,50000,61.231356,7.098767,04/05/2023,,Eier (Selveier),6856,Sogndal
Ragnvald Westbøes gate 1,2590000,88,3.0,2011.0,Leilighet,https://www.finn.no/realestate/homes/ad.html?finnkode=301826973,29431,59.4084264,5.3296673,04/05/2023,3.0,Eier (Selveier),5534,Haugesund
Våkleivbakken 60,6650000,136,4.0,1983.0,Rekkehus,https://www.finn.no/realestate/homes/ad.html?finnkode=301813278,48897,60.3272972,5.2877484,04/05/2023,2.0,Eier (Selveier),5155,Bønes
Valløveien 8B,4350000,109,4.0,2008.0,Leilighet,https://www.finn.no/realestate/homes/ad.html?finnkode=301784576,39908,59.2748039,10.4563015,04/05/2023,,Eier (Selveier),3151,Tolvsrød
Grevinneveien 21,4100000,103,6.0,1951.0,Leilighet,https://www.finn.no/realestate/homes/ad.html?finnkode=301727566,39805,59.278985,10.4225203,04/05/2023,2.0,Eier (Selveier),3117,Tønsberg
Øvre Storgate 134,4790000,73,3.0,2018.0,Leilighet,https://www.finn.no/realestate/homes/ad.html?finnkode=301806566,65616,59.748564,10.176921,04/05/2023,1.0,Eier (Selveier),3018,Drammen
Slåttvegen 45,5390000,178,8.0,1988.0,Enebolig,https://www.finn.no/realestate/homes/ad.html?finnkode=301854639,30280,60.8088183,11.3462656,04/05/2023,,Eier (Selveier),2340,Løten
Tomtegata 10A,3450000,37,2.0,2006.0,Leilighet,https://www.finn.no/realestate/homes/ad.html?finnkode=301791404,93243,59.740924,10.216343,04/05/2023,3.0,Eier (Selveier),3015,Drammen
Jupiters vei 11,4450000,186,,1976.0,Enebolig,https://www.finn.no/realestate/homes/ad.html?finnkode=301855118,23924,70.6888508,23.6922936,04/05/2023,,Eier (Selveier),9602,Hammerfest
Nordraaks vei 13A,13750000,268,,1990.0,Enebolig,https://www.finn.no/realestate/homes/ad.html?finnkode=301853438,51305,59.91394,10.627061,04/05/2023,,Eier (Selveier),1369,Stabekk
Wilhelmsmyrvegen 1 A,3090000,71,3.0,1962.0,Leilighet,https://www.finn.no/realestate/homes/ad.html?finnkode=301787962,43521,63.355089,10.353352,04/05/2023,1.0,Andel,7088,Heimdal
Hustuftene 17A,2200000,48,2.0,1974.0,Leilighet,https://www.finn.no/realestate/homes/ad.html?finnkode=301657558,45833,58.9431251,5.6876023,04/05/2023,1.0,Andel,4041,Hafrsfjord
Odden 1B,5390000,87,3.0,2022.0,Leilighet,https://www.finn.no/realestate/homes/ad.html?finnkode=301511755,61954,58.338615,8.59359,04/05/2023,2.0,Eier (Selveier),4876,Grimstad
Kvernslåttvegen 17,3990000,65,3.0,2005.0,Leilighet,https://www.finn.no/realestate/homes/ad.html?finnkode=301804310,61384,60.2984898,5.3125907,04/05/2023,3.0,Eier (Selveier),5237,Rådal
Blålyngveien 38,7290000,204,7.0,1997.0,Enebolig,https://www.finn.no/realestate/homes/ad.html?finnkode=301850147,35735,58.9978115,5.6511321,04/05/2023,,Eier (Selveier),4072,Randaberg
Alstadenga 16 A,4980000,115,,2004.0,Leilighet,https://www.finn.no/realestate/homes/ad.html?finnkode=301818292,43304,67.2732494,14.4650923,04/05/2023,,Eier (Selveier),8071,Bodø
Ovenbakken 12A,4400000,53,2.0,1967.0,Leilighet,https://www.finn.no/realestate/homes/ad.html?finnkode=301849835,83018,59.9411449,10.6067184,04/05/2023,1.0,Andel,1361,Østerås
Huldreveien 37,3290000,65,2.0,1969.0,Leilighet,https://www.finn.no/realestate/homes/ad.html?finnkode=301813758,50615,59.8217495,10.4298279,04/05/2023,-2.0,Eier (Selveier),1388,Borgen
Julianus Holms veg 20,2790000,29,2.0,2016.0,Leilighet,https://www.finn.no/realestate/homes/ad.html?finnkode=301674302,96206,63.4434473,10.4591735,04/05/2023,4.0,Eier (Selveier),7041,Trondheim
Gangsåsveien 37,5000000,237,,1988.0,Enebolig,https://www.finn.no/realestate/homes/ad.html?finnkode=301849011,21097,68.7914145,16.5585129,04/05/2023,,Eier (Selveier),9408,Harstad
Selvbyggerveien 193B,14590000,272,6.0,1992.0,Enebolig,https://www.finn.no/realestate/homes/ad.html?finnkode=292258131,53639,59.944173,10.825284,04/05/2023,,Eier (Selveier),591,Oslo
Blåbærdalen 46,1990000,139,,2016.0,Enebolig,https://www.finn.no/realestate/homes/ad.html?finnkode=301845160,14316,63.126864,7.801336,04/05/2023,,Andel,6518,Kristiansund N
Rødtvetveien 22,3150000,39,1.0,1961.0,Leilighet,https://www.finn.no/realestate/homes/ad.html?finnkode=301708399,80769,59.953053,10.859582,04/05/2023,7.0,Andel,955,Oslo
Fasanveien 35E,3650000,82,3.0,2016.0,Leilighet,https://www.finn.no/realestate/homes/ad.html?finnkode=301642666,44512,59.286486,11.091128,04/05/2023,2.0,Eier (Selveier),1711,Sarpsborg
Vestlisvingen 72,2850000,64,2.0,1973.0,Leilighet,https://www.finn.no/realestate/homes/ad.html?finnkode=301847862,44531,59.96973,10.924874,04/05/2023,1.0,Eier (Selveier),969,Oslo
Lumbertoppen 15,4100000,82,,2019.0,Leilighet,https://www.finn.no/realestate/homes/ad.html?finnkode=301847391,50000,58.123468,7.964688,04/05/2023,1.0,Eier (Selveier),4621,Kristiansand S
Hagvågen 1,2400000,177,5.0,1972.0,Enebolig,https://www.finn.no/realestate/homes/ad.html?finnkode=301829816,13559,68.256587,13.783421,04/05/2023,2.0,Eier (Selveier),8360,Bøstad
Leitevegen 26,4850000,151,5.0,1962.0,Enebolig,https://www.finn.no/realestate/homes/ad.html?finnkode=301845915,32119,61.2346559,7.0996865,04/05/2023,,Eier (Selveier),6856,Sogndal
Ulstadløkkveien 24,2590000,44,,1918.0,Leilighet,https://www.finn.no/realestate/homes/ad.html?finnkode=301844369,58863,63.4384098,10.4266815,04/05/2023,2.0,Andel,7067,Trondheim
Sigurd Østliens veg 14B,2200000,82,,1996.0,Enebolig,https://www.finn.no/realestate/homes/ad.html?finnkode=285876952,26829,60.7219796,10.61502,04/05/2023,,Eier (Selveier),2830,Raufoss
Myrvegen 16B,2250000,76,3.0,1970.0,Leilighet,https://www.finn.no/realestate/homes/ad.html?finnkode=301824264,29605,65.8261897,13.2204127,04/05/2023,3.0,Andel,8661,Mosjøen
Buøy Ring 47,3390000,96,5.0,1955.0,Tomannsbolig,https://www.finn.no/realestate/homes/ad.html?finnkode=301842519,35312,58.9877494,5.7367726,04/05/2023,2.0,Eier (Selveier),4077,Hundvåg
Skaustuløkka 8,6000000,235,7.0,1978.0,Enebolig,https://www.finn.no/realestate/homes/ad.html?finnkode=301842506,25531,59.1333542,10.2584134,04/05/2023,2.0,Eier (Selveier),3218,Sandefjord
Damstredet 12C,14000000,148,5.0,1847.0,Enebolig,https://www.finn.no/realestate/homes/ad.html?finnkode=299650601,94594,59.919861,10.74765,04/05/2023,,Eier (Selveier),177,Oslo
Styrmannsvegen 2,2100000,102,4.0,1972.0,Leilighet,https://www.finn.no/realestate/homes/ad.html?finnkode=277591124,20588,69.6870235,18.9496056,04/05/2023,1.0,Andel,9014,Tromsø
NORDLIVEIEN 2,1100000,166,,1963.0,Enebolig,https://www.finn.no/realestate/homes/ad.html?finnkode=301608612,6626,69.1548047,18.1709157,04/05/2023,,Eier (Selveier),9310,Sørreisa
Teglverkstunet 5B,1990000,28,,1973.0,Leilighet,https://www.finn.no/realestate/homes/ad.html?finnkode=301840672,71071,63.415212,10.450331,04/05/2023,3.0,Andel,7069,Trondheim
Kneiken 2,3100000,94,,1954.0,Leilighet,https://www.finn.no/realestate/homes/ad.html?finnkode=301840684,32978,62.4735243,6.1841905,04/05/2023,2.0,Eier (Selveier),6007,Ålesund
P.A. Munchs gate 5,4250000,65,,1954.0,Leilighet,https://www.finn.no/realestate/homes/ad.html?finnkode=301796656,65384,63.4137642,10.4023845,04/05/2023,2.0,Andel,7030,Trondheim
Sandslimarka 265,3600000,63,3.0,2019.0,Leilighet,https://www.finn.no/realestate/homes/ad.html?finnkode=301816371,57142,60.295889,5.280757,04/05/2023,1.0,Eier (Selveier),5254,Sandsli
Uvdalsvegen,900000,155,,1941.0,Enebolig,https://www.finn.no/realestate/homes/ad.html?finnkode=301527388,5806,60.269492,8.735123,04/05/2023,,Eier (Selveier),1270,Uvdal
Snøhvitvegen 1,2500000,134,4.0,1975.0,Rekkehus,https://www.finn.no/realestate/homes/ad.html?finnkode=301667635,18656,60.2058577,11.9753054,04/05/2023,,Andel,2212,Kongsvinger
Agentgaten 3,4950000,73,,2008.0,Leilighet,https://www.finn.no/realestate/homes/ad.html?finnkode=301776539,67808,59.212646,10.936272,04/05/2023,,Eier (Selveier),1607,Fredrikstad
Rødbergveien 120E,7200000,83,3.0,1983.0,Rekkehus,https://www.finn.no/realestate/homes/ad.html?finnkode=301838517,86746,59.944853,10.835831,04/05/2023,,Andel,593,Oslo
Edvard Munchs vei 51,3330000,58,,1982.0,Leilighet,https://www.finn.no/realestate/homes/ad.html?finnkode=301711876,57413,59.935993,10.915705,04/05/2023,,Eier (Selveier),1063,Oslo
Kurlandstien 6,4500000,121,4.0,1979.0,Leilighet,https://www.finn.no/realestate/homes/ad.html?finnkode=301838184,37190,59.941411,10.891922,04/05/2023,3.0,Andel,1052,Oslo
Elvegata 43,11800000,177,,2010.0,Enebolig,https://www.finn.no/realestate/homes/ad.html?finnkode=301536122,66666,59.962426,11.0320515,04/05/2023,,Eier (Selveier),2003,Lillestrøm
Rådhusgata 5,2090000,77,3.0,1946.0,Leilighet,https://www.finn.no/realestate/homes/ad.html?finnkode=301675987,27142,63.686606,9.665057,04/05/2023,2.0,Eier (Selveier),7130,Brekstad
Bergheimsvegen 32,3990000,78,3.0,1998.0,Leilighet,https://www.finn.no/realestate/homes/ad.html?finnkode=301829088,51153,63.408024,10.456329,04/05/2023,2.0,Eier (Selveier),7049,Trondheim
Folke Bernadottes vei 32,4450000,52,2.0,1964.0,Leilighet,https://www.finn.no/realestate/homes/ad.html?finnkode=301829382,85576,59.963154,10.737327,04/05/2023,3.0,Andel,862,Oslo
Nesvegen 28B,3390000,129,,1894.0,Enebolig,https://www.finn.no/realestate/homes/ad.html?finnkode=301837090,26279,58.2742976,7.9634656,04/05/2023,,Eier (Selveier),4700,Vennesla
Sørvangen 14F,14850000,152,5.0,2020.0,Rekkehus,https://www.finn.no/realestate/homes/ad.html?finnkode=299332650,97697,59.917133,10.650801,04/05/2023,,Eier (Selveier),282,Oslo
Bryggetorget 11,11500000,100,3.0,1989.0,Leilighet,https://www.finn.no/realestate/homes/ad.html?finnkode=301836597,115000,59.910001,10.724348,04/05/2023,3.0,Eier (Selveier),250,Oslo
K.O. Thornæs' veg 16,3190000,80,4.0,1966.0,Leilighet,https://www.finn.no/realestate/homes/ad.html?finnkode=301683241,39875,63.405169,10.43871,04/05/2023,2.0,Andel,7033,Trondheim
Torgny Segerstedts vei 178,2590000,91,,1973.0,Leilighet,https://www.finn.no/realestate/homes/ad.html?finnkode=301834263,28461,60.345933,5.2942611,04/05/2023,,Andel,5143,Fyllingsdalen
Rystene 8 A,2300000,75,3.0,2001.0,Rekkehus,https://www.finn.no/realestate/homes/ad.html?finnkode=301833931,30666,62.1867259,6.0899848,04/05/2023,,Eier (Selveier),6160,Hovdebygda
SVAEBAKKEN 8,4990000,119,3.0,2020.0,Leilighet,https://www.finn.no/realestate/homes/ad.html?finnkode=301819898,41932,59.4347905,10.666747,04/05/2023,1.0,Eier (Selveier),1532,Moss
Haukedalen 138,3650000,107,4.0,1984.0,Rekkehus,https://www.finn.no/realestate/homes/ad.html?finnkode=301826185,34112,60.4628422,5.2957714,04/05/2023,2.0,Andel,5121,Ulset
Løypeveien 1 b,6150000,82,4.0,1954.0,Leilighet,https://www.finn.no/realestate/homes/ad.html?finnkode=301662684,75000,59.895599,10.842157,04/05/2023,1.0,Andel,685,Oslo
Freserveien 7,3890000,66,3.0,2018.0,Leilighet,https://www.finn.no/realestate/homes/ad.html?finnkode=270124780,58939,59.902654,10.78573,04/05/2023,2.0,Andel,195,Oslo
Sementvegen 2,2090000,172,4.0,1956.0,Tomannsbolig,https://www.finn.no/realestate/homes/ad.html?finnkode=297637383,12151,59.0592909,9.6874802,04/05/2023,1.0,Eier (Selveier),3950,Brevik
Fritz Smiths gate 11,1075000,40,2.0,1880.0,Leilighet,https://www.finn.no/realestate/homes/ad.html?finnkode=288892984,26875,58.6218313,8.9311473,04/05/2023,1.0,Eier (Selveier),4900,Tvedestrand
Oppestølen 42,5400000,200,7.0,2009.0,Enebolig,https://www.finn.no/realestate/homes/ad.html?finnkode=301832190,27000,59.7577404,5.4558489,04/05/2023,,Eier (Selveier),5412,Stord
Trolldalsveien 22,12000000,377,,2023.0,Tomter,https://www.finn.no/realestate/homes/ad.html?finnkode=301832024,31830,59.91002,10.854649,04/05/2023,,Eier (Selveier),672,Oslo
Ivar Kinns vei 9,3300000,164,,1965.0,Enebolig,https://www.finn.no/realestate/homes/ad.html?finnkode=301495338,20121,59.2895684,11.0919665,04/05/2023,,Eier (Selveier),1710,Sarpsborg
Furulund terrasse 10,5990000,283,,1960.0,Enebolig,https://www.finn.no/realestate/homes/ad.html?finnkode=301831899,21166,59.0550916,9.691895,04/05/2023,,Eier (Selveier),3950,Brevik
Skoglygata 4B,2090000,44,2.0,1969.0,Leilighet,https://www.finn.no/realestate/homes/ad.html?finnkode=301806922,47500,59.7446981,10.0116288,04/05/2023,2.0,Eier (Selveier),3050,Mjøndalen
Bjarne Haugens gate 42,1755000,26,1.0,2021.0,Leilighet,https://www.finn.no/realestate/homes/ad.html?finnkode=301823729,67500,59.917345,10.951737,04/05/2023,5.0,Andel,1475,Finstadjordet
Løkkegata 10,3900000,85,3.0,2007.0,Leilighet,https://www.finn.no/realestate/homes/ad.html?finnkode=301769733,45882,61.1189042,10.455649,04/05/2023,1.0,Andel,2615,Lillehammer
Kvartsvegen 14A,5200000,89,4.0,1994.0,Leilighet,https://www.finn.no/realestate/homes/ad.html?finnkode=301763170,58426,59.9349244,11.0564165,04/05/2023,1.0,Eier (Selveier),2008,Fjerdingby
Rådhusgata 6,5225000,111,4.0,1998.0,Leilighet,https://www.finn.no/realestate/homes/ad.html?finnkode=299276466,47072,59.745635,10.203115,04/05/2023,3.0,Andel,3016,Drammen
Syd Georgiagata 20,2250000,48,3.0,1953.0,Leilighet,https://www.finn.no/realestate/homes/ad.html?finnkode=301830430,46875,59.1381009,10.2077225,04/05/2023,2.0,Andel,3238,Sandefjord
Jupiterveien 178,2890000,105,4.0,1977.0,Leilighet,https://www.finn.no/realestate/homes/ad.html?finnkode=297325025,27523,59.7608204,10.0366822,04/05/2023,1.0,Andel,3055,Krokstadelva
Magnus' gate 1A,7180000,91,3.0,1898.0,Leilighet,https://www.finn.no/realestate/homes/ad.html?finnkode=301728380,78901,59.910851,10.773324,04/05/2023,2.0,Andel,650,Oslo
Kristiansands gate 1,2500000,33,,1933.0,Leilighet,https://www.finn.no/realestate/homes/ad.html?finnkode=301829518,75757,59.938103,10.753049,04/05/2023,1.0,Aksje,463,Oslo
Hylliveien 25,2350000,79,,1990.0,Leilighet,https://www.finn.no/realestate/homes/ad.html?finnkode=300862705,29746,59.6176676,11.0762405,04/05/2023,,Andel,1820,Spydeberg
Gartveien 370,2650000,189,,1961.0,Enebolig,https://www.finn.no/realestate/homes/ad.html?finnkode=301829241,14021,63.640732,9.5143019,04/05/2023,,Eier (Selveier),7153,Garten
Utstrandveien 28,2490000,197,,1950.0,Enebolig,https://www.finn.no/realestate/homes/ad.html?finnkode=301828846,12639,63.7278258,9.6069838,04/05/2023,,Eier (Selveier),7142,Uthaug
Erik Pontoppidans gate 6,6800000,142,7.0,1893.0,Leilighet,https://www.finn.no/realestate/homes/ad.html?finnkode=301514613,47887,60.3920464,5.3339311,04/05/2023,4.0,Eier (Selveier),5018,Bergen
Heiveien 13,2750000,249,,1976.0,Enebolig,https://www.finn.no/realestate/homes/ad.html?finnkode=301343971,11044,58.0412251,7.4582675,04/05/2023,,Eier (Selveier),4517,Mandal
Brekkemarkå 36,2196000,90,,2008.0,Tomannsbolig,https://www.finn.no/realestate/homes/ad.html?finnkode=301828068,24400,58.8173941,5.7104073,04/05/2023,,Andel,4322,Sandnes
Tuftebakken 46,4390000,86,4.0,2003.0,Leilighet,https://www.finn.no/realestate/homes/ad.html?finnkode=273062948,51046,69.6701309,18.937753,04/05/2023,1.0,Andel,9016,Tromsø
Vådanvegen 103,4250000,226,1.0,1953.0,Tomannsbolig,https://www.finn.no/realestate/homes/ad.html?finnkode=301827899,18805,63.3956041,10.305913,04/05/2023,1.0,Eier (Selveier),7024,Trondheim
Eventyrstien 34,1600000,63,2.0,1985.0,Leilighet,https://www.finn.no/realestate/homes/ad.html?finnkode=301806119,25396,60.2080028,11.9762218,04/05/2023,1.0,Andel,2212,Kongsvinger
Rådyrveien 4,14250000,244,8.0,1953.0,Enebolig,https://www.finn.no/realestate/homes/ad.html?finnkode=301827736,58401,59.645492,10.6397672,04/05/2023,,Eier (Selveier),1444,Drøbak
Tyholtveien 74,13500000,422,8.0,1939.0,Bygård/Flermannsbolig,https://www.finn.no/realestate/homes/ad.html?finnkode=301628812,31990,63.4274578,10.4308998,04/05/2023,3.0,Eier (Selveier),7052,Trondheim
Skolegata 55,3200000,153,,1922.0,Tomannsbolig,https://www.finn.no/realestate/homes/ad.html?finnkode=301511281,20915,59.27652,11.1017322,04/05/2023,,Eier (Selveier),1724,Sarpsborg
Skårlandsveien 24,7900000,347,8.0,2017.0,Enebolig,https://www.finn.no/realestate/homes/ad.html?finnkode=293439488,22766,58.831965,5.8159016,04/05/2023,,Eier (Selveier),4337,Sandnes
Ustedalen 238,8250000,373,10.0,1985.0,Enebolig,https://www.finn.no/realestate/homes/ad.html?finnkode=301826804,22117,60.529736,8.16923,04/05/2023,,Eier (Selveier),3580,Geilo
Elgveien 19B,2300000,46,,1973.0,Leilighet,https://www.finn.no/realestate/homes/ad.html?finnkode=301826787,50000,59.4500067,10.6866328,04/05/2023,1.0,Andel,1534,Moss
Parkveien 19B,6600000,244,4.0,1988.0,Enebolig,https://www.finn.no/realestate/homes/ad.html?finnkode=301680323,27049,59.75295,10.835413,04/05/2023,2.0,Eier (Selveier),1405,Langhus
Klauvmarka 18B,4130000,125,4.0,2022.0,Leilighet,https://www.finn.no/realestate/homes/ad.html?finnkode=280361038,33040,65.490133,12.254098,04/05/2023,2.0,Eier (Selveier),8907,Brønnøysund
Rievssatluodda 4,2500000,92,3.0,2012.0,Enebolig,https://www.finn.no/realestate/homes/ad.html?finnkode=301826625,27173,69.004111,23.0630166,04/05/2023,1.0,Eier (Selveier),9520,Kautokeino
Askerveien 2C,9950000,173,,1987.0,Enebolig,https://www.finn.no/realestate/homes/ad.html?finnkode=301826389,57514,59.8413094,10.4372873,04/05/2023,,Eier (Selveier),1384,Asker
Skranevegen 105,3490000,70,3.0,2016.0,Leilighet,https://www.finn.no/realestate/homes/ad.html?finnkode=301810509,49857,60.307957,5.272496,04/05/2023,1.0,Eier (Selveier),5252,Søreidgrend
Kjeldeteigen 2,6100000,203,8.0,1977.0,Enebolig,https://www.finn.no/realestate/homes/ad.html?finnkode=301675620,30049,61.2357852,7.082904,04/05/2023,2.0,Eier (Selveier),6856,Sogndal
Engfaret 4D,4350000,101,4.0,1966.0,Rekkehus,https://www.finn.no/realestate/homes/ad.html?finnkode=295061535,43069,59.4413258,10.6192346,04/05/2023,,Andel,1518,Moss
Aslaugs gate 6,1900000,61,,1993.0,Leilighet,https://www.finn.no/realestate/homes/ad.html?finnkode=301824876,31147,59.1962494,9.6078657,04/05/2023,2.0,Eier (Selveier),3730,Skien
Lidarende 3,2790000,54,,1972.0,Leilighet,https://www.finn.no/realestate/homes/ad.html?finnkode=301765747,51666,63.415096,10.4374262,04/05/2023,3.0,Andel,7050,Trondheim
Storetveitåsen 28,6500000,188,5.0,1967.0,Tomannsbolig,https://www.finn.no/realestate/homes/ad.html?finnkode=301671535,34574,60.3535236,5.3466803,04/05/2023,2.0,Eier (Selveier),5067,Bergen
Skredbakkatunet 16,3490000,122,4.0,1983.0,Rekkehus,https://www.finn.no/realestate/homes/ad.html?finnkode=301816801,28606,58.960421,5.616985,04/05/2023,,Andel,4048,Hafrsfjord
Ørsnesalleen 9,4050000,116,,1915.0,Leilighet,https://www.finn.no/realestate/homes/ad.html?finnkode=301677483,34913,59.2561381,10.421516,04/05/2023,3.0,Eier (Selveier),3120,Nøtterøy
Hyllveien 18,4190000,136,,1998.0,Enebolig,https://www.finn.no/realestate/homes/ad.html?finnkode=301824416,30808,63.5080849,11.1225863,04/05/2023,,Eier (Selveier),7520,Hegra
Parkveien 74 A,6950000,212,,1957.0,Enebolig,https://www.finn.no/realestate/homes/ad.html?finnkode=301823373,32783,67.2811121,14.3908051,04/05/2023,,Eier (Selveier),8005,Bodø
Åros fjordvei 20,11500000,211,,2011.0,Enebolig,https://www.finn.no/realestate/homes/ad.html?finnkode=301824077,54502,59.708901,10.521976,04/05/2023,,Eier (Selveier),3474,Åros
Fasanveien 18,4150000,220,,1971.0,Enebolig,https://www.finn.no/realestate/homes/ad.html?finnkode=301823915,18863,59.2438981,10.3989671,04/05/2023,,Eier (Selveier),3142,Vestskogen
Hesteskoen 12A,10300000,244,,2014.0,Enebolig,https://www.finn.no/realestate/homes/ad.html?finnkode=301823933,42213,59.680145,10.86275,04/05/2023,,Eier (Selveier),1408,Kråkstad
Skomakerberget 14,5200000,286,,1995.0,Enebolig,https://www.finn.no/realestate/homes/ad.html?finnkode=300594455,18181,69.920017,23.507883,04/05/2023,,Eier (Selveier),9537,Tverrelvdalen
Fanavegen 81B,3600000,41,,2021.0,Leilighet,https://www.finn.no/realestate/homes/ad.html?finnkode=301822952,87804,60.296685,5.326178,04/05/2023,8.0,Eier (Selveier),5239,Rådal
Marcus Thranes gate 1B,1650000,31,1.0,1965.0,Leilighet,https://www.finn.no/realestate/homes/ad.html?finnkode=301512589,53225,60.7980833,10.6860733,04/05/2023,3.0,Andel,2821,Gjøvik
Th. Engers veg 2A,4950000,232,7.0,1962.0,Tomannsbolig,https://www.finn.no/realestate/homes/ad.html?finnkode=301702561,21336,61.0974081,10.4787372,04/05/2023,3.0,Eier (Selveier),2613,Lillehammer
Sjoarvegen 4,2890000,148,4.0,1956.0,Leilighet,https://www.finn.no/realestate/homes/ad.html?finnkode=301693154,19527,59.664822,5.93386,04/05/2023,2.0,Eier (Selveier),5590,Etne
Nesbukta 5C,5900000,149,6.0,2019.0,Rekkehus,https://www.finn.no/realestate/homes/ad.html?finnkode=301821630,39597,59.861499,10.503221,04/05/2023,,Andel,1394,Nesbru
Kristofer Jansons vei 27,3490000,64,3.0,1955.0,Leilighet,https://www.finn.no/realestate/homes/ad.html?finnkode=301406449,54531,60.358822,5.3635767,04/05/2023,3.0,Aksje,5089,Bergen
Giskegata 20,1850000,39,,1907.0,Leilighet,https://www.finn.no/realestate/homes/ad.html?finnkode=301821484,47435,62.471712,6.144467,04/05/2023,1.0,Eier (Selveier),6005,Ålesund
Terneveien 12,3900000,217,,1979.0,Leilighet,https://www.finn.no/realestate/homes/ad.html?finnkode=301821314,17972,67.2650527,15.3642957,04/05/2023,2.0,Eier (Selveier),8207,Fauske
Planetvegen 353,2850000,91,3.0,1978.0,Leilighet,https://www.finn.no/realestate/homes/ad.html?finnkode=301798211,31318,69.671636,19.048473,04/05/2023,1.0,Andel,9024,Tomasjord
Råtun 72,5900000,126,4.0,2018.0,Leilighet,https://www.finn.no/realestate/homes/ad.html?finnkode=301820461,46825,60.290802,5.3244,04/05/2023,2.0,Eier (Selveier),5239,Rådal
Glassbegerveien 205,5450000,135,4.0,2003.0,Enebolig,https://www.finn.no/realestate/homes/ad.html?finnkode=301549737,40370,58.90241,5.7245927,04/05/2023,,Eier (Selveier),4032,Stavanger
Haugalivegen 17,700000,76,,2018.0,Leilighet,https://www.finn.no/realestate/homes/ad.html?finnkode=301535889,9210,60.890275,9.649191,04/05/2023,1.0,Andel,2890,Etnedal
Kollevågvegen 310,2490000,76,3.0,2010.0,Leilighet,https://www.finn.no/realestate/homes/ad.html?finnkode=301809784,32763,60.4562253,5.1208991,04/05/2023,2.0,Eier (Selveier),5310,Hauglandshella
Håvasteinhagane 17,2300000,62,4.0,2012.0,Leilighet,https://www.finn.no/realestate/homes/ad.html?finnkode=301820176,37096,59.1011897,5.6989182,04/05/2023,1.0,Eier (Selveier),4150,Rennesøy
Rolsdorphs veg 16,5300000,196,6.0,2016.0,Enebolig,https://www.finn.no/realestate/homes/ad.html?finnkode=301348113,27040,60.873628,11.571683,04/05/2023,2.0,Eier (Selveier),2414,Elverum
Solbergskogen 5B,2450000,85,3.0,1974.0,Leilighet,https://www.finn.no/realestate/homes/ad.html?finnkode=290060135,28823,59.5003171,10.2997955,04/05/2023,3.0,Andel,3085,Holmestrand
Vågvegen 5A,3690000,70,3.0,1994.0,Leilighet,https://www.finn.no/realestate/homes/ad.html?finnkode=297417880,52714,69.6999866,18.9759046,04/05/2023,1.0,Eier (Selveier),9017,Tromsø
Nedre Langgate 68,4290000,240,,1968.0,Enebolig,https://www.finn.no/realestate/homes/ad.html?finnkode=301667376,17875,59.2567727,11.1670189,04/05/2023,,Eier (Selveier),1743,Klavestadhaugen
Kilsundveien 157A,12900000,170,,2022.0,Leilighet,https://www.finn.no/realestate/homes/ad.html?finnkode=301676086,75882,58.550858,8.973628,04/05/2023,,Eier (Selveier),4920,Staubø
Moy Moner 113A,3990000,114,,2015.0,Enebolig,https://www.finn.no/realestate/homes/ad.html?finnkode=301521190,35000,58.3707648,8.6480001,04/05/2023,,Eier (Selveier),4885,Grimstad
Gamle Tregdevei 13,4690000,124,,1890.0,Enebolig,https://www.finn.no/realestate/homes/ad.html?finnkode=301631037,37822,58.0105848,7.5549842,04/05/2023,,Eier (Selveier),4516,Mandal
Nygjerdet 5,2750000,61,3.0,1939.0,Leilighet,https://www.finn.no/realestate/homes/ad.html?finnkode=301801648,45081,60.3855999,5.2959238,04/05/2023,2.0,Andel,5162,Laksevåg
Stokkøyveien 174,1590000,160,,1954.0,Enebolig,https://www.finn.no/realestate/homes/ad.html?finnkode=301819107,9937,64.0460391,10.0102231,04/05/2023,,Eier (Selveier),7178,Stokkøy
Thereses gate 47B,7490000,72,3.0,1896.0,Leilighet,https://www.finn.no/realestate/homes/ad.html?finnkode=301810027,104027,59.926398,10.730745,04/05/2023,2.0,Eier (Selveier),354,Oslo
Sjødalsvegen 2,1400000,36,2.0,1905.0,Leilighet,https://www.finn.no/realestate/homes/ad.html?finnkode=301643032,38888,60.4189942,5.2393144,04/05/2023,1.0,Andel,5305,Florvåg
Rognstunet 12,3600000,79,3.0,1998.0,Leilighet,https://www.finn.no/realestate/homes/ad.html?finnkode=301716026,45569,60.633363,6.426294,04/05/2023,1.0,Eier (Selveier),5704,Voss
Oksenøyveien 37,6700000,86,4.0,1956.0,Leilighet,https://www.finn.no/realestate/homes/ad.html?finnkode=301818713,77906,59.9045107,10.6139364,04/05/2023,1.0,Eier (Selveier),1366,Lysaker
Ljoshaugvegen 10,2900000,200,,1942.0,Enebolig,https://www.finn.no/realestate/homes/ad.html?finnkode=301788308,14500,62.0708855,9.1323297,04/05/2023,,Eier (Selveier),2660,Dombås
Fasanveien 32,3300000,105,5.0,1981.0,Rekkehus,https://www.finn.no/realestate/homes/ad.html?finnkode=301655047,31428,59.3500416,10.8609182,04/05/2023,1.0,Andel,1640,Råde
Neuberggata 22,9950000,129,4.0,1910.0,Leilighet,https://www.finn.no/realestate/homes/ad.html?finnkode=299651562,77131,59.927704,10.716749,04/05/2023,1.0,Eier (Selveier),367,Oslo
Drengveien 7,4890000,221,,1939.0,Enebolig,https://www.finn.no/realestate/homes/ad.html?finnkode=301816680,22126,58.8450395,5.739761,04/05/2023,,Eier (Selveier),4306,Sandnes
Refneveien 42C,1400000,63,3.0,1975.0,Leilighet,https://www.finn.no/realestate/homes/ad.html?finnkode=301816829,22222,59.1188608,11.3566307,04/05/2023,1.0,Andel,1771,Halden
Furumoveien 9,4100000,167,,1926.0,Enebolig,https://www.finn.no/realestate/homes/ad.html?finnkode=301641334,24550,59.216112,10.946099,04/05/2023,,Eier (Selveier),1605,Fredrikstad
Kløverstien 29,3590000,92,,2015.0,Rekkehus,https://www.finn.no/realestate/homes/ad.html?finnkode=301816726,39021,63.4788413,10.9414789,04/05/2023,,Eier (Selveier),7507,Stjørdal
Tindvegen 76,2650000,194,,1969.0,Enebolig,https://www.finn.no/realestate/homes/ad.html?finnkode=301660308,13659,63.7840743,11.4910809,04/05/2023,,Eier (Selveier),7654,Verdal
Peder Buchs gate 1,2410000,62,2.0,2021.0,Leilighet,https://www.finn.no/realestate/homes/ad.html?finnkode=301739285,38870,59.74322,10.213793,04/05/2023,1.0,Andel,3014,Drammen
Torggaten 9,3090000,38,,1900.0,Leilighet,https://www.finn.no/realestate/homes/ad.html?finnkode=301816208,81315,60.3912744,5.3222688,04/05/2023,,Eier (Selveier),5014,Bergen
Torggata 141C,5290000,102,,2006.0,Leilighet,https://www.finn.no/realestate/homes/ad.html?finnkode=301815939,51862,60.7959353,11.0608055,04/05/2023,2.0,Andel,2317,Hamar
Henrik Sørensens gate 1B,3500000,50,2.0,1954.0,Leilighet,https://www.finn.no/realestate/homes/ad.html?finnkode=301815699,70000,59.9608355,11.0566068,04/05/2023,3.0,Andel,2003,Lillestrøm
Krepseveien 18B,4490000,125,,2021.0,Tomannsbolig,https://www.finn.no/realestate/homes/ad.html?finnkode=301790778,35920,59.699391,9.784193,04/05/2023,,Eier (Selveier),3322,Fiskum
Nordahl Rolfsens vei 29B,2250000,33,1.0,1957.0,Leilighet,https://www.finn.no/realestate/homes/ad.html?finnkode=301617526,68181,60.356012,5.365341,04/05/2023,4.0,Andel,5094,Bergen
Sverres gate 17,4700000,50,2.0,1890.0,Leilighet,https://www.finn.no/realestate/homes/ad.html?finnkode=301815608,94000,59.911253,10.776832,04/05/2023,3.0,Eier (Selveier),652,Oslo
Magistratbakken 6,4800000,175,,2011.0,Enebolig,https://www.finn.no/realestate/homes/ad.html?finnkode=301704130,27428,63.991994,11.458714,04/05/2023,,Eier (Selveier),7711,Steinkjer
Trøgstadveien 40,1390000,44,2.0,1952.0,Leilighet,https://www.finn.no/realestate/homes/ad.html?finnkode=301743960,31590,59.593352,11.1768636,04/05/2023,2.0,Andel,1808,Askim
Bergum 3A,2490000,82,4.0,1971.0,Leilighet,https://www.finn.no/realestate/homes/ad.html?finnkode=300741596,30365,61.4651124,5.8379562,04/05/2023,4.0,Andel,6809,Førde
Øvre Møllenberg gate 41A,2790000,40,1.0,1900.0,Leilighet,https://www.finn.no/realestate/homes/ad.html?finnkode=301814724,69750,63.4309632,10.4126327,04/05/2023,1.0,Eier (Selveier),7014,Trondheim
Bryggeveien 34B,9000000,129,,1996.0,Leilighet,https://www.finn.no/realestate/homes/ad.html?finnkode=301782128,69767,59.782865,10.501275,04/05/2023,2.0,Eier (Selveier),3470,Slemmestad
Elvegata 16A,2550000,50,2.0,1916.0,Leilighet,https://www.finn.no/realestate/homes/ad.html?finnkode=301807254,51000,61.1172921,10.4650192,04/05/2023,3.0,Eier (Selveier),2609,Lillehammer
Haugerudbakken 5i Bø i,2660000,110,,2022.0,Leilighet,https://www.finn.no/realestate/homes/ad.html?finnkode=273885072,24181,59.416236,9.067847,04/05/2023,,Andel,3800,Telemark
Landasjøen 31,6900000,257,5.0,2013.0,Enebolig,https://www.finn.no/realestate/homes/ad.html?finnkode=300842940,26848,59.7826752,5.7308347,04/05/2023,1.0,Eier (Selveier),5454,Sæbøvik
Mellomveien 18 A,5850000,97,3.0,2020.0,Leilighet,https://www.finn.no/realestate/homes/ad.html?finnkode=301668259,60309,63.4382092,10.4277176,04/05/2023,3.0,Eier (Selveier),7067,Trondheim
Mellomveien 18 A,3890000,58,2.0,2020.0,Leilighet,https://www.finn.no/realestate/homes/ad.html?finnkode=301658127,67068,63.4382092,10.4277176,04/05/2023,1.0,Eier (Selveier),7067,Trondheim
Nedre Nøttveit 48C,3800000,111,,2002.0,Leilighet,https://www.finn.no/realestate/homes/ad.html?finnkode=301813411,34234,60.2971601,5.3467321,04/05/2023,,Eier (Selveier),5238,Rådal
Aasmund Vinjes gate 7A,2890000,167,,,Tomannsbolig,https://www.finn.no/realestate/homes/ad.html?finnkode=301813446,17305,58.0309106,7.4618623,04/05/2023,1.0,Eier (Selveier),4517,Mandal
Giljarhauggata 5,4890000,209,6.0,1923.0,Enebolig,https://www.finn.no/realestate/homes/ad.html?finnkode=301813337,23397,58.8555246,5.7506741,04/05/2023,,Eier (Selveier),4328,Sandnes
Jarleveien 27B,7000000,192,6.0,2001.0,Enebolig,https://www.finn.no/realestate/homes/ad.html?finnkode=293871326,36458,59.1461839,10.1919036,04/05/2023,,Eier (Selveier),3221,Sandefjord
Augerødbakken 29,4950000,177,,2008.0,Enebolig,https://www.finn.no/realestate/homes/ad.html?finnkode=301777312,27966,59.465151,10.785293,04/05/2023,3.0,Eier (Selveier),1591,Sperrebotn
Bevervegen 12B,2390000,112,,2019.0,Tomannsbolig,https://www.finn.no/realestate/homes/ad.html?finnkode=301813242,21339,58.55651,7.760336,04/05/2023,,Eier (Selveier),4737,Hornnes
Nebbestølen 25,2550000,92,,1973.0,Leilighet,https://www.finn.no/realestate/homes/ad.html?finnkode=301813277,27717,60.353062,5.293016,04/05/2023,1.0,Andel,5144,Fyllingsdalen
Lars Hilles gate 9,3190000,50,,1999.0,Leilighet,https://www.finn.no/realestate/homes/ad.html?finnkode=301813326,63800,60.388436,5.33047,04/05/2023,3.0,Eier (Selveier),5008,Bergen
Gullestadvegen 33,2450000,215,6.0,1954.0,Enebolig,https://www.finn.no/realestate/homes/ad.html?finnkode=296011860,11395,58.317089,6.9520156,04/05/2023,3.0,Eier (Selveier),4480,Kvinesdal
Hestehovvegen 10B,3250000,125,,2016.0,Tomannsbolig,https://www.finn.no/realestate/homes/ad.html?finnkode=301812748,26000,58.174537,7.835727,04/05/2023,,Eier (Selveier),4645,Nodeland
Rudolf Nilsens veg 2,8990000,184,4.0,2023.0,Tomannsbolig,https://www.finn.no/realestate/homes/ad.html?finnkode=301532350,48858,63.391699,10.334299,04/05/2023,,Eier (Selveier),7024,Trondheim
Knipleveien 33A,8700000,127,,1800.0,Leilighet,https://www.finn.no/realestate/homes/ad.html?finnkode=273769194,68503,59.223599,10.932744,04/05/2023,1.0,Eier (Selveier),1613,Fredrikstad
Villumskås 25,1950000,74,3.0,2009.0,Leilighet,https://www.finn.no/realestate/homes/ad.html?finnkode=301811808,26351,59.1539543,9.63427,04/05/2023,2.0,Andel,3740,Skien
Toftes gate 11B,4750000,59,3.0,2010.0,Leilighet,https://www.finn.no/realestate/homes/ad.html?finnkode=301783625,80508,59.929816,10.760235,04/05/2023,1.0,Eier (Selveier),556,Oslo
Roseveien 4D,4250000,109,5.0,1964.0,Rekkehus,https://www.finn.no/realestate/homes/ad.html?finnkode=301771078,38990,59.9695354,11.0637755,04/05/2023,3.0,Eier (Selveier),2007,Kjeller
Libakkveien 1A,3800000,66,3.0,1956.0,Leilighet,https://www.finn.no/realestate/homes/ad.html?finnkode=300728129,57575,59.887419,10.803082,04/05/2023,3.0,Eier (Selveier),1184,Oslo
Kirkeringen 2,3450000,68,3.0,2022.0,Leilighet,https://www.finn.no/realestate/homes/ad.html?finnkode=289154738,50735,63.348935,10.353294,04/05/2023,2.0,Eier (Selveier),7080,Heimdal
Åsheimveien 3,2590000,150,5.0,1998.0,Enebolig,https://www.finn.no/realestate/homes/ad.html?finnkode=301798613,17266,69.265934,19.949868,04/05/2023,2.0,Eier (Selveier),9046,Oteren
Kobberveien 15,2790000,93,5.0,1964.0,Rekkehus,https://www.finn.no/realestate/homes/ad.html?finnkode=301811218,30000,58.1448,7.9708258,04/05/2023,,Andel,4616,Kristiansand S
Fagertunveien 8,4990000,240,,1953.0,Enebolig,https://www.finn.no/realestate/homes/ad.html?finnkode=301811233,20791,58.2523018,8.3776021,04/05/2023,,Eier (Selveier),4790,Lillesand
Polarveien 15F,2390000,103,4.0,1960.0,Rekkehus,https://www.finn.no/realestate/homes/ad.html?finnkode=301761114,23203,58.9466598,5.7229696,04/05/2023,,Andel,4019,Stavanger
Kiprå 14,11590000,355,8.0,2013.0,Enebolig,https://www.finn.no/realestate/homes/ad.html?finnkode=301810622,32647,58.8480904,5.7228947,04/05/2023,,Eier (Selveier),4319,Sandnes
Furumo 10,2900000,77,,2017.0,Leilighet,https://www.finn.no/realestate/homes/ad.html?finnkode=301810349,37662,60.718532,10.83357,04/05/2023,1.0,Eier (Selveier),2849,Kapp
Stjerneblokkveien 4,3000000,65,3.0,1952.0,Leilighet,https://www.finn.no/realestate/homes/ad.html?finnkode=301810341,46153,59.950985,10.889477,04/05/2023,2.0,Andel,1083,Oslo
Alf Skares gate 12A,1900000,65,3.0,2004.0,Leilighet,https://www.finn.no/realestate/homes/ad.html?finnkode=301810340,29230,59.4095146,5.3309918,04/05/2023,1.0,Eier (Selveier),5534,Haugesund
Klæbuveien 44,4190000,79,,1952.0,Leilighet,https://www.finn.no/realestate/homes/ad.html?finnkode=301699379,53037,63.4171449,10.3981896,04/05/2023,1.0,Andel,7030,Trondheim
Farkrogen 4C,2500000,106,5.0,2015.0,Rekkehus,https://www.finn.no/realestate/homes/ad.html?finnkode=301810061,23584,58.3106634,6.9568018,04/05/2023,1.0,Eier (Selveier),4480,Kvinesdal
Togstadvegen 260C,2700000,129,,2016.0,Tomannsbolig,https://www.finn.no/realestate/homes/ad.html?finnkode=300865598,20930,60.230579,11.628267,04/05/2023,,Eier (Selveier),2100,Skarnes
Hjellvikvegen 680,1750000,102,4.0,1975.0,Enebolig,https://www.finn.no/realestate/homes/ad.html?finnkode=279691823,17156,60.550144,5.403876,04/05/2023,,Eier (Selveier),5281,Valestrandsfossen
Austmannavegen 17F,2190000,124,,1969.0,Rekkehus,https://www.finn.no/realestate/homes/ad.html?finnkode=301809510,17661,59.3934144,5.3044439,04/05/2023,,Eier (Selveier),5537,Haugesund
Melandbakken 27C,1690000,81,3.0,2005.0,Leilighet,https://www.finn.no/realestate/homes/ad.html?finnkode=301808955,20864,59.3190666,5.2837585,04/05/2023,1.0,Eier (Selveier),4265,Håvik
Myrveien 48B,8650000,187,,1977.0,Enebolig,https://www.finn.no/realestate/homes/ad.html?finnkode=301773602,46256,60.0522197,10.8633805,04/05/2023,2.0,Eier (Selveier),1482,Nittedal
Diamantveien 18A,6700000,298,,1972.0,Tomannsbolig,https://www.finn.no/realestate/homes/ad.html?finnkode=301670552,22483,58.8352643,5.7098044,04/05/2023,,Eier (Selveier),4321,Sandnes
Lislebyveien 161,3200000,123,,1900.0,Enebolig,https://www.finn.no/realestate/homes/ad.html?finnkode=282062666,26016,59.2282228,10.9777013,04/05/2023,,Eier (Selveier),1619,Fredrikstad
Dampsaga allé 40,4980000,86,3.0,2019.0,Leilighet,https://www.finn.no/realestate/homes/ad.html?finnkode=301689194,57906,60.142428,11.178266,04/05/2023,2.0,Eier (Selveier),2053,Jessheim
Ole Vigs gate 32 D,5900000,57,2.0,1928.0,Leilighet,https://www.finn.no/realestate/homes/ad.html?finnkode=301808281,103508,59.930211,10.71661,04/05/2023,3.0,Eier (Selveier),366,Oslo
Fjellvegen 25,1850000,62,2.0,1972.0,Leilighet,https://www.finn.no/realestate/homes/ad.html?finnkode=301808186,29838,59.4120144,5.2960521,04/05/2023,5.0,Andel,5532,Haugesund
Havevegen 2,3390000,145,,1909.0,Enebolig,https://www.finn.no/realestate/homes/ad.html?finnkode=301740187,23379,59.2042568,9.6008113,04/05/2023,,Eier (Selveier),3725,Skien
Tjuvikvegen 21,4750000,160,5.0,1981.0,Tomannsbolig,https://www.finn.no/realestate/homes/ad.html?finnkode=301797316,29687,60.5216518,5.2935085,04/05/2023,,Eier (Selveier),5108,Hordvik
Løvollbakken 34A,7300000,310,,2020.0,Enebolig,https://www.finn.no/realestate/homes/ad.html?finnkode=301807169,23548,58.147429,7.848732,04/05/2023,,Eier (Selveier),4645,Nodeland
Kjellersmauet 18,5400000,102,5.0,1820.0,Enebolig,https://www.finn.no/realestate/homes/ad.html?finnkode=301799583,52941,60.3930937,5.3171942,04/05/2023,,Eier (Selveier),5011,Bergen
Niels Juels gate 6,11290000,111,4.0,1950.0,Leilighet,https://www.finn.no/realestate/homes/ad.html?finnkode=301805664,101711,59.911928,10.70946,04/05/2023,2.0,Eier (Selveier),272,Oslo
Barbugårdsveien 8,1990000,171,,1938.0,Enebolig,https://www.finn.no/realestate/homes/ad.html?finnkode=301767856,11637,58.4656304,8.7705687,04/05/2023,,Eier (Selveier),4846,Arendal
Ulvenvegen 17 M,3850000,99,,2020.0,Leilighet,https://www.finn.no/realestate/homes/ad.html?finnkode=301806809,38888,60.206545,5.446218,04/05/2023,,Eier (Selveier),5210,Os
Nordpynt 11,2990000,226,,1973.0,Enebolig,https://www.finn.no/realestate/homes/ad.html?finnkode=301495724,13230,59.8171753,5.2589617,04/05/2023,,Eier (Selveier),5420,Rubbestadneset
Vikeveien 31,4050000,217,,1966.0,Enebolig,https://www.finn.no/realestate/homes/ad.html?finnkode=296130453,18663,59.5409819,10.1012291,04/05/2023,,Eier (Selveier),3090,Hof
Haakonsvegen 69A,2390000,97,4.0,1969.0,Leilighet,https://www.finn.no/realestate/homes/ad.html?finnkode=301652367,24639,59.4226363,5.2921386,04/05/2023,1.0,Andel,5519,Haugesund
Gamle Eikesetveien 3,7490000,268,,1960.0,Enebolig,https://www.finn.no/realestate/homes/ad.html?finnkode=301768847,27947,58.9086191,5.7273749,04/05/2023,,Eier (Selveier),4032,Stavanger
Folldalsheia 21A,6990000,110,4.0,2023.0,Leilighet,https://www.finn.no/realestate/homes/ad.html?finnkode=301805934,63545,60.302288,5.315871,04/05/2023,2.0,Eier (Selveier),5239,Rådal
Kongsgård alle 10C,3390000,78,3.0,1954.0,Leilighet,https://www.finn.no/realestate/homes/ad.html?finnkode=301805852,43461,58.1550173,8.0132291,04/05/2023,2.0,Andel,4631,Kristiansand S
Sundvikvegen 15,3390000,241,4.0,1985.0,Enebolig,https://www.finn.no/realestate/homes/ad.html?finnkode=298768129,14066,59.8335643,5.7499447,04/05/2023,2.0,Eier (Selveier),5451,Valen
Etterstadsletta 42B,5000000,65,3.0,1950.0,Leilighet,https://www.finn.no/realestate/homes/ad.html?finnkode=295092309,76923,59.911934,10.802105,04/05/2023,1.0,Andel,660,Oslo
Hasselbakken 8,5490000,290,,1965.0,Enebolig,https://www.finn.no/realestate/homes/ad.html?finnkode=301805580,18931,59.7078179,10.4989974,04/05/2023,,Eier (Selveier),3474,Åros
Svingen 12,3800000,100,5.0,1908.0,Enebolig,https://www.finn.no/realestate/homes/ad.html?finnkode=301805512,38000,60.627933,6.431243,04/05/2023,,Eier (Selveier),5700,Voss
Pardisgutua 3,4150000,179,,1950.0,Enebolig,https://www.finn.no/realestate/homes/ad.html?finnkode=301805419,23184,60.8120367,11.1670144,04/05/2023,,Eier (Selveier),2322,Ridabu
Kirkerudkleiva 46,9290000,183,,1974.0,Enebolig,https://www.finn.no/realestate/homes/ad.html?finnkode=301805498,50765,59.902015,10.473634,04/05/2023,,Eier (Selveier),1339,Vøyenenga
Svenskerud 140,5650000,200,,1987.0,Enebolig,https://www.finn.no/realestate/homes/ad.html?finnkode=297905854,28250,59.820138,10.285883,04/05/2023,,Andel,3409,Tranby
Wessels gate 3A,3390000,72,,1900.0,Leilighet,https://www.finn.no/realestate/homes/ad.html?finnkode=294328917,47083,63.4347556,10.4164826,04/05/2023,1.0,Eier (Selveier),7043,Trondheim
Lillebergvegen 12A,3590000,68,3.0,1962.0,Leilighet,https://www.finn.no/realestate/homes/ad.html?finnkode=301779130,52794,63.4184125,10.4309178,04/05/2023,2.0,Andel,7052,Trondheim
Bukkene Bruses veg 32,1850000,82,3.0,1984.0,Leilighet,https://www.finn.no/realestate/homes/ad.html?finnkode=301526158,22560,60.2059272,11.9810346,04/05/2023,3.0,Andel,2212,Kongsvinger
Maths Pedersens gate 53,4300000,69,,2019.0,Leilighet,https://www.finn.no/realestate/homes/ad.html?finnkode=301805002,62318,60.808083,11.07936,04/05/2023,2.0,Eier (Selveier),2318,Hamar
Lyngveien 4,5190000,218,,1955.0,Enebolig,https://www.finn.no/realestate/homes/ad.html?finnkode=301804841,23807,58.1688557,7.9920663,04/05/2023,,Eier (Selveier),4630,Kristiansand S
Johan Nygaardsvolds veg 16,4300000,143,5.0,1972.0,Enebolig,https://www.finn.no/realestate/homes/ad.html?finnkode=301697265,30069,60.8749823,11.580965,04/05/2023,,Eier (Selveier),2414,Elverum
Rognshagen 62,2250000,70,2.0,1978.0,Leilighet,https://www.finn.no/realestate/homes/ad.html?finnkode=301804922,32142,60.63964,6.435049,04/05/2023,4.0,Andel,5705,Voss
Bølerlia 8,3600000,48,2.0,1956.0,Leilighet,https://www.finn.no/realestate/homes/ad.html?finnkode=301647369,75000,59.88102,10.846175,04/05/2023,8.0,Andel,691,Oslo
Roald Amundsensgate 19,1600000,85,,1912.0,Enebolig,https://www.finn.no/realestate/homes/ad.html?finnkode=300889158,18823,69.3195257,16.1213824,04/05/2023,,Eier (Selveier),8480,Andenes
Parkgata 12C,1980000,32,,2006.0,Leilighet,https://www.finn.no/realestate/homes/ad.html?finnkode=301803799,61875,60.7925911,11.0767416,04/05/2023,3.0,Andel,2317,Hamar
Fossveien 8,3800000,78,3.0,2012.0,Leilighet,https://www.finn.no/realestate/homes/ad.html?finnkode=301788821,48717,59.7607177,10.4652107,04/05/2023,1.0,Eier (Selveier),3472,Bødalen
Olsvikåsen 29,2700000,99,,1981.0,Leilighet,https://www.finn.no/realestate/homes/ad.html?finnkode=283024387,27272,60.3836279,5.2166326,04/05/2023,3.0,Andel,5183,Olsvik
Hølgjeslåttvegen 8,2950000,164,4.0,1928.0,Enebolig,https://www.finn.no/realestate/homes/ad.html?finnkode=301776134,17987,60.5685447,8.2976829,04/05/2023,2.0,Eier (Selveier),3580,Geilo
Holbergs gate 24,9750000,277,3.0,1932.0,Enebolig,https://www.finn.no/realestate/homes/ad.html?finnkode=301803847,35198,58.9604601,5.7166219,04/05/2023,,Eier (Selveier),4009,Stavanger
Nordre Ringåsen 9,5500000,284,,1983.0,Enebolig,https://www.finn.no/realestate/homes/ad.html?finnkode=299228205,19366,60.1319438,10.2832585,04/05/2023,,Eier (Selveier),3512,Hønefoss
Toras veg 34,8200000,239,9.0,2005.0,Enebolig,https://www.finn.no/realestate/homes/ad.html?finnkode=301803661,34309,69.6851849,19.0682821,04/05/2023,,Eier (Selveier),9022,Krokelvdalen
Lindknuten 3,2825000,83,6.0,2016.0,Leilighet,https://www.finn.no/realestate/homes/ad.html?finnkode=300891798,34036,58.7256537,9.227942,04/05/2023,2.0,Eier (Selveier),4950,Risør
Solheimsveien 14 A,2450000,114,,1957.0,Rekkehus,https://www.finn.no/realestate/homes/ad.html?finnkode=301803411,21491,69.72199,30.043194,04/05/2023,,Eier (Selveier),9900,Kirkenes
Breimyra 64,2290000,82,,1983.0,Leilighet,https://www.finn.no/realestate/homes/ad.html?finnkode=301803347,27926,60.4596668,5.3701269,04/05/2023,4.0,Andel,5134,Flaktveit
Frostaveien 10,4300000,91,4.0,1910.0,Leilighet,https://www.finn.no/realestate/homes/ad.html?finnkode=301784132,47252,63.43609,10.428938,04/05/2023,4.0,Eier (Selveier),7068,Trondheim
Heidmanns gate 33,3550000,66,,1919.0,Leilighet,https://www.finn.no/realestate/homes/ad.html?finnkode=301803107,53787,60.795783,11.0654449,04/05/2023,,Eier (Selveier),2317,Hamar
Ramstaddammen 4,3190000,80,3.0,2021.0,Leilighet,https://www.finn.no/realestate/homes/ad.html?finnkode=301802988,39875,60.163771,10.992826,04/05/2023,2.0,Eier (Selveier),2033,Åsgreina
Reitmyrveien 61,2600000,62,2.0,1976.0,Leilighet,https://www.finn.no/realestate/homes/ad.html?finnkode=301660860,41935,67.2828247,14.538694,04/05/2023,1.0,Andel,8022,Bodø
Rådhusgaten 10,6000000,200,6.0,1900.0,Enebolig,https://www.finn.no/realestate/homes/ad.html?finnkode=301797394,30000,58.9985801,10.039125,04/05/2023,,Eier (Selveier),3290,Stavern
Åsaveien 8,10900000,108,4.0,1925.0,Leilighet,https://www.finn.no/realestate/homes/ad.html?finnkode=301773178,100925,59.929145,10.724679,04/05/2023,3.0,Aksje,362,Oslo
Åmotshagan 3E,4990000,122,5.0,2018.0,Tomannsbolig,https://www.finn.no/realestate/homes/ad.html?finnkode=296092694,40901,60.081957,11.0010899,04/05/2023,2.0,Eier (Selveier),2022,Gjerdrum
Sognsvannsveien 47B,6700000,81,4.0,1962.0,Leilighet,https://www.finn.no/realestate/homes/ad.html?finnkode=301801594,82716,59.954944,10.716099,04/05/2023,2.0,Andel,372,Oslo
Vestre Kjennervei 3,5350000,189,,1960.0,Enebolig,https://www.finn.no/realestate/homes/ad.html?finnkode=276988782,28306,59.8106511,10.3070449,04/05/2023,,Eier (Selveier),3420,Lierskogen
Uvikstrand 9,4550000,132,,2007.0,Leilighet,https://www.finn.no/realestate/homes/ad.html?finnkode=301800921,34469,59.3592013,5.2786445,04/05/2023,2.0,Eier (Selveier),4262,Avaldsnes
Bjørnslettvegen 19,1050000,30,2.0,1960.0,Leilighet,https://www.finn.no/realestate/homes/ad.html?finnkode=290303682,35000,59.1331515,9.6698263,04/05/2023,1.0,Andel,3917,Porsgrunn
Ytre Sandgate 6,2850000,148,5.0,1928.0,Enebolig,https://www.finn.no/realestate/homes/ad.html?finnkode=301800843,19256,58.0244859,7.4491502,04/05/2023,1.0,Eier (Selveier),4514,Mandal
Kvalvågvegen 417,980000,174,,1947.0,Enebolig,https://www.finn.no/realestate/homes/ad.html?finnkode=301800099,5632,59.5511661,5.4098305,04/05/2023,,Eier (Selveier),5550,Sveio
Harry Fetts vei 7A,5500000,83,3.0,2000.0,Leilighet,https://www.finn.no/realestate/homes/ad.html?finnkode=301718298,66265,59.902445,10.82201,04/05/2023,5.0,Eier (Selveier),667,Oslo
Grenskogveien 56,5490000,281,5.0,2011.0,Gårdsbruk/Småbruk,https://www.finn.no/realestate/homes/ad.html?finnkode=301675559,19537,59.975457,9.750605,04/05/2023,3.0,Eier (Selveier),3355,Solumsmoen
Øvre Langgate 9 A,3980000,111,,1896.0,Leilighet,https://www.finn.no/realestate/homes/ad.html?finnkode=289959463,35855,59.265724,10.4136902,04/05/2023,,Andel,3110,Tønsberg
Arnt Smistads veg 23,3750000,80,3.0,1958.0,Tomannsbolig,https://www.finn.no/realestate/homes/ad.html?finnkode=301677698,46875,63.3949319,10.3562361,04/05/2023,2.0,Eier (Selveier),7023,Trondheim
Mollaveien 934,2950000,185,5.0,2011.0,Enebolig,https://www.finn.no/realestate/homes/ad.html?finnkode=301799041,15945,68.2936042,14.8665447,04/05/2023,,Eier (Selveier),8328,Stormolla
Skardekra 7,4790000,272,8.0,2016.0,Enebolig,https://www.finn.no/realestate/homes/ad.html?finnkode=301737705,17610,63.7689127,9.7804358,04/05/2023,,Eier (Selveier),7160,Bjugn
Røyskattveien 4B,3550000,91,3.0,1969.0,Leilighet,https://www.finn.no/realestate/homes/ad.html?finnkode=301798962,39010,59.8117016,10.8130061,04/05/2023,1.0,Andel,1413,Tårnåsen
Flatinvegen 4,2400000,192,,1960.0,Enebolig,https://www.finn.no/realestate/homes/ad.html?finnkode=301799036,12500,59.4088442,8.4706294,04/05/2023,,Eier (Selveier),3850,Kviteseid
Åstumfaret 3,3500000,233,5.0,1977.0,Enebolig,https://www.finn.no/realestate/homes/ad.html?finnkode=301709489,15021,63.7046723,9.6961174,04/05/2023,,Eier (Selveier),7140,Opphaug
Regimentsvegen 91,4500000,125,4.0,2007.0,Enebolig,https://www.finn.no/realestate/homes/ad.html?finnkode=301727804,36000,60.63432,6.438251,04/05/2023,2.0,Andel,5705,Voss
Solhellinga 33,8690000,237,,2022.0,Enebolig,https://www.finn.no/realestate/homes/ad.html?finnkode=301680928,36666,59.780151,9.931544,04/05/2023,,Eier (Selveier),3303,Hokksund
Otto Valstads vei 55,2990000,45,,1976.0,Leilighet,https://www.finn.no/realestate/homes/ad.html?finnkode=301797955,66444,59.8512627,10.4509799,04/05/2023,1.0,Eier (Selveier),1395,Hvalstad
Alexander Kiellands gate 7B,3560000,66,3.0,1952.0,Leilighet,https://www.finn.no/realestate/homes/ad.html?finnkode=292495816,53939,59.9593257,11.0560837,04/05/2023,1.0,Andel,2000,Lillestrøm
Vesterlivegen 27,5750000,189,5.0,1968.0,Enebolig,https://www.finn.no/realestate/homes/ad.html?finnkode=301797654,30423,69.64026,18.9141045,04/05/2023,,Eier (Selveier),9013,Tromsø
Vangsveien 5B,2990000,166,5.0,1989.0,Tomannsbolig,https://www.finn.no/realestate/homes/ad.html?finnkode=301797524,18012,58.0361952,7.4672242,04/05/2023,1.0,Eier (Selveier),4517,Mandal
Rødstilkvegen 7 D,2090000,54,2.0,1976.0,Leilighet,https://www.finn.no/realestate/homes/ad.html?finnkode=301749331,38703,63.344581,10.3413141,04/05/2023,3.0,Andel,7082,Kattem
Briskåsen 9,10500000,325,,1973.0,Enebolig,https://www.finn.no/realestate/homes/ad.html?finnkode=259271440,32307,59.1506425,10.2082874,04/05/2023,,Eier (Selveier),3226,Sandefjord
Seterlegrenda 25,1090000,98,2.0,1970.0,Enebolig,https://www.finn.no/realestate/homes/ad.html?finnkode=266977540,11122,63.066545,7.994467,04/05/2023,,Eier (Selveier),6674,Kvisvik
Røtisvegen 9 Øvre,550000,75,2.0,1967.0,Leilighet,https://www.finn.no/realestate/homes/ad.html?finnkode=301797166,7333,61.3081163,7.8204632,04/05/2023,1.0,Eier (Selveier),6884,Årdal
Vikavegen 2E,4490000,227,,1953.0,Enebolig,https://www.finn.no/realestate/homes/ad.html?finnkode=275037348,19779,61.3153158,12.2526075,04/05/2023,,Eier (Selveier),2420,Trysil
Skotabergvegen 42,3490000,206,4.0,1947.0,Enebolig,https://www.finn.no/realestate/homes/ad.html?finnkode=300862413,16941,59.7759773,5.5049006,04/05/2023,3.0,Eier (Selveier),5411,Stord
Dæhlilinna 7,1850000,216,8.0,1958.0,Enebolig,https://www.finn.no/realestate/homes/ad.html?finnkode=301753966,8564,60.8524876,10.0095343,04/05/2023,,Eier (Selveier),2870,Dokka
Asnesåsen 17,13900000,455,,1980.0,Enebolig,https://www.finn.no/realestate/homes/ad.html?finnkode=275928938,30549,59.1008612,10.241443,04/05/2023,,Eier (Selveier),3222,Sandefjord
Høgarinda 1,7190000,250,8.0,2012.0,Enebolig,https://www.finn.no/realestate/homes/ad.html?finnkode=299750327,28760,58.7798833,5.8156448,04/05/2023,,Eier (Selveier),4332,Figgjo
Venneslavegen 309,3590000,226,,1955.0,Enebolig,https://www.finn.no/realestate/homes/ad.html?finnkode=276084071,15884,58.2825912,7.9749736,04/05/2023,,Eier (Selveier),4707,Vennesla
Tesliåsen 56,8990000,166,,2021.0,Enebolig,https://www.finn.no/realestate/homes/ad.html?finnkode=301791282,54156,63.404617,10.502644,04/05/2023,,Eier (Selveier),7059,Jakobsli
Asbjørnsens gate 6,4350000,86,3.0,1983.0,Leilighet,https://www.finn.no/realestate/homes/ad.html?finnkode=301710060,50581,60.3776762,5.3405236,04/05/2023,1.0,Andel,5053,Bergen
Heradvegen 273,2600000,198,4.0,1955.0,Enebolig,https://www.finn.no/realestate/homes/ad.html?finnkode=301691983,13131,60.6957637,9.0158784,04/05/2023,2.0,Eier (Selveier),3550,Gol
Losjeplassen 18,6990000,79,,2022.0,Leilighet,https://www.finn.no/realestate/homes/ad.html?finnkode=301794784,88481,59.740881,10.215403,04/05/2023,3.0,Eier (Selveier),3015,Drammen
Saltnesbekken 12B,3900000,74,,2020.0,Leilighet,https://www.finn.no/realestate/homes/ad.html?finnkode=301793923,52702,59.287074,10.75582,04/05/2023,,Eier (Selveier),1642,Saltnes
Østvegen 19B,3950000,118,,2019.0,Tomannsbolig,https://www.finn.no/realestate/homes/ad.html?finnkode=301793880,33474,60.721745,10.625575,04/05/2023,,Eier (Selveier),2835,Raufoss
Troldhaugvegen 50B,5190000,72,3.0,2016.0,Leilighet,https://www.finn.no/realestate/homes/ad.html?finnkode=298525981,72083,60.3243849,5.3404474,04/05/2023,3.0,Eier (Selveier),5232,Paradis
Vossegata 34C,5140000,57,2.0,1920.0,Leilighet,https://www.finn.no/realestate/homes/ad.html?finnkode=301793759,90175,59.933177,10.770131,04/05/2023,2.0,Andel,475,Oslo
Apeltunlien 7C,6400000,139,5.0,2005.0,Enebolig,https://www.finn.no/realestate/homes/ad.html?finnkode=301680968,46043,60.2947564,5.3436682,04/05/2023,2.0,Eier (Selveier),5238,Rådal
Aanon Biesvei 3D,1790000,80,,1989.0,Leilighet,https://www.finn.no/realestate/homes/ad.html?finnkode=301793226,22375,58.493992,8.83329,04/05/2023,1.0,Eier (Selveier),4815,Saltrød
Calmeyers gate 11B,3880000,41,3.0,1883.0,Leilighet,https://www.finn.no/realestate/homes/ad.html?finnkode=301793155,94634,59.916253,10.754823,04/05/2023,2.0,Andel,183,Oslo
Balsfjordvinden 32C,2390000,60,3.0,2004.0,Leilighet,https://www.finn.no/realestate/homes/ad.html?finnkode=301792881,39833,69.6328709,18.9279606,04/05/2023,2.0,Andel,9006,Tromsø
Sorgenfrigata 1B,7300000,69,3.0,1937.0,Leilighet,https://www.finn.no/realestate/homes/ad.html?finnkode=301072915,105797,59.926504,10.717135,04/05/2023,4.0,Eier (Selveier),367,Oslo
Ekebergveien 29 B,2990000,42,2.0,1937.0,Leilighet,https://www.finn.no/realestate/homes/ad.html?finnkode=301792529,71190,59.90122,10.775095,04/05/2023,,Andel,196,Oslo
Storgaten 26,2250000,167,,1903.0,Leilighet,https://www.finn.no/realestate/homes/ad.html?finnkode=301792448,13473,58.0948494,6.8031033,04/05/2023,,Eier (Selveier),4550,Farsund
Christian Bjellands gate 29,5490000,131,3.0,1926.0,Enebolig,https://www.finn.no/realestate/homes/ad.html?finnkode=301792458,41908,58.9801764,5.7092344,04/05/2023,,Eier (Selveier),4026,Stavanger
Skougaards gate 2B,2150000,83,,2021.0,Leilighet,https://www.finn.no/realestate/homes/ad.html?finnkode=296086761,25903,59.000181,9.74798,04/05/2023,3.0,Andel,3970,Langesund
Mjughøyden 8,2100000,75,3.0,1984.0,Leilighet,https://www.finn.no/realestate/homes/ad.html?finnkode=300884484,28000,58.9650116,5.6113683,04/05/2023,2.0,Andel,4048,Hafrsfjord
Blokkhusgata 1,6990000,76,3.0,2012.0,Leilighet,https://www.finn.no/realestate/homes/ad.html?finnkode=301686865,91973,58.1464715,8.0108893,04/05/2023,6.0,Eier (Selveier),4608,Kristiansand S
Rækøyveien 46,3500000,154,,1960.0,Enebolig,https://www.finn.no/realestate/homes/ad.html?finnkode=301791674,22727,68.2076248,14.4669329,04/05/2023,,Eier (Selveier),8310,Kabelvåg
Nesveien 657,3200000,235,8.0,1900.0,Enebolig,https://www.finn.no/realestate/homes/ad.html?finnkode=301773244,13617,63.7744998,9.5881877,04/05/2023,,Eier (Selveier),7165,Oksvoll
Seierstadgutua 83,3500000,616,,1895.0,Enebolig,https://www.finn.no/realestate/homes/ad.html?finnkode=301791171,5681,60.682738,10.7894056,04/05/2023,,Eier (Selveier),2850,Lena
Dyrholtet 3,1790000,131,,1976.0,Rekkehus,https://www.finn.no/realestate/homes/ad.html?finnkode=301790915,13664,63.7721815,11.4875038,04/05/2023,1.0,Andel,7657,Verdal
Grinivegen 5,4890000,203,,1963.0,Enebolig,https://www.finn.no/realestate/homes/ad.html?finnkode=301790750,24088,59.2275462,9.6059326,04/05/2023,,Eier (Selveier),3721,Skien
Øvre Bergveien 45,10350000,251,,1965.0,Enebolig,https://www.finn.no/realestate/homes/ad.html?finnkode=301790657,41235,60.3360565,5.3172683,04/05/2023,,Eier (Selveier),5152,Bønes
Nerviksvegen 12,5890000,167,4.0,1962.0,Enebolig,https://www.finn.no/realestate/homes/ad.html?finnkode=301787168,35269,63.427955,10.516034,04/05/2023,,Eier (Selveier),7056,Ranheim
Gydas vei 29,4650000,207,6.0,1985.0,Enebolig,https://www.finn.no/realestate/homes/ad.html?finnkode=301790438,22463,58.9204316,5.8656137,04/05/2023,3.0,Eier (Selveier),4311,Hommersåk
Bjørnestien 13B,2490000,75,3.0,1972.0,Leilighet,https://www.finn.no/realestate/homes/ad.html?finnkode=301784272,33200,59.4202258,10.4565059,04/05/2023,3.0,Andel,3188,Horten
Øvre Stokkavei 42B,3250000,63,,2002.0,Leilighet,https://www.finn.no/realestate/homes/ad.html?finnkode=301790252,51587,58.9652658,5.7042878,04/05/2023,1.0,Eier (Selveier),4023,Stavanger
Kronstadveien 19A,3290000,57,2.0,1987.0,Leilighet,https://www.finn.no/realestate/homes/ad.html?finnkode=301535503,57719,60.3767509,5.3438219,04/05/2023,1.0,Andel,5053,Bergen
Skrukkerødtunet 1E,1390000,86,3.0,2005.0,Leilighet,https://www.finn.no/realestate/homes/ad.html?finnkode=301664933,16162,59.1264688,9.6576417,04/05/2023,2.0,Andel,3924,Porsgrunn
Olaf Schous vei 9,3750000,35,2.0,1938.0,Leilighet,https://www.finn.no/realestate/homes/ad.html?finnkode=301546922,107142,59.930674,10.783293,04/05/2023,5.0,Eier (Selveier),572,Oslo
Bokfinkvegen 12,1400000,52,2.0,1974.0,Leilighet,https://www.finn.no/realestate/homes/ad.html?finnkode=301682781,26923,60.1797677,12.0244073,04/05/2023,3.0,Andel,2209,Kongsvinger
Steinlivegen 23,3220000,119,5.0,1986.0,Rekkehus,https://www.finn.no/realestate/homes/ad.html?finnkode=297478274,27058,60.0278463,11.3573337,04/05/2023,3.0,Eier (Selveier),1929,Auli
Solhellinga 34G,4250000,150,,1974.0,Rekkehus,https://www.finn.no/realestate/homes/ad.html?finnkode=301788114,28333,60.8068109,11.0420365,04/05/2023,2.0,Andel,2315,Hamar
Bjørnåsveien 67,5300000,146,5.0,2001.0,Tomannsbolig,https://www.finn.no/realestate/homes/ad.html?finnkode=301542088,36301,59.435337,10.697542,04/05/2023,2.0,Eier (Selveier),1596,Moss
Bjørnemyra 13,2800000,88,3.0,2004.0,Leilighet,https://www.finn.no/realestate/homes/ad.html?finnkode=301631461,31818,69.94958,23.20176,04/05/2023,2.0,Andel,9512,Alta
Etnedalsvegen,1000000,147,,1952.0,Enebolig,https://www.finn.no/realestate/homes/ad.html?finnkode=301772767,6802,60.9271662,9.6362106,04/05/2023,,Eier (Selveier),1653,Etnedal
Utsikten 91,2900000,90,3.0,1983.0,Leilighet,https://www.finn.no/realestate/homes/ad.html?finnkode=301706563,32222,69.6931462,19.0005904,04/05/2023,,Andel,9018,Tromsø
Solveien 9B,3490000,129,,1954.0,Leilighet,https://www.finn.no/realestate/homes/ad.html?finnkode=301787967,27054,59.2605936,10.4057916,04/05/2023,,Eier (Selveier),3115,Tønsberg
Brothaugen 4P,2650000,73,3.0,2012.0,Leilighet,https://www.finn.no/realestate/homes/ad.html?finnkode=301710419,36301,60.1753481,5.4563869,04/05/2023,2.0,Eier (Selveier),5209,Os
Fjellmyr terrasse 45,2490000,144,5.0,1975.0,Rekkehus,https://www.finn.no/realestate/homes/ad.html?finnkode=301520566,17291,59.4056966,5.3078327,04/05/2023,,Eier (Selveier),5532,Haugesund
Kunterudveien 23,4500000,122,3.0,1978.0,Enebolig,https://www.finn.no/realestate/homes/ad.html?finnkode=285263359,36885,59.756152,10.2924449,04/05/2023,1.0,Eier (Selveier),3426,Gullaug
Kristofer Jansons vei 49,3190000,73,3.0,1958.0,Leilighet,https://www.finn.no/realestate/homes/ad.html?finnkode=301769621,43698,60.3572946,5.3632576,04/05/2023,4.0,Aksje,5089,Bergen
Blæstadgrenda 6,4950000,254,,1974.0,Enebolig,https://www.finn.no/realestate/homes/ad.html?finnkode=301786916,19488,60.8153903,11.1768417,04/05/2023,,Eier (Selveier),2322,Ridabu
Ringgata 1B,4930000,58,2.0,1952.0,Leilighet,https://www.finn.no/realestate/homes/ad.html?finnkode=300284281,85000,59.915279,10.774704,04/05/2023,5.0,Aksje,577,Oslo
Nordtvetveien 20,3650000,66,,1957.0,Leilighet,https://www.finn.no/realestate/homes/ad.html?finnkode=301786786,55303,59.950782,10.875356,04/05/2023,1.0,Andel,952,Oslo
Torpesvingen 28,3790000,144,,2009.0,Tomannsbolig,https://www.finn.no/realestate/homes/ad.html?finnkode=297700273,26319,58.9985983,9.8657248,04/05/2023,,Eier (Selveier),3295,Helgeroa
Granittveien 9,1850000,70,3.0,1971.0,Leilighet,https://www.finn.no/realestate/homes/ad.html?finnkode=301786537,26428,59.646013,9.637303,04/05/2023,4.0,Andel,3615,Kongsberg
Roselundveien 67A,2780000,60,,2018.0,Leilighet,https://www.finn.no/realestate/homes/ad.html?finnkode=301786405,46333,59.615983,11.060922,04/05/2023,1.0,Eier (Selveier),1820,Spydeberg
Odelsvegen 13,3490000,60,,2017.0,Andre,https://www.finn.no/realestate/homes/ad.html?finnkode=292587149,58166,60.142472,11.161732,04/05/2023,5.0,Eier (Selveier),2063,Jessheim
Skolevegen 15,2590000,176,,1968.0,Enebolig,https://www.finn.no/realestate/homes/ad.html?finnkode=300870480,14715,60.6658067,10.6815484,04/05/2023,2.0,Eier (Selveier),2846,Bøverbru
Kirkeveien 129A,4000000,47,2.0,1895.0,Leilighet,https://www.finn.no/realestate/homes/ad.html?finnkode=299517557,85106,59.933367,10.726706,04/05/2023,,Eier (Selveier),361,Oslo
Valen 5,1090000,98,3.0,2019.0,Leilighet,https://www.finn.no/realestate/homes/ad.html?finnkode=292685092,11122,59.001492,5.608629,04/05/2023,2.0,Andel,4070,Randaberg
Vålandsbakken 14,3750000,248,,1929.0,Tomannsbolig,https://www.finn.no/realestate/homes/ad.html?finnkode=301770061,15120,58.9579942,5.7391135,04/05/2023,,Eier (Selveier),4010,Stavanger
Langgata 50,950000,40,1.0,1919.0,Leilighet,https://www.finn.no/realestate/homes/ad.html?finnkode=301784930,23750,59.4168115,5.2559675,04/05/2023,3.0,Eier (Selveier),5523,Haugesund
Langgata 50,1350000,61,2.0,1919.0,Leilighet,https://www.finn.no/realestate/homes/ad.html?finnkode=301784920,22131,59.4168115,5.2559675,04/05/2023,4.0,Eier (Selveier),5523,Haugesund
Loddefjordveien 14,3000000,82,3.0,1972.0,Leilighet,https://www.finn.no/realestate/homes/ad.html?finnkode=301784783,36585,60.364801,5.233245,04/05/2023,14.0,Andel,5171,Loddefjord
Vestbygata 52D,6950000,165,4.0,1972.0,Rekkehus,https://www.finn.no/realestate/homes/ad.html?finnkode=301784451,42121,59.9639135,11.0417852,04/05/2023,,Andel,2003,Lillestrøm
Strupvegen 8B,1600000,111,3.0,1983.0,Rekkehus,https://www.finn.no/realestate/homes/ad.html?finnkode=301529911,14414,60.9047455,10.9632527,04/05/2023,1.0,Andel,2386,Brumunddal
Kirkeveien 185,6450000,60,2.0,2022.0,Leilighet,https://www.finn.no/realestate/homes/ad.html?finnkode=289245673,107500,59.83819,10.433841,04/05/2023,3.0,Eier (Selveier),1384,Asker
Andersbakkan 92,2450000,47,3.0,2020.0,Leilighet,https://www.finn.no/realestate/homes/ad.html?finnkode=301676707,52127,63.348763,10.324474,04/05/2023,1.0,Eier (Selveier),7089,Heimdal
Sleipners vei 11C,6490000,186,,1962.0,Enebolig,https://www.finn.no/realestate/homes/ad.html?finnkode=301783893,34892,58.1579507,8.0174081,04/05/2023,,Eier (Selveier),4631,Kristiansand S
Waldemar Thranes gate 2,12500000,123,4.0,1897.0,Leilighet,https://www.finn.no/realestate/homes/ad.html?finnkode=301704694,101626,59.922947,10.738456,04/05/2023,3.0,Eier (Selveier),171,Oslo
Eva Nansens vei 13,8900000,77,3.0,2012.0,Leilighet,https://www.finn.no/realestate/homes/ad.html?finnkode=301528070,115584,59.8922754,10.616889,04/05/2023,4.0,Eier (Selveier),1364,Fornebu
Rostockgata 98,5490000,39,2.0,2023.0,Leilighet,https://www.finn.no/realestate/homes/ad.html?finnkode=298772470,140769,59.905645,10.759808,04/05/2023,2.0,Eier (Selveier),194,Oslo
Skjelbreidvegen 185 Bø i,2950000,123,,1976.0,Enebolig,https://www.finn.no/realestate/homes/ad.html?finnkode=301781550,23983,59.4732775,9.0737887,04/05/2023,,Eier (Selveier),3804,Telemark
Leirvollen 5,3390000,171,,1972.0,Enebolig,https://www.finn.no/realestate/homes/ad.html?finnkode=301781316,19824,58.0311718,7.4236788,04/05/2023,,Eier (Selveier),4513,Mandal
Kristian Bakkens veg 12A,2600000,54,2.0,1970.0,Leilighet,https://www.finn.no/realestate/homes/ad.html?finnkode=291756491,48148,60.8041515,11.0379145,04/05/2023,2.0,Andel,2316,Hamar
Grunnavågsvegen 112,5950000,232,,1973.0,Enebolig,https://www.finn.no/realestate/homes/ad.html?finnkode=300406189,25646,60.3751808,5.1151288,04/05/2023,2.0,Eier (Selveier),5354,Straume
Hvasserveien 91,6750000,190,6.0,1995.0,Enebolig,https://www.finn.no/realestate/homes/ad.html?finnkode=300723521,35526,59.0784889,10.4329178,04/05/2023,2.0,Eier (Selveier),3148,Hvasser
Nordbergveien 39B,4990000,168,,2020.0,Enebolig,https://www.finn.no/realestate/homes/ad.html?finnkode=291867292,29702,59.265236,11.136252,04/05/2023,,Eier (Selveier),1738,Borgenhaugen
Sverdsteinvegen 18,2550000,119,,1978.0,Enebolig,https://www.finn.no/realestate/homes/ad.html?finnkode=301779275,21428,59.2599695,9.3608483,04/05/2023,,Eier (Selveier),3830,Ulefoss
Eliasmarken 2B,1490000,87,,2007.0,Leilighet,https://www.finn.no/realestate/homes/ad.html?finnkode=301780346,17126,60.3834688,5.2721071,04/05/2023,,Andel,5164,Laksevåg
Auggedalsvegen 770 Vestre,9690000,290,,1984.0,Gårdsbruk/Småbruk,https://www.finn.no/realestate/homes/ad.html?finnkode=276451601,33413,61.1368786,10.193069,04/05/2023,,Eier (Selveier),2653,Gausdal
Vollveien 18,4500000,259,6.0,1980.0,Enebolig,https://www.finn.no/realestate/homes/ad.html?finnkode=301779631,17374,59.4677378,11.1594976,04/05/2023,,Eier (Selveier),1816,Skiptvet
Sofus Madsens vei 9,2500000,47,1.0,1958.0,Leilighet,https://www.finn.no/realestate/homes/ad.html?finnkode=301503361,53191,60.3510862,5.3702615,04/05/2023,2.0,Eier (Selveier),5097,Bergen
Michael Krohns gate 105,1990000,26,1.0,2004.0,Leilighet,https://www.finn.no/realestate/homes/ad.html?finnkode=301536964,76538,60.381868,5.3175376,04/05/2023,8.0,Andel,5057,Bergen
Røyrvikvegen 90,2550000,176,6.0,1904.0,Enebolig,https://www.finn.no/realestate/homes/ad.html?finnkode=301778735,14488,59.154364,5.2033476,04/05/2023,,Eier (Selveier),4280,Skudeneshavn
Hans Fjelds vei 22,5700000,209,,1999.0,Enebolig,https://www.finn.no/realestate/homes/ad.html?finnkode=301778441,27272,59.9235186,11.4519197,04/05/2023,,Eier (Selveier),1930,Aurskog
Røhrts vei 56,13950000,188,,1995.0,Enebolig,https://www.finn.no/realestate/homes/ad.html?finnkode=301778420,74202,59.899202,10.782643,04/05/2023,,Eier (Selveier),1181,Oslo
Hillerenveien 182,5690000,260,6.0,1988.0,Enebolig,https://www.finn.no/realestate/homes/ad.html?finnkode=300405188,21884,60.3346019,5.2019066,04/05/2023,,Eier (Selveier),5174,Mathopen
Oreveien 5,12700000,209,7.0,2016.0,Enebolig,https://www.finn.no/realestate/homes/ad.html?finnkode=269090044,60765,59.6636,10.641314,04/05/2023,,Eier (Selveier),1446,Drøbak
Hokkåsterrassen 34,2650000,91,3.0,1985.0,Leilighet,https://www.finn.no/realestate/homes/ad.html?finnkode=301669640,29120,67.2906185,14.570554,04/05/2023,1.0,Andel,8028,Bodø
Svaleveien 35B,3700000,90,4.0,1963.0,Rekkehus,https://www.finn.no/realestate/homes/ad.html?finnkode=301777854,41111,59.4470674,10.6153755,04/05/2023,2.0,Andel,1518,Moss
Fiskåvegen 38,2990000,223,8.0,1910.0,Enebolig,https://www.finn.no/realestate/homes/ad.html?finnkode=267595386,13408,59.3375755,5.2762095,04/05/2023,,Eier (Selveier),4262,Avaldsnes
Larsokveien 21,7950000,288,,1970.0,Enebolig,https://www.finn.no/realestate/homes/ad.html?finnkode=298823079,27604,58.9556955,5.6282836,04/05/2023,,Eier (Selveier),4046,Hafrsfjord
Utsiragata 8B,2890000,171,,1973.0,Enebolig,https://www.finn.no/realestate/homes/ad.html?finnkode=301524109,16900,59.3900223,5.3145972,04/05/2023,,Eier (Selveier),5537,Haugesund
Ivar Knutsons vei 54,9000000,105,5.0,1980.0,Leilighet,https://www.finn.no/realestate/homes/ad.html?finnkode=301776873,85714,59.870149,10.795681,04/05/2023,3.0,Andel,1161,Oslo
Rødtvetveien 69,4190000,73,3.0,1962.0,Leilighet,https://www.finn.no/realestate/homes/ad.html?finnkode=301521121,57397,59.953579,10.864303,04/05/2023,6.0,Andel,955,Oslo
Årfallvegen 77 B,2190000,122,,1994.0,Enebolig,https://www.finn.no/realestate/homes/ad.html?finnkode=300888015,17950,63.8814022,11.2945413,04/05/2023,,Eier (Selveier),7670,Inderøy
Skolegata 10E,2300000,73,,1962.0,Leilighet,https://www.finn.no/realestate/homes/ad.html?finnkode=301776852,31506,60.7954209,10.6857126,04/05/2023,2.0,Andel,2821,Gjøvik
Åsvegen 6D,950000,56,,1993.0,Leilighet,https://www.finn.no/realestate/homes/ad.html?finnkode=301776577,16964,63.7063459,11.1924813,04/05/2023,,Andel,7620,Skogn
Balders veg 32 B,2950000,96,4.0,2013.0,Leilighet,https://www.finn.no/realestate/homes/ad.html?finnkode=301550606,30729,60.897173,11.595513,04/05/2023,2.0,Eier (Selveier),2413,Elverum
Skigardveien 45,4600000,66,3.0,1962.0,Leilighet,https://www.finn.no/realestate/homes/ad.html?finnkode=301776344,69696,59.889216,10.816746,04/05/2023,2.0,Andel,681,Oslo
Hvitveiskroken 4A,3790000,88,3.0,1992.0,Leilighet,https://www.finn.no/realestate/homes/ad.html?finnkode=301625330,43068,60.135991,11.205394,04/05/2023,1.0,Eier (Selveier),2052,Jessheim
Nykirkeallmenningen 23,5990000,72,3.0,1957.0,Leilighet,https://www.finn.no/realestate/homes/ad.html?finnkode=300465094,83194,60.3969833,5.3122676,04/05/2023,8.0,Andel,5005,Bergen
Krohnegården 170,4850000,80,3.0,2006.0,Leilighet,https://www.finn.no/realestate/homes/ad.html?finnkode=301775848,60625,60.3543484,5.3091978,04/05/2023,3.0,Eier (Selveier),5146,Fyllingsdalen
Hans Hansens vei 16,10500000,293,,1936.0,Enebolig,https://www.finn.no/realestate/homes/ad.html?finnkode=301692208,35836,59.7504406,10.1941763,04/05/2023,,Eier (Selveier),3021,Drammen
Giljastølveien 25,5500000,297,7.0,2000.0,Enebolig,https://www.finn.no/realestate/homes/ad.html?finnkode=301045092,18518,58.8052508,6.27199,04/05/2023,,Eier (Selveier),4335,Dirdal
Øvre Lundenvei 15,5000000,231,6.0,1937.0,Tomannsbolig,https://www.finn.no/realestate/homes/ad.html?finnkode=301668826,21645,59.1398947,10.2123502,04/05/2023,2.0,Eier (Selveier),3215,Sandefjord
Nygjerdesvingen 8,4050000,131,5.0,2010.0,Tomannsbolig,https://www.finn.no/realestate/homes/ad.html?finnkode=301771528,30916,62.7544814,7.2841779,04/05/2023,,Eier (Selveier),6421,Molde
Stalsberg terrasse 14,3350000,58,2.0,1967.0,Leilighet,https://www.finn.no/realestate/homes/ad.html?finnkode=301768725,57758,59.9540534,11.0170899,04/05/2023,1.0,Andel,2010,Strømmen
Festningsveien 32,5100000,148,,2006.0,Enebolig,https://www.finn.no/realestate/homes/ad.html?finnkode=301719203,34459,59.2753733,11.0365625,04/05/2023,1.0,Eier (Selveier),1719,Greåker
Trevardvegen 22,4190000,110,5.0,2020.0,Tomannsbolig,https://www.finn.no/realestate/homes/ad.html?finnkode=301472169,38090,59.355391,5.321219,04/05/2023,2.0,Eier (Selveier),5545,Vormedal
Hovlandveien 109E,2050000,94,3.0,1974.0,Leilighet,https://www.finn.no/realestate/homes/ad.html?finnkode=301678114,21808,59.0647245,10.0539581,04/05/2023,2.0,Andel,3274,Larvik
Maria Fegths gate 31A,2790000,84,3.0,1965.0,Leilighet,https://www.finn.no/realestate/homes/ad.html?finnkode=301774230,33214,59.724963,10.232319,04/05/2023,5.0,Andel,3041,Drammen
Damsgårdsveien 160,3390000,76,3.0,1927.0,Leilighet,https://www.finn.no/realestate/homes/ad.html?finnkode=301682487,44605,60.3855354,5.3055742,04/05/2023,2.0,Eier (Selveier),5160,Laksevåg
Brochmanns gate 10B,5850000,69,3.0,1941.0,Leilighet,https://www.finn.no/realestate/homes/ad.html?finnkode=301337591,84782,59.94069,10.763801,04/05/2023,2.0,Andel,470,Oslo
Åsvegen 19,1400000,65,3.0,1958.0,Leilighet,https://www.finn.no/realestate/homes/ad.html?finnkode=301773799,21538,64.466182,11.4767586,04/05/2023,,Andel,7802,Namsos
Morkalia 19,3500000,239,7.0,1979.0,Enebolig,https://www.finn.no/realestate/homes/ad.html?finnkode=301766699,14644,62.958355,7.573074,04/05/2023,,Eier (Selveier),6531,Averøy
Røddesnesvegen 8C,3500000,79,3.0,2016.0,Leilighet,https://www.finn.no/realestate/homes/ad.html?finnkode=301773301,44303,62.596543,9.69166,04/05/2023,2.0,Eier (Selveier),7340,Oppdal
Ospedalen 205,4490000,121,3.0,1994.0,Rekkehus,https://www.finn.no/realestate/homes/ad.html?finnkode=301246805,37107,60.4288928,5.1775617,04/05/2023,,Eier (Selveier),5308,Kleppestø
Midtliene 15,4400000,138,,1997.0,Enebolig,https://www.finn.no/realestate/homes/ad.html?finnkode=301773038,31884,60.2453695,11.2123432,04/05/2023,,Eier (Selveier),2072,Dal
Bispevegen 24,1700000,113,,1980.0,Enebolig,https://www.finn.no/realestate/homes/ad.html?finnkode=301771848,15044,61.88029,8.2617585,04/05/2023,,Eier (Selveier),2690,Skjåk
Sandstrand 173,650000,119,,1950.0,Enebolig,https://www.finn.no/realestate/homes/ad.html?finnkode=301660877,5462,68.6819838,16.8048904,04/05/2023,3.0,Eier (Selveier),9445,Tovik
Idrettsveien 5A,2300000,84,4.0,2015.0,Leilighet,https://www.finn.no/realestate/homes/ad.html?finnkode=300876060,27380,62.2766725,10.7896401,04/05/2023,2.0,Eier (Selveier),2500,Tynset
Hunnavegen 9 Skage i,1900000,89,3.0,2009.0,Tomannsbolig,https://www.finn.no/realestate/homes/ad.html?finnkode=299663864,21348,64.462816,11.7607449,04/05/2023,,Eier (Selveier),7860,Namdalen
Haugåsveien 37B,3600000,113,,1957.0,Rekkehus,https://www.finn.no/realestate/homes/ad.html?finnkode=301771808,31858,58.9462239,5.733446,04/05/2023,1.0,Andel,4016,Stavanger
Stallerudveien 33,8900000,145,4.0,1964.0,Rekkehus,https://www.finn.no/realestate/homes/ad.html?finnkode=301771431,61379,59.873846,10.847951,04/05/2023,,Andel,693,Oslo
Pilestredet Park 19,6400000,56,,2007.0,Leilighet,https://www.finn.no/realestate/homes/ad.html?finnkode=300255887,114285,59.919607,10.739329,04/05/2023,2.0,Eier (Selveier),176,Oslo
Kirkestien 5B,7490000,301,7.0,1954.0,Enebolig,https://www.finn.no/realestate/homes/ad.html?finnkode=298817214,24883,59.781519,10.225267,04/05/2023,3.0,Eier (Selveier),3402,Lier
Lomunddalsvegen,1790000,206,,1970.0,Enebolig,https://www.finn.no/realestate/homes/ad.html?finnkode=301770055,8689,63.1100587,9.329681,04/05/2023,3.0,Eier (Selveier),1007,Rindalsskogen
Tesliåsen 54,8490000,167,,2020.0,Enebolig,https://www.finn.no/realestate/homes/ad.html?finnkode=301770050,50838,63.404715,10.502715,04/05/2023,,Eier (Selveier),7059,Jakobsli
Austmannavegen 7B,1590000,68,3.0,1965.0,Leilighet,https://www.finn.no/realestate/homes/ad.html?finnkode=301523170,23382,59.3952873,5.300224,04/05/2023,1.0,Andel,5537,Haugesund
Dagaliveien 29 B,11950000,118,,1986.0,Leilighet,https://www.finn.no/realestate/homes/ad.html?finnkode=299675296,101271,59.957679,10.684326,04/05/2023,1.0,Eier (Selveier),783,Oslo
Nye Sædalsveien 86,3390000,76,3.0,2013.0,Leilighet,https://www.finn.no/realestate/homes/ad.html?finnkode=301733443,44605,60.3390753,5.3761608,04/05/2023,3.0,Eier (Selveier),5099,Bergen
Myranveien 288,1700000,117,,1936.0,Enebolig,https://www.finn.no/realestate/homes/ad.html?finnkode=278498512,14529,63.687621,8.449259,04/05/2023,,Eier (Selveier),7266,Kverva
Justnesskauen 33,3290000,73,3.0,2016.0,Leilighet,https://www.finn.no/realestate/homes/ad.html?finnkode=301538358,45068,58.1840042,8.0349843,04/05/2023,2.0,Eier (Selveier),4634,Kristiansand S
Tuengen Alle 1A,8500000,65,,2022.0,Leilighet,https://www.finn.no/realestate/homes/ad.html?finnkode=291673324,130769,59.941972,10.702001,04/05/2023,1.0,Eier (Selveier),374,Oslo
Hellhaugan 367,2750000,280,5.0,1974.0,Enebolig,https://www.finn.no/realestate/homes/ad.html?finnkode=301769285,9821,63.956903,11.2871615,04/05/2023,2.0,Eier (Selveier),7670,Inderøy
Ladeveien 38,3750000,48,,2021.0,Leilighet,https://www.finn.no/realestate/homes/ad.html?finnkode=301767144,78125,63.442731,10.435192,04/05/2023,5.0,Eier (Selveier),7066,Trondheim
Høigilts Kleiv 9,5690000,129,,1933.0,Enebolig,https://www.finn.no/realestate/homes/ad.html?finnkode=290721408,44108,58.2436599,8.3717574,04/05/2023,,Eier (Selveier),4790,Lillesand
Ørneveien 4,5400000,228,6.0,1965.0,Enebolig,https://www.finn.no/realestate/homes/ad.html?finnkode=301732416,23684,59.055544,10.049795,04/05/2023,2.0,Eier (Selveier),3258,Larvik
Sagavegen 22,1630000,151,,1978.0,Enebolig,https://www.finn.no/realestate/homes/ad.html?finnkode=301767062,10794,64.0907171,11.2258341,04/05/2023,2.0,Eier (Selveier),7790,Malm
Trollsvingen 10B,3150000,80,,2015.0,Leilighet,https://www.finn.no/realestate/homes/ad.html?finnkode=301658369,39375,59.3005157,11.1077938,04/05/2023,1.0,Andel,1709,Sarpsborg
Leiv Eiriksons gate 51,22500000,266,,1914.0,Enebolig,https://www.finn.no/realestate/homes/ad.html?finnkode=287248695,84586,58.9658085,5.7196612,04/05/2023,,Eier (Selveier),4009,Stavanger
Ringentunet 38A,1990000,75,3.0,2006.0,Leilighet,https://www.finn.no/realestate/homes/ad.html?finnkode=301642293,26533,59.4039362,5.2869915,04/05/2023,1.0,Eier (Selveier),5529,Haugesund
Gyvingjordet 9,2890000,180,5.0,1985.0,Enebolig,https://www.finn.no/realestate/homes/ad.html?finnkode=301766378,16055,59.8785003,8.6399191,04/05/2023,2.0,Eier (Selveier),3660,Rjukan
Vikaveien 506,2450000,166,6.0,1970.0,Enebolig,https://www.finn.no/realestate/homes/ad.html?finnkode=301681958,14759,69.2699067,17.9017183,04/05/2023,2.0,Eier (Selveier),9303,Silsand
Møllerløkka 123,5200000,65,4.0,2017.0,Leilighet,https://www.finn.no/realestate/homes/ad.html?finnkode=300884174,80000,59.908002,10.480535,04/05/2023,3.0,Eier (Selveier),1339,Vøyenenga
Trondheimsveien 5B,4200000,43,2.0,1941.0,Leilighet,https://www.finn.no/realestate/homes/ad.html?finnkode=301740589,97674,59.918247,10.760946,04/05/2023,4.0,Andel,560,Oslo
Trolldalen 27B,4500000,165,,1979.0,Enebolig,https://www.finn.no/realestate/homes/ad.html?finnkode=301523918,27272,59.146541,10.9389767,04/05/2023,2.0,Eier (Selveier),1676,Kråkerøy
Blåveisstien 15,4600000,207,6.0,2018.0,Enebolig,https://www.finn.no/realestate/homes/ad.html?finnkode=301502911,22222,59.702409,11.29108,04/05/2023,,Eier (Selveier),1866,Båstad
Sigurds gate 28,4190000,59,3.0,1899.0,Leilighet,https://www.finn.no/realestate/homes/ad.html?finnkode=301690411,71016,60.3898931,5.3194458,04/05/2023,2.0,Andel,5015,Bergen
Gravdalsveien 35B,3100000,72,3.0,2006.0,Leilighet,https://www.finn.no/realestate/homes/ad.html?finnkode=301686296,43055,60.3872451,5.2670258,04/05/2023,3.0,Eier (Selveier),5165,Laksevåg
Årvollveien 60D,5600000,67,3.0,2006.0,Leilighet,https://www.finn.no/realestate/homes/ad.html?finnkode=301652022,83582,59.95236,10.818464,04/05/2023,3.0,Eier (Selveier),590,Oslo
Såvegen 1D,3190000,44,2.0,2007.0,Leilighet,https://www.finn.no/realestate/homes/ad.html?finnkode=301700469,72500,60.1423063,11.1655544,04/05/2023,2.0,Eier (Selveier),2050,Jessheim
Harald Hårfagres vei 34C,3150000,68,3.0,1963.0,Leilighet,https://www.finn.no/realestate/homes/ad.html?finnkode=301664504,46323,59.803403,10.824141,04/05/2023,3.0,Andel,1412,Sofiemyr
Evangjordet 1,2750000,48,2.0,2020.0,Leilighet,https://www.finn.no/realestate/homes/ad.html?finnkode=301648425,57291,60.113432,11.46195,04/05/2023,4.0,Eier (Selveier),2150,Årnes
Lauritz Hervigs vei 100A,2150000,80,3.0,1967.0,Leilighet,https://www.finn.no/realestate/homes/ad.html?finnkode=301536252,26875,59.7146735,10.228012,04/05/2023,2.0,Andel,3035,Drammen
Bregnefaret 25,9000000,178,7.0,2010.0,Enebolig,https://www.finn.no/realestate/homes/ad.html?finnkode=301744623,50561,59.765935,10.854068,04/05/2023,,Eier (Selveier),1405,Langhus
Sandvikbakken 40,2500000,116,,1988.0,Leilighet,https://www.finn.no/realestate/homes/ad.html?finnkode=301655888,21551,58.8697272,5.7697489,04/05/2023,3.0,Andel,4329,Sandnes
Sylvelinstien 55,2700000,64,,1975.0,Rekkehus,https://www.finn.no/realestate/homes/ad.html?finnkode=300907816,42187,58.9451044,5.7003342,04/05/2023,,Andel,4021,Stavanger
Lønnåsen 25C,9690000,133,5.0,1971.0,Rekkehus,https://www.finn.no/realestate/homes/ad.html?finnkode=301685833,72857,59.938368,10.596262,04/05/2023,1.0,Eier (Selveier),1362,Hosle
Rektor Oldens gate 10C,4300000,105,3.0,1985.0,Leilighet,https://www.finn.no/realestate/homes/ad.html?finnkode=301681935,40952,58.9558144,5.69176,04/05/2023,2.0,Eier (Selveier),4022,Stavanger
Tennisveien 1,2490000,68,2.0,1978.0,Leilighet,https://www.finn.no/realestate/homes/ad.html?finnkode=301685589,36617,58.9520361,5.7004197,04/05/2023,1.0,Andel,4021,Stavanger
Vesterled 25,4200000,82,,2013.0,Leilighet,https://www.finn.no/realestate/homes/ad.html?finnkode=301764437,51219,58.3341482,8.5855271,04/05/2023,1.0,Eier (Selveier),4879,Grimstad
Blakerveien 681,3790000,313,,1900.0,Enebolig,https://www.finn.no/realestate/homes/ad.html?finnkode=301504720,12108,59.985735,11.335738,04/05/2023,,Eier (Selveier),1925,Blaker
Gangveien 16,3500000,135,4.0,1971.0,Enebolig,https://www.finn.no/realestate/homes/ad.html?finnkode=301761579,25925,59.274334,11.1492315,04/05/2023,1.0,Eier (Selveier),1738,Borgenhaugen
Skippergata 12,2490000,116,,1900.0,Tomannsbolig,https://www.finn.no/realestate/homes/ad.html?finnkode=298697206,21465,59.4162974,10.487177,04/05/2023,1.0,Eier (Selveier),3187,Horten
Orreleiken 10,11990000,276,,1987.0,Enebolig,https://www.finn.no/realestate/homes/ad.html?finnkode=301758336,43442,59.8213106,10.4164327,04/05/2023,,Eier (Selveier),1388,Borgen
Tomasjordvegen 237,2490000,57,2.0,1975.0,Leilighet,https://www.finn.no/realestate/homes/ad.html?finnkode=301496114,43684,69.672378,19.044738,04/05/2023,2.0,Andel,9024,Tomasjord
Hanseringen 15,5250000,110,4.0,2015.0,Enebolig,https://www.finn.no/realestate/homes/ad.html?finnkode=301637586,47727,59.833545,10.259708,04/05/2023,2.0,Eier (Selveier),3406,Tranby
Åmundssvingen 57,3550000,127,,1976.0,Rekkehus,https://www.finn.no/realestate/homes/ad.html?finnkode=301751627,27952,60.4617948,5.3411689,04/05/2023,,Andel,5115,Ulset
Øystein Møylas veg 16C,3490000,71,,1960.0,Leilighet,https://www.finn.no/realestate/homes/ad.html?finnkode=301750492,49154,63.4053434,10.4028126,04/05/2023,3.0,Andel,7031,Trondheim
Holmsmoen 7,6100000,214,4.0,1962.0,Enebolig,https://www.finn.no/realestate/homes/ad.html?finnkode=301421646,28504,60.0774495,11.1410033,04/05/2023,2.0,Eier (Selveier),2040,Kløfta
Vestre Åslund 17H,4700000,73,2.0,2004.0,Leilighet,https://www.finn.no/realestate/homes/ad.html?finnkode=301733275,64383,59.676174,10.654709,04/05/2023,3.0,Eier (Selveier),1445,Drøbak
Buerhagan 21B,4890000,153,5.0,2006.0,Enebolig,https://www.finn.no/realestate/homes/ad.html?finnkode=301749885,31960,59.0916727,10.2590522,04/05/2023,,Eier (Selveier),3234,Sandefjord
Kinnavegen 28,3690000,143,5.0,2011.0,Tomannsbolig,https://www.finn.no/realestate/homes/ad.html?finnkode=301572855,25804,60.4665511,5.0912826,04/05/2023,2.0,Eier (Selveier),5310,Hauglandshella
Horsters gate 6,2600000,64,3.0,1953.0,Leilighet,https://www.finn.no/realestate/homes/ad.html?finnkode=301639712,40625,61.1105067,10.4657849,04/05/2023,1.0,Andel,2609,Lillehammer
Astrups vei 57,11000000,375,11.0,1948.0,Enebolig,https://www.finn.no/realestate/homes/ad.html?finnkode=301495416,29333,60.3604016,5.3556162,04/05/2023,,Eier (Selveier),5067,Bergen
Sandmovegen 3,4690000,134,4.0,1992.0,Tomannsbolig,https://www.finn.no/realestate/homes/ad.html?finnkode=301646265,35000,63.3343802,10.3629776,04/05/2023,,Eier (Selveier),7093,Tiller
Rundhaugveien 14,15450000,216,7.0,1986.0,Tomannsbolig,https://www.finn.no/realestate/homes/ad.html?finnkode=297423274,71527,59.968283,10.796244,04/05/2023,,Eier (Selveier),495,Oslo
Håkon Håkonssons veg 65,2570000,48,2.0,1974.0,Leilighet,https://www.finn.no/realestate/homes/ad.html?finnkode=301539031,53541,61.1285839,10.4705771,04/05/2023,3.0,Andel,2618,Lillehammer
Lysåskroken 46,8500000,152,,1996.0,Enebolig,https://www.finn.no/realestate/homes/ad.html?finnkode=301745210,55921,59.928499,10.928873,04/05/2023,,Eier (Selveier),1461,Lørenskog
Skåthaugkleiva 16B,4100000,156,4.0,2006.0,Tomannsbolig,https://www.finn.no/realestate/homes/ad.html?finnkode=300877995,26282,62.4512692,6.355838,04/05/2023,2.0,Eier (Selveier),6010,Ålesund
Rudbakken 20,6550000,134,5.0,2008.0,Enebolig,https://www.finn.no/realestate/homes/ad.html?finnkode=301659010,48880,60.0191611,10.904134,04/05/2023,,Eier (Selveier),1480,Slattum
Skulegata 1A,1850000,74,4.0,1964.0,Leilighet,https://www.finn.no/realestate/homes/ad.html?finnkode=301003065,25000,60.5901239,5.8215012,04/05/2023,5.0,Eier (Selveier),5722,Dalekvam
Statsminister Michelsens veg 25,5290000,98,3.0,1890.0,Leilighet,https://www.finn.no/realestate/homes/ad.html?finnkode=301743116,53979,60.3439526,5.3398988,04/05/2023,3.0,Eier (Selveier),5230,Paradis
Dvergsnesheia 25,5590000,156,,2018.0,Enebolig,https://www.finn.no/realestate/homes/ad.html?finnkode=301740436,35833,58.128028,8.069677,04/05/2023,,Eier (Selveier),4639,Kristiansand S
Nøttveitvegen 148,5950000,103,4.0,2021.0,Tomannsbolig,https://www.finn.no/realestate/homes/ad.html?finnkode=301692270,57766,60.287683,5.346813,04/05/2023,,Eier (Selveier),5238,Rådal
Hovlivegen 14,3690000,113,4.0,2009.0,Tomannsbolig,https://www.finn.no/realestate/homes/ad.html?finnkode=301741437,32654,62.4977479,6.2153421,04/05/2023,,Eier (Selveier),6057,Ellingsøy
Holtavegen 20D,3890000,97,4.0,1966.0,Rekkehus,https://www.finn.no/realestate/homes/ad.html?finnkode=301740742,40103,60.2938532,5.3217149,04/05/2023,1.0,Andel,5239,Rådal
Neptunveien 19,5450000,319,,1980.0,Enebolig,https://www.finn.no/realestate/homes/ad.html?finnkode=263166425,17084,58.4719183,8.7867796,04/05/2023,,Eier (Selveier),4843,Arendal
Svehøgda 167,5750000,190,,2004.0,Enebolig,https://www.finn.no/realestate/homes/ad.html?finnkode=295198097,30263,63.4223735,10.7508925,04/05/2023,3.0,Eier (Selveier),7550,Hommelvik
Per O. Lunds gate 14,3650000,44,2.0,2020.0,Leilighet,https://www.finn.no/realestate/homes/ad.html?finnkode=301737994,82954,59.916554,10.955663,04/05/2023,2.0,Eier (Selveier),1475,Finstadjordet
Nordliagutua 10,1800000,167,4.0,1952.0,Enebolig,https://www.finn.no/realestate/homes/ad.html?finnkode=301732975,10778,60.2859321,10.6145204,04/05/2023,2.0,Eier (Selveier),2740,Roa
Buggelandsbakken 58,2650000,54,,2016.0,Leilighet,https://www.finn.no/realestate/homes/ad.html?finnkode=301564992,49074,58.8132728,5.7569852,04/05/2023,2.0,Eier (Selveier),4324,Sandnes
Astronomvegen 33,6790000,270,,1964.0,Tomannsbolig,https://www.finn.no/realestate/homes/ad.html?finnkode=301732286,25148,63.390889,10.415535,04/05/2023,,Eier (Selveier),7036,Trondheim
Armauer Hansens vei 15,2890000,69,3.0,1962.0,Leilighet,https://www.finn.no/realestate/homes/ad.html?finnkode=301735211,41884,60.3460137,5.3589641,04/05/2023,5.0,Andel,5081,Bergen
Jultreskogen 48,3390000,181,5.0,2009.0,Enebolig,https://www.finn.no/realestate/homes/ad.html?finnkode=301734998,18729,63.20876,8.047446,04/05/2023,,Eier (Selveier),6590,Tustna
Poppelveien 5,8500000,248,6.0,1961.0,Enebolig,https://www.finn.no/realestate/homes/ad.html?finnkode=301550880,34274,58.9755599,5.6956101,04/05/2023,2.0,Eier (Selveier),4025,Stavanger
Bøbakken 15F,2750000,65,3.0,1991.0,Leilighet,https://www.finn.no/realestate/homes/ad.html?finnkode=301707005,42307,59.146016,10.178631,04/05/2023,2.0,Eier (Selveier),3242,Sandefjord
Hamrevegen 37B,4340000,93,4.0,2022.0,Leilighet,https://www.finn.no/realestate/homes/ad.html?finnkode=301732973,46666,60.288979,5.384767,04/05/2023,1.0,Eier (Selveier),5229,Kalandseidet
Geilan 6,4500000,248,5.0,1953.0,Enebolig,https://www.finn.no/realestate/homes/ad.html?finnkode=301668202,18145,63.3051334,9.8480098,04/05/2023,,Eier (Selveier),7300,Orkanger
Kjørbekkvegen 36,1790000,65,,1952.0,Leilighet,https://www.finn.no/realestate/homes/ad.html?finnkode=301731132,27538,59.1768548,9.6164602,04/05/2023,2.0,Andel,3735,Skien
Wessels gate 4,3890000,58,,1933.0,Leilighet,https://www.finn.no/realestate/homes/ad.html?finnkode=301729746,67068,60.3851657,5.3217229,04/05/2023,4.0,Andel,5006,Bergen
Hamangskogen 69,10900000,131,,1983.0,Leilighet,https://www.finn.no/realestate/homes/ad.html?finnkode=288405138,83206,59.895469,10.510522,04/05/2023,4.0,Eier (Selveier),1338,Sandvika
Garver Ytteborgs vei 121,3490000,73,3.0,1969.0,Leilighet,https://www.finn.no/realestate/homes/ad.html?finnkode=301512149,47808,59.951709,10.917722,04/05/2023,5.0,Andel,977,Oslo
St. Halvards vei 30,6950000,218,,1931.0,Rekkehus,https://www.finn.no/realestate/homes/ad.html?finnkode=301727498,31880,60.370951,5.352241,04/05/2023,,Eier (Selveier),5052,Bergen
Moveien 93A,4600000,173,6.0,1935.0,Enebolig,https://www.finn.no/realestate/homes/ad.html?finnkode=301725739,26589,59.1456377,10.1949306,04/05/2023,2.0,Eier (Selveier),3221,Sandefjord
Gamleveien 66,1750000,225,,1956.0,Tomannsbolig,https://www.finn.no/realestate/homes/ad.html?finnkode=301642837,7777,58.4567434,6.0116225,04/05/2023,,Eier (Selveier),4370,Egersund
Eitrheim 55,3250000,195,,1979.0,Enebolig,https://www.finn.no/realestate/homes/ad.html?finnkode=301719286,16666,60.1002061,6.5298679,04/05/2023,2.0,Eier (Selveier),5750,Odda
Tyltersvingen 102,2600000,86,,2016.0,Leilighet,https://www.finn.no/realestate/homes/ad.html?finnkode=301725143,30232,59.3623269,5.3108127,04/05/2023,2.0,Eier (Selveier),5545,Vormedal
Vestre Ådal 207,980000,61,2.0,1959.0,Enebolig,https://www.finn.no/realestate/homes/ad.html?finnkode=301658738,16065,60.2453014,10.156093,04/05/2023,2.0,Eier (Selveier),3516,Hønefoss
Åsane Senter 54A,1390000,34,2.0,2009.0,Leilighet,https://www.finn.no/realestate/homes/ad.html?finnkode=301723853,40882,60.4655849,5.3197865,04/05/2023,3.0,Andel,5116,Ulset
Kronstadveien 21B,3390000,57,,1988.0,Leilighet,https://www.finn.no/realestate/homes/ad.html?finnkode=301722738,59473,60.3766231,5.345053,04/05/2023,2.0,Andel,5053,Bergen
Sørengkaia 66,5500000,47,2.0,2012.0,Leilighet,https://www.finn.no/realestate/homes/ad.html?finnkode=301607261,117021,59.902563,10.756123,04/05/2023,1.0,Eier (Selveier),194,Oslo
Prestekrageveien 7,7500000,190,,2015.0,Enebolig,https://www.finn.no/realestate/homes/ad.html?finnkode=301721249,39473,58.4004802,8.6860234,04/05/2023,,Eier (Selveier),4823,Nedenes
Elvegata 8,8490000,286,4.0,1927.0,Enebolig,https://www.finn.no/realestate/homes/ad.html?finnkode=301720186,29685,60.1714316,10.2653685,04/05/2023,3.0,Eier (Selveier),3513,Hønefoss
Oklavegen 12 A,2890000,82,3.0,2015.0,Leilighet,https://www.finn.no/realestate/homes/ad.html?finnkode=300924983,35243,62.1863247,6.1173019,04/05/2023,2.0,Eier (Selveier),6155,Ørsta
Observatoriegata 14A,13500000,131,3.0,1881.0,Leilighet,https://www.finn.no/realestate/homes/ad.html?finnkode=289708266,103053,59.912284,10.723204,04/05/2023,3.0,Eier (Selveier),254,Oslo
Linjevegen 14,4990000,88,2.0,1960.0,Enebolig,https://www.finn.no/realestate/homes/ad.html?finnkode=301605346,56704,60.1564808,11.1797674,04/05/2023,1.0,Eier (Selveier),2068,Jessheim
Jorunstien 54,2500000,58,2.0,2004.0,Leilighet,https://www.finn.no/realestate/homes/ad.html?finnkode=301718812,43103,59.2297012,10.9301404,04/05/2023,2.0,Andel,1613,Fredrikstad
Dåpaløkka 48,4490000,237,,1981.0,Enebolig,https://www.finn.no/realestate/homes/ad.html?finnkode=301716479,18945,59.0883085,10.2057273,04/05/2023,2.0,Eier (Selveier),3231,Sandefjord
Trosvikvegen 37A,1350000,61,3.0,1957.0,Leilighet,https://www.finn.no/realestate/homes/ad.html?finnkode=301716184,22131,59.053072,9.693402,04/05/2023,2.0,Andel,3950,Brevik
Nedre Møllenberg gate 56A,2090000,42,2.0,1899.0,Leilighet,https://www.finn.no/realestate/homes/ad.html?finnkode=300412621,49761,63.4326683,10.4139256,04/05/2023,2.0,Andel,7014,Trondheim
Roald Amundsens gate 28C,1690000,76,2.0,1978.0,Leilighet,https://www.finn.no/realestate/homes/ad.html?finnkode=301677366,22236,58.860652,5.741241,04/05/2023,5.0,Andel,4307,Sandnes
Kvålsvegen 175,4690000,283,5.0,1962.0,Enebolig,https://www.finn.no/realestate/homes/ad.html?finnkode=280673333,16572,63.2325572,10.2770375,04/05/2023,,Eier (Selveier),7228,Kvål
Vestlivegen 76C,1950000,55,2.0,1988.0,Leilighet,https://www.finn.no/realestate/homes/ad.html?finnkode=301715129,35454,60.5299988,8.2293325,04/05/2023,2.0,Eier (Selveier),3580,Geilo
Ekornveien 23,5990000,272,6.0,1973.0,Enebolig,https://www.finn.no/realestate/homes/ad.html?finnkode=301675682,22022,59.764881,9.919447,04/05/2023,2.0,Eier (Selveier),3300,Hokksund
Bjarne Haugens gate 38,4095000,88,4.0,2022.0,Leilighet,https://www.finn.no/realestate/homes/ad.html?finnkode=301539108,46534,59.91736,10.952543,04/05/2023,3.0,Andel,1475,Finstadjordet
Gårdsveien 8 B,3290000,119,5.0,2008.0,Tomannsbolig,https://www.finn.no/realestate/homes/ad.html?finnkode=277833807,27647,63.1257455,7.8099977,04/05/2023,,Eier (Selveier),6518,Kristiansund N
Riis terrasse 27,6490000,205,7.0,1963.0,Rekkehus,https://www.finn.no/realestate/homes/ad.html?finnkode=301671648,31658,59.9813629,11.051821,04/05/2023,,Eier (Selveier),2007,Kjeller
Basunvegen 34,6750000,223,,1979.0,Enebolig,https://www.finn.no/realestate/homes/ad.html?finnkode=301712949,30269,63.4357569,10.6463801,04/05/2023,,Eier (Selveier),7560,Vikhammer
Dronning Åstas gate 21,4500000,234,4.0,1965.0,Enebolig,https://www.finn.no/realestate/homes/ad.html?finnkode=301657646,19230,60.1551623,10.2509271,04/05/2023,,Eier (Selveier),3511,Hønefoss
Holmsveien 502,620000,97,5.0,1970.0,Enebolig,https://www.finn.no/realestate/homes/ad.html?finnkode=296989971,6391,65.1005833,12.0916135,04/05/2023,,Eier (Selveier),7982,Bindalseidet
Granåsen 76A,6450000,112,,1967.0,Leilighet,https://www.finn.no/realestate/homes/ad.html?finnkode=301712241,57589,59.9413558,10.6014874,04/05/2023,3.0,Eier (Selveier),1362,Hosle
Aspermyrveien 20,4200000,195,5.0,1979.0,Enebolig,https://www.finn.no/realestate/homes/ad.html?finnkode=301657261,21538,58.8653666,5.765731,04/05/2023,3.0,Eier (Selveier),4329,Sandnes
Kulturhusgata 5,3290000,35,2.0,2013.0,Leilighet,https://www.finn.no/realestate/homes/ad.html?finnkode=301670178,94000,59.927216,10.959915,04/05/2023,1.0,Eier (Selveier),1473,Lørenskog
Skolegata 10A,1280000,31,,1961.0,Leilighet,https://www.finn.no/realestate/homes/ad.html?finnkode=289866265,41290,60.7951911,10.6860858,04/05/2023,3.0,Andel,2821,Gjøvik
Kjølberggata 11A,4950000,65,3.0,1898.0,Leilighet,https://www.finn.no/realestate/homes/ad.html?finnkode=301710434,76153,59.910477,10.777793,04/05/2023,3.0,Eier (Selveier),653,Oslo
Drammensveien 50B,7350000,75,3.0,1933.0,Leilighet,https://www.finn.no/realestate/homes/ad.html?finnkode=299647259,98000,59.913298,10.714628,04/05/2023,4.0,Aksje,271,Oslo
Sædalsvegen 116,7490000,275,7.0,1955.0,Enebolig,https://www.finn.no/realestate/homes/ad.html?finnkode=301541476,27236,60.3399756,5.3800918,04/05/2023,3.0,Eier (Selveier),5099,Bergen
Klappmyssveien 13,3190000,114,4.0,1982.0,Rekkehus,https://www.finn.no/realestate/homes/ad.html?finnkode=289199643,27982,58.9999694,5.7195897,04/05/2023,,Andel,4083,Hundvåg
Thereses gate 13b,5750000,87,3.0,1902.0,Leilighet,https://www.finn.no/realestate/homes/ad.html?finnkode=301709112,66091,59.9304,10.733119,04/05/2023,1.0,Eier (Selveier),358,Oslo
Helsetveien 4 Bærums,3500000,48,2.0,1985.0,Leilighet,https://www.finn.no/realestate/homes/ad.html?finnkode=301665971,72916,59.943568,10.513708,04/05/2023,3.0,Eier (Selveier),1353,Verk
Kuskerudparken 4A,4990000,83,3.0,2005.0,Leilighet,https://www.finn.no/realestate/homes/ad.html?finnkode=301670451,60120,59.9866335,11.2387177,04/05/2023,2.0,Eier (Selveier),1920,Sørumsand
Frydenbergveien 42B,7490000,116,5.0,2021.0,Tomannsbolig,https://www.finn.no/realestate/homes/ad.html?finnkode=301574758,64568,59.780678,10.805324,04/05/2023,2.0,Eier (Selveier),1415,Oppegård
Åfossmyra 54,2840000,156,,1973.0,Enebolig,https://www.finn.no/realestate/homes/ad.html?finnkode=295850743,18205,59.2037344,9.5330382,04/05/2023,,Eier (Selveier),3731,Skien
Gamlegrensa 8A,750000,41,2.0,1973.0,Leilighet,https://www.finn.no/realestate/homes/ad.html?finnkode=301359895,18292,59.2178021,9.5903631,04/05/2023,2.0,Andel,3747,Skien
Kalbakkveien 17,3500000,71,3.0,1959.0,Leilighet,https://www.finn.no/realestate/homes/ad.html?finnkode=301677087,49295,59.953459,10.874737,04/05/2023,5.0,Andel,953,Oslo
Pedersgata 28,6750000,254,,1972.0,Enebolig,https://www.finn.no/realestate/homes/ad.html?finnkode=301279891,26574,59.401697,10.4745677,04/05/2023,,Eier (Selveier),3186,Horten
Gamle Dusavikveien 8,3150000,84,3.0,1992.0,Leilighet,https://www.finn.no/realestate/homes/ad.html?finnkode=301699074,37500,58.9947576,5.6802645,04/05/2023,1.0,Eier (Selveier),4029,Stavanger
Bogsnes 48,3500000,263,6.0,1975.0,Enebolig,https://www.finn.no/realestate/homes/ad.html?finnkode=301666915,13307,59.8680277,5.7422895,04/05/2023,,Eier (Selveier),5460,Husnes
Storbotn 89B Øvre,5000000,80,3.0,2016.0,Leilighet,https://www.finn.no/realestate/homes/ad.html?finnkode=301672678,62500,60.4480982,5.3241169,04/05/2023,2.0,Eier (Selveier),5106,Ervik
Dyrhammar 50,3200000,277,6.0,1993.0,Enebolig,https://www.finn.no/realestate/homes/ad.html?finnkode=301705868,11552,59.7048047,5.3761528,04/05/2023,3.0,Eier (Selveier),5440,Mosterhamn
Tittelsnesvegen 689,1750000,152,6.0,1955.0,Enebolig,https://www.finn.no/realestate/homes/ad.html?finnkode=301705636,11513,59.6746071,5.4716346,04/05/2023,,Eier (Selveier),5554,Valevåg
Morteruds gate 22,2790000,83,,1963.0,Leilighet,https://www.finn.no/realestate/homes/ad.html?finnkode=301704197,33614,60.7954103,11.0662853,04/05/2023,2.0,Andel,2317,Hamar
Bygda 2,2290000,78,3.0,1957.0,Leilighet,https://www.finn.no/realestate/homes/ad.html?finnkode=301522575,29358,60.0664201,6.54388,04/05/2023,2.0,Andel,5750,Odda
St. Jørgens vei 19,5250000,66,3.0,1956.0,Leilighet,https://www.finn.no/realestate/homes/ad.html?finnkode=301567816,79545,59.920919,10.795239,04/05/2023,3.0,Andel,662,Oslo
Kingos gate 19,4990000,52,2.0,2005.0,Leilighet,https://www.finn.no/realestate/homes/ad.html?finnkode=301703074,95961,59.930366,10.751961,04/05/2023,2.0,Eier (Selveier),457,Oslo
Langbølgen 39C,4200000,71,3.0,2018.0,Leilighet,https://www.finn.no/realestate/homes/ad.html?finnkode=276123229,59154,59.86737,10.813387,04/05/2023,1.0,Andel,1150,Oslo
Birch-Reichenwalds gate 2H,7300000,76,,2013.0,Leilighet,https://www.finn.no/realestate/homes/ad.html?finnkode=300757348,96052,59.944389,10.773892,04/05/2023,4.0,Eier (Selveier),483,Oslo
Jonas Reins gate 6,5650000,105,,2001.0,Leilighet,https://www.finn.no/realestate/homes/ad.html?finnkode=301702473,53809,60.386524,5.3302141,04/05/2023,6.0,Andel,5008,Bergen
Øvre Møllenberg gate 60B,2150000,30,1.0,1900.0,Leilighet,https://www.finn.no/realestate/homes/ad.html?finnkode=296102465,71666,63.4335467,10.4174793,04/05/2023,3.0,Andel,7043,Trondheim
Temtemoveien 4,4490000,168,4.0,1949.0,Enebolig,https://www.finn.no/realestate/homes/ad.html?finnkode=301678050,26726,59.7608706,9.9554373,04/05/2023,,Eier (Selveier),3053,Steinberg
Sars' gate 22,4350000,46,3.0,1939.0,Leilighet,https://www.finn.no/realestate/homes/ad.html?finnkode=301669532,94565,59.920597,10.769777,04/05/2023,3.0,Eier (Selveier),562,Oslo
Stangelandsvegen 39,2100000,232,3.0,1963.0,Andre,https://www.finn.no/realestate/homes/ad.html?finnkode=289610564,9051,59.993452,5.087456,04/05/2023,,Eier (Selveier),5398,Stolmen
Fabrikkgaten 7B,7590000,87,4.0,2021.0,Leilighet,https://www.finn.no/realestate/homes/ad.html?finnkode=293550808,87241,60.371238,5.345159,04/05/2023,4.0,Eier (Selveier),5059,Bergen
Torsvikveien 39,9100000,213,,1952.0,Enebolig,https://www.finn.no/realestate/homes/ad.html?finnkode=269791560,42723,58.1572362,8.0554818,04/05/2023,,Eier (Selveier),4637,Kristiansand S
Mor Go'hjertas vei 23,3950000,33,2.0,,Leilighet,https://www.finn.no/realestate/homes/ad.html?finnkode=301485340,119696,59.942506,10.764989,04/05/2023,5.0,Andel,469,Oslo
Motlandsmarka 124A,3490000,106,5.0,2007.0,Tomannsbolig,https://www.finn.no/realestate/homes/ad.html?finnkode=301506051,32924,58.656242,5.651605,04/05/2023,2.0,Eier (Selveier),4365,Nærbø
Diakonveien 51,4790000,104,,2002.0,Rekkehus,https://www.finn.no/realestate/homes/ad.html?finnkode=301648525,46057,67.2802756,14.4604345,04/05/2023,,Eier (Selveier),8074,Bodø
Drammensveien 54B,12950000,101,4.0,1937.0,Leilighet,https://www.finn.no/realestate/homes/ad.html?finnkode=294082200,128217,59.91288,10.713676,04/05/2023,3.0,Eier (Selveier),271,Oslo
Sundfaret 3,8900000,179,,1965.0,Tomannsbolig,https://www.finn.no/realestate/homes/ad.html?finnkode=292277742,49720,59.875209,10.5098314,04/05/2023,3.0,Eier (Selveier),1397,Nesøya
Sølvstien 7 Gamle,2500000,69,3.0,1959.0,Leilighet,https://www.finn.no/realestate/homes/ad.html?finnkode=301682672,36231,59.210409,10.994994,04/05/2023,2.0,Eier (Selveier),1639,Fredrikstad
Vardane 131,1700000,54,2.0,2005.0,Leilighet,https://www.finn.no/realestate/homes/ad.html?finnkode=301694925,31481,60.5680191,5.2244776,04/05/2023,1.0,Andel,5911,Alversund
Tvetenveien 233,3400000,69,2.0,1974.0,Leilighet,https://www.finn.no/realestate/homes/ad.html?finnkode=301694557,49275,59.926082,10.864612,04/05/2023,8.0,Andel,675,Oslo
Nesbu terrasse 99,4900000,204,2.0,1967.0,Enebolig,https://www.finn.no/realestate/homes/ad.html?finnkode=301635527,24019,58.9120795,5.6819245,04/05/2023,,Eier (Selveier),4052,Røyneberg
Doktor Wendts gate 8,4950000,71,3.0,2015.0,Leilighet,https://www.finn.no/realestate/homes/ad.html?finnkode=301693779,69718,59.920367,10.950311,04/05/2023,4.0,Eier (Selveier),1461,Lørenskog
Nebbeveien 35,2890000,92,3.0,1973.0,Leilighet,https://www.finn.no/realestate/homes/ad.html?finnkode=301692946,31413,60.351731,5.295253,04/05/2023,2.0,Andel,5144,Fyllingsdalen
Ustedalen 171,3350000,193,5.0,1963.0,Enebolig,https://www.finn.no/realestate/homes/ad.html?finnkode=301692647,17357,60.5304412,8.1770435,04/05/2023,,Eier (Selveier),3580,Geilo
Blåklokkesvingen 47,2790000,54,,2020.0,Leilighet,https://www.finn.no/realestate/homes/ad.html?finnkode=301692312,51666,63.478352,10.944734,04/05/2023,2.0,Eier (Selveier),7507,Stjørdal
Rødstokken 8,6300000,257,,1965.0,Enebolig,https://www.finn.no/realestate/homes/ad.html?finnkode=300900830,24513,61.2251604,7.0987861,04/05/2023,2.0,Eier (Selveier),6856,Sogndal
Nesbukta 6C,5700000,162,5.0,2019.0,Rekkehus,https://www.finn.no/realestate/homes/ad.html?finnkode=301691838,35185,59.86172,10.503177,04/05/2023,3.0,Andel,1394,Nesbru
Strandvegen 102A,3250000,45,2.0,2015.0,Leilighet,https://www.finn.no/realestate/homes/ad.html?finnkode=301542751,72222,69.6374284,18.9348034,04/05/2023,4.0,Eier (Selveier),9006,Tromsø
Havreslettskogen 93,4690000,154,,2019.0,Tomannsbolig,https://www.finn.no/realestate/homes/ad.html?finnkode=293328348,30454,60.190163,10.266734,04/05/2023,,Eier (Selveier),3516,Hønefoss
Sandslimarka 33A,2950000,45,2.0,2021.0,Leilighet,https://www.finn.no/realestate/homes/ad.html?finnkode=301639269,65555,60.292303,5.281956,04/05/2023,4.0,Eier (Selveier),5254,Sandsli
Hoffsveien 90,6350000,94,3.0,1998.0,Leilighet,https://www.finn.no/realestate/homes/ad.html?finnkode=271008000,67553,59.936916,10.682807,04/05/2023,1.0,Eier (Selveier),377,Oslo
Bergveien 1B,8190000,133,,2023.0,Tomannsbolig,https://www.finn.no/realestate/homes/ad.html?finnkode=301690217,61578,60.338514,5.323095,04/05/2023,,Eier (Selveier),5152,Bønes
Blomstervegen 35A,3490000,71,3.0,1972.0,Leilighet,https://www.finn.no/realestate/homes/ad.html?finnkode=301573204,49154,59.9370757,11.0595736,04/05/2023,4.0,Andel,2005,Rælingen
Dronningens gate 33,2900000,98,4.0,1956.0,Leilighet,https://www.finn.no/realestate/homes/ad.html?finnkode=301557368,29591,68.436245,17.427599,04/05/2023,4.0,Eier (Selveier),8514,Narvik
Øvre Eikervei 6,3400000,107,4.0,1870.0,Leilighet,https://www.finn.no/realestate/homes/ad.html?finnkode=262051336,31775,59.7465708,10.1620092,04/05/2023,3.0,Eier (Selveier),3048,Drammen
Stokkedalslien 89,4990000,133,,1982.0,Rekkehus,https://www.finn.no/realestate/homes/ad.html?finnkode=301689446,37518,60.3290001,5.2869202,04/05/2023,,Andel,5155,Bønes
