address,price,area,url,lat,lon,date,price_per_m2,postal_code,city
Tjuvholmen alle,26000 ,62,https://www.finn.no/realestate/lettings/ad.html?finnkode=215832399,59.9078284,10.7217637,05/02/2023,419.0,252,Oslo
KARLSTADGATA 13,25000 ,62,https://www.finn.no/realestate/lettings/ad.html?finnkode=290376527,59.924776,10.764387,05/02/2023,403.0,553,Oslo
Hønsveien 7,12000 ,68,https://www.finn.no/realestate/lettings/ad.html?finnkode=131463425,59.8469439,10.4695153,05/02/2023,176.0,1384,Asker
NEDRE RÆLINGSVEG 597,6500 ,80,https://www.finn.no/realestate/lettings/ad.html?finnkode=125150026,59.8774905,11.0851182,05/02/2023,81.0,2009,Nordby
Drammensveien 56,11000 ,57,https://www.finn.no/realestate/lettings/ad.html?finnkode=122460069,59.750328,10.023218,05/02/2023,192.0,3050,Mjøndalen
Sagdalsveien,18000 ,94,https://www.finn.no/realestate/lettings/ad.html?finnkode=220077229,59.9523128,11.0091544,05/02/2023,191.0,2010,Strømmen
Tjuvholmen alle 4,18500 ,41,https://www.finn.no/realestate/lettings/ad.html?finnkode=110811880,59.908707,10.723047,05/02/2023,451.0,252,Oslo
ENGENE 65,12000 ,100,https://www.finn.no/realestate/lettings/ad.html?finnkode=202026572,59.742833,10.218761,05/02/2023,120.0,3015,Drammen
JOHAN SVENDSENS VEI 15,15000 ,78,https://www.finn.no/realestate/lettings/ad.html?finnkode=290265579,59.9633471,10.9977896,05/02/2023,192.0,2013,Skjetten
Dronning Eufemias gate,21000 ,62,https://www.finn.no/realestate/lettings/ad.html?finnkode=261248879,59.9069818,10.7617982,05/02/2023,338.0,196,Oslo
Tostemvegen 122,6000 ,67,https://www.finn.no/realestate/lettings/ad.html?finnkode=290361233,59.2660205,5.2071745,05/02/2023,89.0,4270,Åkrehamn
Jutulstigen 2,24000 ,130,https://www.finn.no/realestate/lettings/ad.html?finnkode=290356358,59.941745,10.961884,05/02/2023,184.0,1463,Fjellhamar
Holtekilveien 9,10500 ,50,https://www.finn.no/realestate/lettings/ad.html?finnkode=290335928,59.901122,10.598012,05/02/2023,210.0,1368,Stabekk
MIDTRE BORGVIN 12 Bø i,13000 ,120,https://www.finn.no/realestate/lettings/ad.html?finnkode=281292762,59.4014821,9.0745666,05/02/2023,108.0,3800,Telemark
Briskebyveien 15,23000 ,87,https://www.finn.no/realestate/lettings/ad.html?finnkode=290348950,59.921501,10.716465,05/02/2023,264.0,259,Oslo
Kirkegårdsgata 4 A,15500 ,66,https://www.finn.no/realestate/lettings/ad.html?finnkode=290348284,59.921771,10.76344,05/02/2023,234.0,558,Oslo
LURAGATA 33 A,12500 ,71,https://www.finn.no/realestate/lettings/ad.html?finnkode=290303994,58.864485,5.7421124,05/02/2023,176.0,4307,Sandnes
MYNTEVIKVEGEN 124,22500 ,125,https://www.finn.no/realestate/lettings/ad.html?finnkode=169368891,60.2680348,5.2316107,05/02/2023,180.0,5258,Blomsterdalen
Skysetveien 1B,13500 ,64,https://www.finn.no/realestate/lettings/ad.html?finnkode=290324900,59.9991493,10.9283413,05/02/2023,210.0,1481,Hagan
ØVRE LANGGATE 27,11000 ,50,https://www.finn.no/realestate/lettings/ad.html?finnkode=290324383,59.266689,10.411181,05/02/2023,220.0,3110,Tønsberg
Rolfsbuktveien 18,18000 ,56,https://www.finn.no/realestate/lettings/ad.html?finnkode=290316394,59.8921199,10.6291464,05/02/2023,321.0,1364,Fornebu
Grønland 50,18000 ,87,https://www.finn.no/realestate/lettings/ad.html?finnkode=290311713,59.7435,10.195032,05/02/2023,206.0,3045,Drammen
Finstadjordet,15000 ,51,https://www.finn.no/realestate/lettings/ad.html?finnkode=133833975,59.914512,10.968252,05/02/2023,294.0,1475,Finstadjordet
TOMMELSTADS GATE 18,9000 ,60,https://www.finn.no/realestate/lettings/ad.html?finnkode=290315657,60.193758,11.999517,05/02/2023,150.0,2212,Kongsvinger
Hvalstadlia 19C,8900 ,30,https://www.finn.no/realestate/lettings/ad.html?finnkode=148652403,59.8573281,10.4583287,05/02/2023,296.0,1395,Hvalstad
Almebakken 27A,18000 ,104,https://www.finn.no/realestate/lettings/ad.html?finnkode=290180285,60.1886114,10.2714095,05/02/2023,173.0,3516,Hønefoss
Gamle Konglungvei 35,12000 ,45,https://www.finn.no/realestate/lettings/ad.html?finnkode=289015006,59.8379413,10.5021498,05/02/2023,266.0,1392,Vettre
Hovinveien 37G,25000 ,77,https://www.finn.no/realestate/lettings/ad.html?finnkode=290301900,59.920832,10.791458,05/02/2023,324.0,576,Oslo
Grønnegata 13 A,16900 ,50,https://www.finn.no/realestate/lettings/ad.html?finnkode=290306431,59.922048,10.729589,05/02/2023,338.0,350,Oslo
Pans Veg 20,3500 ,70,https://www.finn.no/realestate/lettings/ad.html?finnkode=222147848,59.0766814,9.6833454,05/02/2023,50.0,3940,Porsgrunn
Olsrødsvingen 54b,5500 ,125,https://www.finn.no/realestate/lettings/ad.html?finnkode=290296962,59.2770191,10.4496213,05/02/2023,44.0,3150,Tolvsrød
Lillemyrveien 20,15000 ,96,https://www.finn.no/realestate/lettings/ad.html?finnkode=290291507,58.150095,8.022666,05/02/2023,156.0,4632,Kristiansand S
Janaveien 162,9000 ,51,https://www.finn.no/realestate/lettings/ad.html?finnkode=214508105,60.3676284,5.1786313,05/02/2023,176.0,5179,Godvik
Granbakken 17,7800 ,62,https://www.finn.no/realestate/lettings/ad.html?finnkode=278758965,59.643444,9.644847,05/02/2023,125.0,3615,Kongsberg
Tempevegen 6A,4500 ,13,https://www.finn.no/realestate/lettings/ad.html?finnkode=182653514,63.4094965,10.3980336,05/02/2023,346.0,7031,Trondheim
Enneveien 2,12000 ,90,https://www.finn.no/realestate/lettings/ad.html?finnkode=290285710,59.50255,10.210248,05/02/2023,133.0,3089,Holmestrand
Bogstadveien 9A,7300 ,75,https://www.finn.no/realestate/lettings/ad.html?finnkode=161670049,59.924823,10.724986,05/02/2023,97.0,352,Oslo
Heia 48,16000 ,42,https://www.finn.no/realestate/lettings/ad.html?finnkode=289226951,59.919532,10.695809,05/02/2023,380.0,268,Oslo
Stuttvegen 2 c,9200 ,30,https://www.finn.no/realestate/lettings/ad.html?finnkode=98910772,59.8583917,10.7910084,05/02/2023,306.0,1162,Oslo
Kalfarlien 14,11000 ,45,https://www.finn.no/realestate/lettings/ad.html?finnkode=196092916,60.3889012,5.3434381,05/02/2023,244.0,5022,Bergen
Prestegårdsvegen 9,25000 ,500,https://www.finn.no/realestate/lettings/ad.html?finnkode=283506179,60.8751695,11.5618158,05/02/2023,50.0,2414,Elverum
Verven 16C,22000 ,80,https://www.finn.no/realestate/lettings/ad.html?finnkode=282382417,58.9732164,5.7471117,05/02/2023,275.0,4014,Stavanger
MARIDALSVEIEN 209 B,20000 ,1000,https://www.finn.no/realestate/lettings/ad.html?finnkode=289630285,59.94303,10.763442,05/02/2023,20.0,469,Oslo
Bjerkealléen 32,12000 ,53,https://www.finn.no/realestate/lettings/ad.html?finnkode=193615372,59.8218254,10.3780913,05/02/2023,226.0,1385,Asker
Holtegutua 36,12000 ,64,https://www.finn.no/realestate/lettings/ad.html?finnkode=290274608,60.1599763,11.1340984,05/02/2023,187.0,2067,Jessheim
Skovveien 5,8200 ,145,https://www.finn.no/realestate/lettings/ad.html?finnkode=290275517,59.916301,10.7165,05/02/2023,56.0,257,Oslo
Snarefjellet,16000 ,57,https://www.finn.no/realestate/lettings/ad.html?finnkode=290274107,59.9949945,10.9237632,05/02/2023,280.0,1481,Hagan
TIDEMANDS GATE 3,13000 ,40,https://www.finn.no/realestate/lettings/ad.html?finnkode=185108487,60.3995565,5.3061807,05/02/2023,325.0,5005,Bergen
EIKSVEGEN 39,22500 ,220,https://www.finn.no/realestate/lettings/ad.html?finnkode=290266769,60.1556601,11.0442436,05/02/2023,102.0,2034,Holter
Nordeidedalen 8,15000 ,100,https://www.finn.no/realestate/lettings/ad.html?finnkode=166881418,60.3168937,5.2779666,05/02/2023,150.0,5251,Søreidgrend
KONGEVEIEN 175,20500 ,192,https://www.finn.no/realestate/lettings/ad.html?finnkode=290259013,59.7095858,10.7727392,05/02/2023,106.0,1407,Vinterbro
Colletts gate 33,8000 ,12,https://www.finn.no/realestate/lettings/ad.html?finnkode=245245574,59.92707,10.73827,05/02/2023,666.0,169,Oslo
Landfalløya 38 B,12500 ,50,https://www.finn.no/realestate/lettings/ad.html?finnkode=290263935,59.7486107,10.1702731,05/02/2023,250.0,3023,Drammen
Råstadveien 66,11500 ,120,https://www.finn.no/realestate/lettings/ad.html?finnkode=290244148,59.1474518,10.2502718,05/02/2023,95.0,3228,Sandefjord
Sannervegen 26,15500 ,125,https://www.finn.no/realestate/lettings/ad.html?finnkode=290234188,60.723933,11.1943207,05/02/2023,124.0,2335,Stange
Skytterveien,13990 ,63,https://www.finn.no/realestate/lettings/ad.html?finnkode=220782664,60.4237289,5.3120245,05/02/2023,222.0,5038,Bergen
Hauene 10,9800 ,87,https://www.finn.no/realestate/lettings/ad.html?finnkode=290251475,58.4649758,8.776006,05/02/2023,112.0,4844,Arendal
Torudveien 245,18000 ,232,https://www.finn.no/realestate/lettings/ad.html?finnkode=289998954,59.657618,11.061137,05/02/2023,77.0,1820,Spydeberg
Ladegårdsgaten 37,11000 ,26,https://www.finn.no/realestate/lettings/ad.html?finnkode=290249766,60.4023136,5.3262172,05/02/2023,423.0,5033,Bergen
BLÅBÆRVEIEN 23 B,13500 ,130,https://www.finn.no/realestate/lettings/ad.html?finnkode=161875477,59.2785368,11.0522442,05/02/2023,103.0,1715,Yven
Vardesvingen 6,15000 ,160,https://www.finn.no/realestate/lettings/ad.html?finnkode=290244478,63.815869,9.6695503,05/02/2023,93.0,7165,Oksvoll
TANTE ULRIKKES VEI 75,13000 ,52,https://www.finn.no/realestate/lettings/ad.html?finnkode=173834354,59.957357,10.919661,05/02/2023,250.0,984,Oslo
VERVEN 2 B,10000 ,31,https://www.finn.no/realestate/lettings/ad.html?finnkode=290232910,58.971802,5.747349,05/02/2023,322.0,4014,Stavanger
Eilert Sundts gate 43,15200 ,37,https://www.finn.no/realestate/lettings/ad.html?finnkode=204558796,59.92352,10.721435,05/02/2023,410.0,355,Oslo
Tjuvholmen alle,26000 ,62,https://www.finn.no/realestate/lettings/ad.html?finnkode=215832399,59.9078284,10.7217637,05/02/2023,419.0,252,Oslo
KNIPLEVEIEN 10 B,8000 ,45,https://www.finn.no/realestate/lettings/ad.html?finnkode=58269121,59.221275,10.935605,05/02/2023,177.0,1605,Fredrikstad
Nedre Heggebø 13B Leirvik i,4800 ,65,https://www.finn.no/realestate/lettings/ad.html?finnkode=264293354,61.1293725,5.3530967,05/02/2023,73.0,6953,Sogn
NIC. HELLANDS GATE 30,9000 ,25,https://www.finn.no/realestate/lettings/ad.html?finnkode=290225156,60.807726,11.0807016,05/02/2023,360.0,2319,Hamar
Storveien 16,10000 ,80,https://www.finn.no/realestate/lettings/ad.html?finnkode=222171849,59.2277273,10.909863,05/02/2023,125.0,1605,Fredrikstad
Eide,8500 ,64,https://www.finn.no/realestate/lettings/ad.html?finnkode=290221763,60.5082615,5.4288673,05/02/2023,132.0,5281,Valestrandsfossen
Skjalgsbakken 7,4500 ,15,https://www.finn.no/realestate/lettings/ad.html?finnkode=279216638,58.9467411,5.6817593,05/02/2023,300.0,4041,Hafrsfjord
BREKKE 67,9000 ,132,https://www.finn.no/realestate/lettings/ad.html?finnkode=290209284,59.656805,6.3692283,05/02/2023,68.0,4200,Sauda
Syrinveien 5,8000 ,60,https://www.finn.no/realestate/lettings/ad.html?finnkode=290207441,59.5537921,10.5752188,05/02/2023,133.0,3482,Tofte
Nøysomheten 19 B,20000 ,121,https://www.finn.no/realestate/lettings/ad.html?finnkode=290210774,60.331707,5.345068,05/02/2023,165.0,5232,Paradis
Reset 21 B,17900 ,171,https://www.finn.no/realestate/lettings/ad.html?finnkode=290210448,60.1620302,5.4370567,05/02/2023,104.0,5208,Os
Nedre Gartnergaten 4,19900 ,41,https://www.finn.no/realestate/lettings/ad.html?finnkode=290209336,60.3928772,5.3178185,05/02/2023,485.0,5011,Bergen
GAMLASTØA 6,15000 ,145,https://www.finn.no/realestate/lettings/ad.html?finnkode=289729470,60.5573093,5.2539701,05/02/2023,103.0,5911,Alversund
Cappes vei 10 B,16900 ,71,https://www.finn.no/realestate/lettings/ad.html?finnkode=290208554,60.393325,5.3330623,05/02/2023,238.0,5018,Bergen
Gunnar Schjelderups vei 13 E,15500 ,44,https://www.finn.no/realestate/lettings/ad.html?finnkode=287837142,59.94966,10.776041,05/02/2023,352.0,458,Oslo
Blekenvegen 31,15000 ,150,https://www.finn.no/realestate/lettings/ad.html?finnkode=290041845,61.2062378,10.3061673,05/02/2023,100.0,2656,Follebu
JEGERÅSEN,15900 ,70,https://www.finn.no/realestate/lettings/ad.html?finnkode=290176985,59.9394515,10.5925262,05/02/2023,227.0,1362,Hosle
Østersunds gate 9,11000 ,32,https://www.finn.no/realestate/lettings/ad.html?finnkode=290202661,63.4369819,10.422532,05/02/2023,343.0,7067,Trondheim
Trondheimsveien 157,16000 ,43,https://www.finn.no/realestate/lettings/ad.html?finnkode=267658599,59.931156,10.77881,05/02/2023,372.0,570,Oslo
Storgata 32,8200 ,40,https://www.finn.no/realestate/lettings/ad.html?finnkode=290191219,60.725866,10.613693,05/02/2023,205.0,2830,Raufoss
Storgata 32,9200 ,58,https://www.finn.no/realestate/lettings/ad.html?finnkode=290189428,60.725866,10.613693,05/02/2023,158.0,2830,Raufoss
Storgata 32,8000 ,48,https://www.finn.no/realestate/lettings/ad.html?finnkode=290185475,60.725866,10.613693,05/02/2023,166.0,2830,Raufoss
Gullvikvegen 26,3700 ,15,https://www.finn.no/realestate/lettings/ad.html?finnkode=290185232,64.4697007,11.4810524,05/02/2023,246.0,7802,Namsos
ASKELADDVEIEN 7 A,10000 ,60,https://www.finn.no/realestate/lettings/ad.html?finnkode=74269680,58.9491552,5.7125748,05/02/2023,166.0,4011,Stavanger
Freserveien 37,25000 ,73,https://www.finn.no/realestate/lettings/ad.html?finnkode=290176719,59.9024,10.788557,05/02/2023,342.0,195,Oslo
Vittenbergveien 109,12000 ,38,https://www.finn.no/realestate/lettings/ad.html?finnkode=257749520,59.937929,11.00238,05/02/2023,315.0,1472,Fjellhamar
LANGEMYRJORDET 8,5000 ,40,https://www.finn.no/realestate/lettings/ad.html?finnkode=60293992,58.323667,8.561322,05/02/2023,125.0,4879,Grimstad
Midtvangvegen 132,8000 ,75,https://www.finn.no/realestate/lettings/ad.html?finnkode=290168444,60.820847,11.1311394,05/02/2023,106.0,2323,Ingeberg
Brunevegen 49,7500 ,50,https://www.finn.no/realestate/lettings/ad.html?finnkode=78417063,61.496449,5.969147,05/02/2023,150.0,6811,Førde
SELJEVEIEN 4,15500 ,150,https://www.finn.no/realestate/lettings/ad.html?finnkode=212395901,59.7332576,9.8589226,05/02/2023,103.0,3320,Vestfossen
Hoffsjef Løvenskiolds vei 31E,"18500,–",79,https://www.finn.no/realestate/lettings/ad.html?finnkode=289953528,59.931545,10.643649,05/02/2023,,382,Oslo
Høyås 6,"11000,–",40,https://www.finn.no/realestate/lettings/ad.html?finnkode=290099701,59.275592,11.063276,05/02/2023,,1715,Yven
Ringveien 41D,"9500,–",30,https://www.finn.no/realestate/lettings/ad.html?finnkode=289833244,60.061337,10.851713,05/02/2023,,1482,Nittedal
Hektnerhagan 147,"15000,–",77,https://www.finn.no/realestate/lettings/ad.html?finnkode=289971491,59.8985921,11.0868028,05/02/2023,,2008,Fjerdingby
Å-veien 59,15000 ,150,https://www.finn.no/realestate/lettings/ad.html?finnkode=230752796,67.8793789,12.9853307,05/02/2023,100.0,8392,Sørvågen
Keysers gate,7500 ,12,https://www.finn.no/realestate/lettings/ad.html?finnkode=270636831,59.9166852,10.7417014,05/02/2023,625.0,165,Oslo
hans nielsen hauges gate 50B,1950 ,15,https://www.finn.no/realestate/lettings/ad.html?finnkode=290148774,59.939014,10.78004,05/02/2023,130.0,481,Oslo
Høienhaldgata 33,6000 ,40,https://www.finn.no/realestate/lettings/ad.html?finnkode=259631293,59.4285655,10.6689261,05/02/2023,150.0,1530,Moss
VALKYRIEGATA 15 B,6400 ,21,https://www.finn.no/realestate/lettings/ad.html?finnkode=290148414,59.929517,10.716807,05/02/2023,304.0,366,Oslo
Johnny Svorkmos vei,900 ,12,https://www.finn.no/realestate/lettings/ad.html?finnkode=290144929,59.95793,10.9355909,05/02/2023,75.0,983,Oslo
Charlotte Andersens vei 11B,12000 ,40,https://www.finn.no/realestate/lettings/ad.html?finnkode=283022173,59.941004,10.696744,05/02/2023,300.0,374,Oslo
SKRIVERGATEN 41,13500 ,60,https://www.finn.no/realestate/lettings/ad.html?finnkode=141748398,60.3725938,5.3376412,05/02/2023,225.0,5054,Bergen
AASMUND VINJES GATE 11,4000 ,150,https://www.finn.no/realestate/lettings/ad.html?finnkode=290138735,63.4277567,10.4180647,05/02/2023,26.0,7015,Trondheim
45 Træo,7500 ,155,https://www.finn.no/realestate/lettings/ad.html?finnkode=286894233,60.194366,5.769533,05/02/2023,48.0,5645,Sævareid
COLLETTS GATE 33,8550 ,15,https://www.finn.no/realestate/lettings/ad.html?finnkode=290134350,59.92707,10.73827,05/02/2023,570.0,169,Oslo
Tomasjordnes 59,13000 ,56,https://www.finn.no/realestate/lettings/ad.html?finnkode=290138329,69.6663635,19.0187125,05/02/2023,232.0,9024,Tomasjord
Lerviksbakken 22,13500 ,57,https://www.finn.no/realestate/lettings/ad.html?finnkode=266429988,58.4504536,6.0035843,05/02/2023,236.0,4370,Egersund
KLØFTA 9,12000 ,90,https://www.finn.no/realestate/lettings/ad.html?finnkode=124751856,59.010117,10.029582,05/02/2023,133.0,3292,Stavern
AMMERUDGRENDA 170,7000 ,12,https://www.finn.no/realestate/lettings/ad.html?finnkode=277207032,59.965203,10.879395,05/02/2023,583.0,960,Oslo
Hasselvikveien 951,10000 ,100,https://www.finn.no/realestate/lettings/ad.html?finnkode=263175492,63.631339,9.8265239,05/02/2023,100.0,7112,Hasselvika
Hannibalveien 8,9000 ,71,https://www.finn.no/realestate/lettings/ad.html?finnkode=99470748,59.2133922,10.9604619,05/02/2023,126.0,1604,Fredrikstad
Brages gate 1b,12900 ,90,https://www.finn.no/realestate/lettings/ad.html?finnkode=175818158,59.406832,10.4707556,05/02/2023,143.0,3182,Horten
KRISTIAN AUGUSTS GATE 4,11000 ,90,https://www.finn.no/realestate/lettings/ad.html?finnkode=172894544,59.124578,11.385947,05/02/2023,122.0,1776,Halden
Kristian Augusts gate 4,7000 ,50,https://www.finn.no/realestate/lettings/ad.html?finnkode=52734260,59.124578,11.385947,05/02/2023,140.0,1776,Halden
Giskegata 37,6000 ,80,https://www.finn.no/realestate/lettings/ad.html?finnkode=290116462,62.4715485,6.1404971,05/02/2023,75.0,6005,Ålesund
Havnegata 49a,8000 ,40,https://www.finn.no/realestate/lettings/ad.html?finnkode=173855560,70.076225,29.734041,05/02/2023,200.0,9800,Vadsø
Ivar Aasens vei 2 B,16500 ,50,https://www.finn.no/realestate/lettings/ad.html?finnkode=290118747,59.937736,10.70984,05/02/2023,330.0,373,Oslo
SEILDUKSGATA 17,7125 ,11,https://www.finn.no/realestate/lettings/ad.html?finnkode=286566417,59.925443,10.759484,05/02/2023,647.0,553,Oslo
Skeievegen 13,10000 ,161,https://www.finn.no/realestate/lettings/ad.html?finnkode=290113432,59.5479282,5.8534912,05/02/2023,62.0,5585,Sandeid
Nannestadvegen 524,10500 ,39,https://www.finn.no/realestate/lettings/ad.html?finnkode=290091448,60.256295,11.027796,05/02/2023,269.0,2032,Maura
Rådyrstien 27,16000 ,133,https://www.finn.no/realestate/lettings/ad.html?finnkode=290111504,59.4963382,10.2613316,05/02/2023,120.0,3089,Holmestrand
Romsaas Allè 11,11500 ,40,https://www.finn.no/realestate/lettings/ad.html?finnkode=215322667,60.142204,11.160905,05/02/2023,287.0,2063,Jessheim
SLEMDALSVEIEN 93 A,8500 ,260,https://www.finn.no/realestate/lettings/ad.html?finnkode=80131213,59.94785,10.709752,05/02/2023,32.0,373,Oslo
SETERBRÅTVEIEN 95,1000 ,18,https://www.finn.no/realestate/lettings/ad.html?finnkode=104020039,59.826775,10.833474,05/02/2023,55.0,1271,Oslo
Tostrups gate 19,29000 ,150,https://www.finn.no/realestate/lettings/ad.html?finnkode=290110019,59.916812,10.701984,05/02/2023,193.0,264,Oslo
Vinkelveien 8,8500 ,48,https://www.finn.no/realestate/lettings/ad.html?finnkode=160987603,59.978053,11.243605,05/02/2023,177.0,1920,Sørumsand
Olav Rustis gate 9,14500 ,53,https://www.finn.no/realestate/lettings/ad.html?finnkode=290108795,60.38077,5.319114,05/02/2023,273.0,5057,Bergen
Omsens gate,22000 ,73,https://www.finn.no/realestate/lettings/ad.html?finnkode=263950209,59.9348389,10.766054,05/02/2023,301.0,478,Oslo
Kalvedalsveien 47a,5950 ,18,https://www.finn.no/realestate/lettings/ad.html?finnkode=290096881,60.3846255,5.353361,05/02/2023,330.0,5022,Bergen
Bruerveien,15000 ,93,https://www.finn.no/realestate/lettings/ad.html?finnkode=275699460,59.545295,10.745465,05/02/2023,161.0,1550,Hølen
Kalvsjøhagen 4,9500 ,85,https://www.finn.no/realestate/lettings/ad.html?finnkode=290100503,60.2918823,10.573941,05/02/2023,111.0,2730,Lunner
Bergkrystallen 14B,"17000,–",115,https://www.finn.no/realestate/lettings/ad.html?finnkode=289974846,59.881745,11.245281,05/02/2023,,1903,Gan
RÅDYRVEIEN 31,22000 ,200,https://www.finn.no/realestate/lettings/ad.html?finnkode=290093960,59.24436,10.9264865,05/02/2023,110.0,1615,Fredrikstad
Erika Nissens vei 3 D,20000 ,138,https://www.finn.no/realestate/lettings/ad.html?finnkode=290101363,58.9633632,5.7044001,05/02/2023,144.0,4023,Stavanger
ÅSEBØEN 3,6500 ,24,https://www.finn.no/realestate/lettings/ad.html?finnkode=290098775,62.4654108,6.3167738,05/02/2023,270.0,6017,Ålesund
Sverdrups gate 31 A,14500 ,64,https://www.finn.no/realestate/lettings/ad.html?finnkode=290100303,58.9737344,5.7185173,05/02/2023,226.0,4007,Stavanger
Heiveien 877,7700 ,80,https://www.finn.no/realestate/lettings/ad.html?finnkode=183331809,58.7486482,8.862511,05/02/2023,96.0,4985,Vegårshei
Gladengveien 7 C,15500 ,39,https://www.finn.no/realestate/lettings/ad.html?finnkode=290096957,59.915536,10.790298,05/02/2023,397.0,661,Oslo
HOLSTS GATE 11 B,15900 ,49,https://www.finn.no/realestate/lettings/ad.html?finnkode=290095506,59.931137,10.762202,05/02/2023,324.0,473,Oslo
Stjørdalsveien 3 F,12500 ,35,https://www.finn.no/realestate/lettings/ad.html?finnkode=290094215,63.442001,10.433615,05/02/2023,357.0,7066,Trondheim
Julianus Holms veg 70,13500 ,46,https://www.finn.no/realestate/lettings/ad.html?finnkode=290093902,63.441658,10.462886,05/02/2023,293.0,7041,Trondheim
Sørengkaia 21,40000 ,114,https://www.finn.no/realestate/lettings/ad.html?finnkode=290093897,59.903911,10.756147,05/02/2023,350.0,194,Oslo
Erling Skakkes gate 60 E,25000 ,103,https://www.finn.no/realestate/lettings/ad.html?finnkode=290093660,63.429804,10.383466,05/02/2023,242.0,7012,Trondheim
Glommengata 3,13800 ,57,https://www.finn.no/realestate/lettings/ad.html?finnkode=290093667,60.1861437,12.0071861,05/02/2023,242.0,2211,Kongsvinger
Vibes gate 18 B,16000 ,47,https://www.finn.no/realestate/lettings/ad.html?finnkode=290093587,59.927386,10.72469,05/02/2023,340.0,356,Oslo
Professor Keysers gate 2A,13000 ,39,https://www.finn.no/realestate/lettings/ad.html?finnkode=229133805,60.3881906,5.3238688,05/02/2023,333.0,5007,Bergen
Skippingveien 17,9500 ,42,https://www.finn.no/realestate/lettings/ad.html?finnkode=288698943,59.4476526,10.646233,05/02/2023,226.0,1513,Moss
TOREHAUGVEGEN 37,5500 ,45,https://www.finn.no/realestate/lettings/ad.html?finnkode=237491662,61.59691,9.7484288,05/02/2023,122.0,2640,Vinstra
Ullernveien 13,7500 ,20,https://www.finn.no/realestate/lettings/ad.html?finnkode=290086799,59.923761,10.661334,05/02/2023,375.0,280,Oslo
Liaveien 15 H,14500 ,69,https://www.finn.no/realestate/lettings/ad.html?finnkode=105047015,59.6613541,10.8090899,05/02/2023,210.0,1434,Ås
Ulstadløkkveien 6,13000 ,55,https://www.finn.no/realestate/lettings/ad.html?finnkode=290089275,63.437343,10.42477,05/02/2023,236.0,7011,Trondheim
Båhusveien 24,14500 ,40,https://www.finn.no/realestate/lettings/ad.html?finnkode=290088494,59.931931,10.781339,05/02/2023,362.0,573,Oslo
Dragefjellstrappen 5,"4500,–",11,https://www.finn.no/realestate/lettings/ad.html?finnkode=290087917,60.3905206,5.3145257,05/02/2023,,5010,Bergen
Lørenveien 69 A,17500 ,46,https://www.finn.no/realestate/lettings/ad.html?finnkode=290087768,59.928808,10.799352,05/02/2023,380.0,585,Oslo
Tjuvholmveien 52,12900 ,44,https://www.finn.no/realestate/lettings/ad.html?finnkode=290087767,58.981271,5.716952,05/02/2023,293.0,4007,Stavanger
Kalbakkstubben 18,14000 ,54,https://www.finn.no/realestate/lettings/ad.html?finnkode=290087333,59.949547,10.86726,05/02/2023,259.0,951,Oslo
Innelvvegen 451,7000 ,15,https://www.finn.no/realestate/lettings/ad.html?finnkode=284170181,69.705288,18.682317,05/02/2023,466.0,9107,Kvaløya
Lillogata 10,1500 ,15,https://www.finn.no/realestate/lettings/ad.html?finnkode=112404766,59.941504,10.767184,05/02/2023,100.0,477,Oslo
Andersbakkan 84,10000 ,59,https://www.finn.no/realestate/lettings/ad.html?finnkode=290080465,63.3491617,10.3254214,05/02/2023,169.0,7089,Heimdal
Bjølsengata 17B,"13600,–",62,https://www.finn.no/realestate/lettings/ad.html?finnkode=290084019,59.941714,10.757751,05/02/2023,,468,Oslo
Toftes gate 2,15500 ,47,https://www.finn.no/realestate/lettings/ad.html?finnkode=290083368,59.930177,10.761453,05/02/2023,329.0,556,Oslo
Biermanns gate 9,17500 ,51,https://www.finn.no/realestate/lettings/ad.html?finnkode=290083175,59.930108,10.761932,05/02/2023,343.0,473,Oslo
Årvollia 17,12500 ,50,https://www.finn.no/realestate/lettings/ad.html?finnkode=290082751,59.950915,10.826174,05/02/2023,250.0,591,Oslo
Bjørnemyrveien 29,8500 ,24,https://www.finn.no/realestate/lettings/ad.html?finnkode=290081960,59.8330299,10.6393258,05/02/2023,354.0,1453,Bjørnemyr
Semsveien 19,9500 ,60,https://www.finn.no/realestate/lettings/ad.html?finnkode=290077432,59.7608992,9.8965164,05/02/2023,158.0,3302,Hokksund
BJØRN STALLARES GATE 5 C,12500 ,52,https://www.finn.no/realestate/lettings/ad.html?finnkode=290080351,63.4373528,10.4262479,05/02/2023,240.0,7042,Trondheim
BRATTØRGATA 3 A,4700 ,11,https://www.finn.no/realestate/lettings/ad.html?finnkode=290080051,63.433852,10.4018089,05/02/2023,427.0,7010,Trondheim
BRATTØRGATA 1,5000 ,12,https://www.finn.no/realestate/lettings/ad.html?finnkode=290079460,63.4338349,10.4021129,05/02/2023,416.0,7010,Trondheim
Økernveien 149,11800 ,26,https://www.finn.no/realestate/lettings/ad.html?finnkode=290078351,59.931479,10.807908,05/02/2023,453.0,580,Oslo
DRAMMENSVEIEN 116 A,5000 ,72,https://www.finn.no/realestate/lettings/ad.html?finnkode=290078001,59.920025,10.691022,05/02/2023,69.0,273,Oslo
Sannergata 32,32300 ,116,https://www.finn.no/realestate/lettings/ad.html?finnkode=290078358,59.928873,10.765571,05/02/2023,278.0,557,Oslo
Uelands gate 61 A,28000 ,96,https://www.finn.no/realestate/lettings/ad.html?finnkode=290077520,59.93357,10.750125,05/02/2023,291.0,460,Oslo
Sjøskogenfaret 5 C,17900 ,99,https://www.finn.no/realestate/lettings/ad.html?finnkode=288164951,59.741596,10.768301,05/02/2023,180.0,1407,Vinterbro
Reppevegen 90 F,14000 ,58,https://www.finn.no/realestate/lettings/ad.html?finnkode=290070725,63.412624,10.562685,05/02/2023,241.0,7054,Ranheim
Kyrehagen 5,5500 ,55,https://www.finn.no/realestate/lettings/ad.html?finnkode=273807743,58.2007665,7.3398712,05/02/2023,100.0,4520,Lindesnes
Rådhusgata 9,11900 ,50,https://www.finn.no/realestate/lettings/ad.html?finnkode=290069337,59.1316176,10.2247946,05/02/2023,238.0,3210,Sandefjord
Kirkegata 16,8500 ,30,https://www.finn.no/realestate/lettings/ad.html?finnkode=290069091,58.970963,5.7322346,05/02/2023,283.0,4006,Stavanger
Løwolds gate 14 B,16500 ,94,https://www.finn.no/realestate/lettings/ad.html?finnkode=290068793,58.9686852,5.7255138,05/02/2023,175.0,4008,Stavanger
Bernt Ankers gate 4,15900 ,57,https://www.finn.no/realestate/lettings/ad.html?finnkode=290068546,59.439541,10.663384,05/02/2023,278.0,1534,Moss
Rosenborggata 2,8900 ,25,https://www.finn.no/realestate/lettings/ad.html?finnkode=290068281,59.925319,10.724033,05/02/2023,356.0,356,Oslo
KRINGLEBOTN 453 A,9500 ,73,https://www.finn.no/realestate/lettings/ad.html?finnkode=290067925,60.327508,5.3735712,05/02/2023,130.0,5225,Nesttun
Langgata 61,12000 ,65,https://www.finn.no/realestate/lettings/ad.html?finnkode=158193564,58.9674643,5.7389006,05/02/2023,184.0,4012,Stavanger
Mårveien 17,9900 ,134,https://www.finn.no/realestate/lettings/ad.html?finnkode=234940673,59.2578069,10.4670483,05/02/2023,73.0,3124,Tønsberg
Skogfaret 7,11000 ,46,https://www.finn.no/realestate/lettings/ad.html?finnkode=98339355,59.7289604,10.5169283,05/02/2023,239.0,3477,Båtstø
Maridalsveien 37,15400 ,32,https://www.finn.no/realestate/lettings/ad.html?finnkode=290065498,59.927081,10.751108,05/02/2023,481.0,175,Oslo
Storgata 44,18500 ,95,https://www.finn.no/realestate/lettings/ad.html?finnkode=290065225,59.959736,11.04926,05/02/2023,194.0,2000,Lillestrøm
JERNBANEGATA 4,9750 ,71,https://www.finn.no/realestate/lettings/ad.html?finnkode=208560697,59.2849852,11.1170894,05/02/2023,137.0,1707,Sarpsborg
Neuberggata 3,26000 ,97,https://www.finn.no/realestate/lettings/ad.html?finnkode=288379945,59.924966,10.71387,05/02/2023,268.0,367,Oslo
Frydenbølien 29,4900 ,12,https://www.finn.no/realestate/lettings/ad.html?finnkode=166237002,60.3814214,5.311161,05/02/2023,408.0,5056,Bergen
Operagata 61 A,35000 ,127,https://www.finn.no/realestate/lettings/ad.html?finnkode=290062471,59.906753,10.757844,05/02/2023,275.0,194,Oslo
Myrlia,10000 ,50,https://www.finn.no/realestate/lettings/ad.html?finnkode=159201956,59.9944514,10.9065512,05/02/2023,200.0,1481,Hagan
Guldbergaunet 16,7500 ,50,https://www.finn.no/realestate/lettings/ad.html?finnkode=237461080,64.0183161,11.5089352,05/02/2023,150.0,7716,Steinkjer
Refstadveien 40,19000 ,115,https://www.finn.no/realestate/lettings/ad.html?finnkode=290060058,59.941996,10.807068,05/02/2023,165.0,589,Oslo
LYNGNESET 21,16500 ,93,https://www.finn.no/realestate/lettings/ad.html?finnkode=290047272,60.400546,5.187291,05/02/2023,177.0,5302,Strusshamn
Ulvegjelsvegen 6 A,13000 ,170,https://www.finn.no/realestate/lettings/ad.html?finnkode=100364408,58.038558,7.446075,05/02/2023,76.0,4517,Mandal
Jens Bjelkes gate 82F,"16000,–",50,https://www.finn.no/realestate/lettings/ad.html?finnkode=289842268,59.912667,10.775209,05/02/2023,,652,Oslo
Dampsaga allé 38,"16500,–",71,https://www.finn.no/realestate/lettings/ad.html?finnkode=289950995,60.142343,11.178565,05/02/2023,,2053,Jessheim
Gimleveien 15,"8500,–",17,https://www.finn.no/realestate/lettings/ad.html?finnkode=289981222,59.4358071,10.6432046,05/02/2023,,1511,Moss
Lørenveien 41G,"17500,–",65,https://www.finn.no/realestate/lettings/ad.html?finnkode=289950028,59.930734,10.791643,05/02/2023,,585,Oslo
Lomviveien 12,10000 ,140,https://www.finn.no/realestate/lettings/ad.html?finnkode=102717358,58.4603428,8.7478097,05/02/2023,71.0,4839,Arendal
Gamle Strømsvei 61,11500 ,65,https://www.finn.no/realestate/lettings/ad.html?finnkode=240956705,59.9474214,11.0202147,05/02/2023,176.0,2010,Strømmen
Elveslettvegen 45,1500 ,18,https://www.finn.no/realestate/lettings/ad.html?finnkode=290046816,69.614588,18.94017,05/02/2023,83.0,9020,Tromsdalen
Rindes veg 11,4900 ,21,https://www.finn.no/realestate/lettings/ad.html?finnkode=278682805,59.0589506,9.6990341,05/02/2023,233.0,3950,Brevik
HAUKETOSVINGEN 17,11000 ,30,https://www.finn.no/realestate/lettings/ad.html?finnkode=290038292,59.841561,10.80551,05/02/2023,366.0,1266,Oslo
Torsbakken 2,18000 ,77,https://www.finn.no/realestate/lettings/ad.html?finnkode=233687794,67.2974064,14.4062502,05/02/2023,233.0,8012,Bodø
SOLEVEIEN 50,15000 ,108,https://www.finn.no/realestate/lettings/ad.html?finnkode=290039872,59.105304,10.211214,05/02/2023,138.0,3209,Sandefjord
AUSTRÅTTBAKKEN 30 A,13000 ,52,https://www.finn.no/realestate/lettings/ad.html?finnkode=262872000,58.8440164,5.7384008,05/02/2023,250.0,4306,Sandnes
SYMREVEIEN 2,4500 ,16,https://www.finn.no/realestate/lettings/ad.html?finnkode=94369881,58.9536987,5.703124,05/02/2023,281.0,4021,Stavanger
Andøysløyfen 65,25000 ,170,https://www.finn.no/realestate/lettings/ad.html?finnkode=289862025,58.1084432,7.9888636,05/02/2023,147.0,4623,Kristiansand S
Kilenveien 34,14000 ,41,https://www.finn.no/realestate/lettings/ad.html?finnkode=104425438,59.906963,10.623629,05/02/2023,341.0,1366,Lysaker
Sangsvanelia 26B,10500 ,49,https://www.finn.no/realestate/lettings/ad.html?finnkode=196131954,60.258654,11.050961,05/02/2023,214.0,2032,Maura
Skotselvveien 345,15000 ,82,https://www.finn.no/realestate/lettings/ad.html?finnkode=105957494,59.77036,9.899553,05/02/2023,182.0,3300,Hokksund
Larsneset 4,12000 ,168,https://www.finn.no/realestate/lettings/ad.html?finnkode=289667006,62.991196,7.885069,05/02/2023,71.0,6670,Øydegard
Åsebøen 11,7300 ,30,https://www.finn.no/realestate/lettings/ad.html?finnkode=290030415,62.4650804,6.3187746,05/02/2023,243.0,6017,Ålesund
Heimengveien 3 Mo i,16000 ,88,https://www.finn.no/realestate/lettings/ad.html?finnkode=290025063,66.3391471,14.1133165,05/02/2023,181.0,8616,Rana
Rosevegen 12b,14500 ,80,https://www.finn.no/realestate/lettings/ad.html?finnkode=247145725,58.771892,5.644992,05/02/2023,181.0,4352,Kleppe
Fantoftvegen 16B,16000 ,62,https://www.finn.no/realestate/lettings/ad.html?finnkode=289919821,60.346161,5.352119,05/02/2023,258.0,5072,Bergen
Nedre Vardalsvei 21 Sande i,7400 ,60,https://www.finn.no/realestate/lettings/ad.html?finnkode=290019349,59.5922183,10.175366,05/02/2023,123.0,3070,Vestfold
Storesåta 39 A,18900 ,110,https://www.finn.no/realestate/lettings/ad.html?finnkode=290023551,60.285803,5.2530823,05/02/2023,171.0,5258,Blomsterdalen
Snippen 5 B,25000 ,55,https://www.finn.no/realestate/lettings/ad.html?finnkode=253500355,59.923803,10.769384,05/02/2023,454.0,566,Oslo
Rambergvegen 32c,12000 ,126,https://www.finn.no/realestate/lettings/ad.html?finnkode=268410736,59.1989658,9.5375342,05/02/2023,95.0,3731,Skien
GRASMENIPO 63,14990 ,140,https://www.finn.no/realestate/lettings/ad.html?finnkode=290011179,60.3849532,5.1472882,05/02/2023,107.0,5355,Knarrevik
SKJÆRABØEN 6 A,18500 ,159,https://www.finn.no/realestate/lettings/ad.html?finnkode=186400979,61.456194,5.8303747,05/02/2023,116.0,6800,Førde
BJERGGATA 59 B,7500 ,21,https://www.finn.no/realestate/lettings/ad.html?finnkode=100615981,59.1304193,10.2290149,05/02/2023,357.0,3210,Sandefjord
KONGENS GATE 17,12500 ,150,https://www.finn.no/realestate/lettings/ad.html?finnkode=54308098,64.0176049,11.4949739,05/02/2023,83.0,7715,Steinkjer
Ekebergveien 22,12000 ,120,https://www.finn.no/realestate/lettings/ad.html?finnkode=290005711,59.6457004,10.6617427,05/02/2023,100.0,1449,Drøbak
Hornelandsvegen 142,11000 ,45,https://www.finn.no/realestate/lettings/ad.html?finnkode=79566054,59.7569638,5.4501511,05/02/2023,244.0,5412,Stord
HANS LANGBACHS VEI 10,12500 ,75,https://www.finn.no/realestate/lettings/ad.html?finnkode=133991923,59.7207842,10.2635306,05/02/2023,166.0,3039,Drammen
Gladengveien 7,17000 ,43,https://www.finn.no/realestate/lettings/ad.html?finnkode=290004098,59.915617,10.790002,05/02/2023,395.0,661,Oslo
Fjellgata 10,9000 ,45,https://www.finn.no/realestate/lettings/ad.html?finnkode=289992155,62.4721822,6.1685013,05/02/2023,200.0,6004,Ålesund
WESSELS GATE 14,7770 ,13,https://www.finn.no/realestate/lettings/ad.html?finnkode=282659106,59.919535,10.740424,05/02/2023,597.0,165,Oslo
TANKE SVILANDS GATE 43,11000 ,58,https://www.finn.no/realestate/lettings/ad.html?finnkode=289982863,58.9735928,5.7175387,05/02/2023,189.0,4007,Stavanger
Jåttåveien 102,9500 ,60,https://www.finn.no/realestate/lettings/ad.html?finnkode=289996242,58.913139,5.704218,05/02/2023,158.0,4020,Stavanger
Hansahagen,20000 ,91,https://www.finn.no/realestate/lettings/ad.html?finnkode=285577169,58.8220654,5.7040658,05/02/2023,219.0,4322,Sandnes
Bjørnsons gate 21,16500 ,77,https://www.finn.no/realestate/lettings/ad.html?finnkode=289801404,60.3722311,5.3454897,05/02/2023,214.0,5059,Bergen
Persbråtan 2,17000 ,69,https://www.finn.no/realestate/lettings/ad.html?finnkode=290001305,59.944007,10.661219,05/02/2023,246.0,770,Oslo
NJARDARVOLLEN 2,24000 ,120,https://www.finn.no/realestate/lettings/ad.html?finnkode=289944867,63.4102058,10.4153139,05/02/2023,200.0,7032,Trondheim
Karstensens vei 27,10500 ,70,https://www.finn.no/realestate/lettings/ad.html?finnkode=211568700,59.237834,10.979516,05/02/2023,150.0,1617,Fredrikstad
BREIGATA 10,15900 ,49,https://www.finn.no/realestate/lettings/ad.html?finnkode=287491002,59.914127,10.760817,05/02/2023,324.0,187,Oslo
Borgjalia 17 Bø i,3800 ,128,https://www.finn.no/realestate/lettings/ad.html?finnkode=190028398,59.4007846,9.0679952,05/02/2023,29.0,3801,Telemark
Louises gate 2 B,19000 ,62,https://www.finn.no/realestate/lettings/ad.html?finnkode=289996301,59.925889,10.731936,05/02/2023,306.0,168,Oslo
Lensmann Solbergs vei 1,15900 ,90,https://www.finn.no/realestate/lettings/ad.html?finnkode=289996273,59.7348352,10.1829638,05/02/2023,176.0,3046,Drammen
Enebakkveien 222A,25000 ,100,https://www.finn.no/realestate/lettings/ad.html?finnkode=289952279,59.886099,10.816062,05/02/2023,250.0,680,Oslo
Solegladveien 20,13500 ,80,https://www.finn.no/realestate/lettings/ad.html?finnkode=105660020,59.9140588,10.5037082,05/02/2023,168.0,1352,Kolsås
Bondilia 19,18500 ,77,https://www.finn.no/realestate/lettings/ad.html?finnkode=289994827,59.8248619,10.434601,05/02/2023,240.0,1386,Asker
Bjørnebærstien 12,13500 ,55,https://www.finn.no/realestate/lettings/ad.html?finnkode=280902606,59.925436,10.482872,05/02/2023,245.0,1348,Rykkinn
KORSGATA 25,13500 ,40,https://www.finn.no/realestate/lettings/ad.html?finnkode=289991934,59.920049,10.758118,05/02/2023,337.0,551,Oslo
HASSELVEIEN 10,8000 ,50,https://www.finn.no/realestate/lettings/ad.html?finnkode=289986869,59.8469158,9.8837658,05/02/2023,160.0,3330,Skotselv
HANS HOLTS VEG 1 A,30000 ,140,https://www.finn.no/realestate/lettings/ad.html?finnkode=289984412,59.9385487,11.0171694,05/02/2023,214.0,2006,Løvenstad
Vevelstadåsen 23,13000 ,68,https://www.finn.no/realestate/lettings/ad.html?finnkode=289989122,59.758629,10.8458597,05/02/2023,191.0,1405,Langhus
Slettliveien 3,7000 ,68,https://www.finn.no/realestate/lettings/ad.html?finnkode=273648197,67.3514761,15.6020726,05/02/2023,102.0,8226,Straumen
Kirkeringen 2,16000 ,63,https://www.finn.no/realestate/lettings/ad.html?finnkode=289988181,63.348935,10.353294,05/02/2023,253.0,7080,Heimdal
Waldemars hage 1,18000 ,55,https://www.finn.no/realestate/lettings/ad.html?finnkode=288222709,59.926647,10.752051,05/02/2023,327.0,175,Oslo
Askåsen 40,35000 ,253,https://www.finn.no/realestate/lettings/ad.html?finnkode=289984392,59.8719343,10.5056102,05/02/2023,138.0,1394,Nesbru
Skjettenveien 42 C,14000 ,48,https://www.finn.no/realestate/lettings/ad.html?finnkode=289983938,59.961844,11.01055,05/02/2023,291.0,1466,Strømmen
SIMEN HOELS GATE 10,15000 ,114,https://www.finn.no/realestate/lettings/ad.html?finnkode=289976420,59.5836856,11.1704464,05/02/2023,131.0,1809,Askim
St. Olavs vei 18,10450 ,23,https://www.finn.no/realestate/lettings/ad.html?finnkode=249837045,58.156142,8.014387,05/02/2023,454.0,4631,Kristiansand S
Rolf E. Stenersens allè 16,6837 ,16,https://www.finn.no/realestate/lettings/ad.html?finnkode=289959805,59.953858,10.729115,05/02/2023,427.0,858,Oslo
Liveien,5500 ,29,https://www.finn.no/realestate/lettings/ad.html?finnkode=231106456,59.4085462,9.9450346,05/02/2023,189.0,3275,Svarstad
Strømsveien 83,14000 ,45,https://www.finn.no/realestate/lettings/ad.html?finnkode=289982187,59.950913,11.011545,05/02/2023,311.0,2010,Strømmen
GLÜCKSTADS GATE 6,22900 ,74,https://www.finn.no/realestate/lettings/ad.html?finnkode=289978945,59.922152,10.738092,05/02/2023,309.0,170,Oslo
Øvre Lynghaugen 8 B,18000 ,81,https://www.finn.no/realestate/lettings/ad.html?finnkode=289981955,60.4263063,5.3029623,05/02/2023,222.0,5038,Bergen
Rolf Hofmos Gate,7500 ,750,https://www.finn.no/realestate/lettings/ad.html?finnkode=289971178,59.9126087,10.7874665,05/02/2023,10.0,655,Oslo
RÅDYRSTIEN 3,10000 ,76,https://www.finn.no/realestate/lettings/ad.html?finnkode=289972824,60.1405521,11.2183733,05/02/2023,131.0,2052,Jessheim
Bergsagelveien 4A,11500 ,60,https://www.finn.no/realestate/lettings/ad.html?finnkode=289972469,58.9464359,5.7469296,05/02/2023,191.0,4016,Stavanger
RØDGATA 42,30000 ,170,https://www.finn.no/realestate/lettings/ad.html?finnkode=280240271,59.742831,10.1533031,05/02/2023,176.0,3048,Drammen
GREFSENVEIEN 64,9500 ,17,https://www.finn.no/realestate/lettings/ad.html?finnkode=103686946,59.945822,10.782209,05/02/2023,558.0,487,Oslo
Sandsliåsen 51,25000 ,106,https://www.finn.no/realestate/lettings/ad.html?finnkode=289976788,60.295481,5.290369,05/02/2023,235.0,5254,Sandsli
Sundeveien 47,15000 ,112,https://www.finn.no/realestate/lettings/ad.html?finnkode=289976664,58.964667,5.6159893,05/02/2023,133.0,4049,Hafrsfjord
GEVIRET 54,17500 ,62,https://www.finn.no/realestate/lettings/ad.html?finnkode=289966600,59.832234,10.836058,05/02/2023,282.0,1270,Oslo
Landstads gate 43,13000 ,43,https://www.finn.no/realestate/lettings/ad.html?finnkode=289974922,59.955851,11.053355,05/02/2023,302.0,2000,Lillestrøm
Haugeveien 15,7000 ,33,https://www.finn.no/realestate/lettings/ad.html?finnkode=283435613,59.2172469,10.8980289,05/02/2023,212.0,1621,Gressvik
Jomfrugata 16 A,11500 ,53,https://www.finn.no/realestate/lettings/ad.html?finnkode=289973749,63.4337393,10.3955222,05/02/2023,216.0,7010,Trondheim
Gullhaugveien 138 Bærums,11000 ,40,https://www.finn.no/realestate/lettings/ad.html?finnkode=276679262,59.939808,10.493947,05/02/2023,275.0,1354,Verk
Koren Wibergs plass 9,4500 ,119,https://www.finn.no/realestate/lettings/ad.html?finnkode=289642096,60.3986613,5.3261211,05/02/2023,37.0,5003,Bergen
Hamneveien 19,18000 ,77,https://www.finn.no/realestate/lettings/ad.html?finnkode=289972343,58.949164,5.743456,05/02/2023,233.0,4016,Stavanger
Hegglandsdalsvegen 62,13000 ,90,https://www.finn.no/realestate/lettings/ad.html?finnkode=280037519,60.19663,5.4839906,05/02/2023,144.0,5211,Os
Blekesmarka 24,9000 ,70,https://www.finn.no/realestate/lettings/ad.html?finnkode=289969602,63.3029645,10.2500271,05/02/2023,128.0,7224,Melhus
Gildbuveien 8,8000 ,50,https://www.finn.no/realestate/lettings/ad.html?finnkode=130682140,59.1447459,10.2476659,05/02/2023,160.0,3228,Sandefjord
Munkerudåsen 18 D,10800 ,35,https://www.finn.no/realestate/lettings/ad.html?finnkode=287960972,59.856254,10.80807,05/02/2023,308.0,1165,Oslo
Stongafjellsvegen 126,20000 ,138,https://www.finn.no/realestate/lettings/ad.html?finnkode=289968864,60.4082018,5.2081287,05/02/2023,144.0,5301,Kleppestø
Hoffsveien 65 C,18000 ,58,https://www.finn.no/realestate/lettings/ad.html?finnkode=289965563,59.933597,10.678757,05/02/2023,310.0,377,Oslo
Spireaveien 12 A,20500 ,68,https://www.finn.no/realestate/lettings/ad.html?finnkode=289965415,59.933415,10.800317,05/02/2023,301.0,580,Oslo
Dælenenggata 40,25100 ,82,https://www.finn.no/realestate/lettings/ad.html?finnkode=289965124,59.929444,10.76587,05/02/2023,306.0,567,Oslo
Gjerdrums vei 12,9500 ,20,https://www.finn.no/realestate/lettings/ad.html?finnkode=289965108,59.955251,10.765814,05/02/2023,475.0,484,Oslo
Holenbrauta 12,14000 ,65,https://www.finn.no/realestate/lettings/ad.html?finnkode=289964853,60.149977,11.152429,05/02/2023,215.0,2067,Jessheim
Skiviklia 36,11000 ,60,https://www.finn.no/realestate/lettings/ad.html?finnkode=289964456,67.3063633,14.4322993,05/02/2023,183.0,8014,Bodø
Skiviklia 36,8000 ,45,https://www.finn.no/realestate/lettings/ad.html?finnkode=289964247,67.3063633,14.4322993,05/02/2023,177.0,8014,Bodø
Trenerys gate 7,12000 ,35,https://www.finn.no/realestate/lettings/ad.html?finnkode=289963896,63.4350462,10.4148899,05/02/2023,342.0,7042,Trondheim
Grønvoll allé 70,15900 ,41,https://www.finn.no/realestate/lettings/ad.html?finnkode=289962962,59.91619,10.795116,05/02/2023,387.0,661,Oslo
Stensgata 3 A,22000 ,71,https://www.finn.no/realestate/lettings/ad.html?finnkode=289961990,59.930143,10.73282,05/02/2023,309.0,358,Oslo
Michael Krohns gate 59 B,25000 ,115,https://www.finn.no/realestate/lettings/ad.html?finnkode=289961929,60.3793,5.324916,05/02/2023,217.0,5057,Bergen
Grønvoll allé 70,15900 ,41,https://www.finn.no/realestate/lettings/ad.html?finnkode=289960735,59.91619,10.795116,05/02/2023,387.0,661,Oslo
HAUGERUDVEIEN 72,15000 ,45,https://www.finn.no/realestate/lettings/ad.html?finnkode=289114032,59.918381,10.858929,05/02/2023,333.0,674,Oslo
ST.OLAVS GATE 5 B,13500 ,41,https://www.finn.no/realestate/lettings/ad.html?finnkode=217005336,59.918446,10.742021,05/02/2023,329.0,165,Oslo
Frysjaveien 3,14500 ,34,https://www.finn.no/realestate/lettings/ad.html?finnkode=289957508,59.959414,10.765333,05/02/2023,426.0,883,Oslo
Laboratorieveien 35,15000 ,55,https://www.finn.no/realestate/lettings/ad.html?finnkode=289956611,60.048742,10.859423,05/02/2023,272.0,1482,Nittedal
Stølhaugane 15,10000 ,80,https://www.finn.no/realestate/lettings/ad.html?finnkode=243819263,60.322242,5.1354398,05/02/2023,125.0,5360,Kolltveit
Storgata 36,14500 ,39,https://www.finn.no/realestate/lettings/ad.html?finnkode=289955658,59.959039,11.049039,05/02/2023,371.0,2000,Lillestrøm
Markveien 21 B,13500 ,43,https://www.finn.no/realestate/lettings/ad.html?finnkode=289955551,59.925101,10.756872,05/02/2023,313.0,554,Oslo
SINDINGS VEI 16 A,10350 ,70,https://www.finn.no/realestate/lettings/ad.html?finnkode=221434479,59.2888808,11.0986492,05/02/2023,147.0,1710,Sarpsborg
Christian IVs Gate 16,8500 ,40,https://www.finn.no/realestate/lettings/ad.html?finnkode=289949803,58.9615943,5.7144225,05/02/2023,212.0,4009,Stavanger
Bondelivegen 14 B,7400 ,50,https://www.finn.no/realestate/lettings/ad.html?finnkode=289948769,60.7704422,10.7045987,05/02/2023,148.0,2816,Gjøvik
BJØRNEVEGEN 1,18000 ,99,https://www.finn.no/realestate/lettings/ad.html?finnkode=289943011,60.222252,11.028309,05/02/2023,181.0,2030,Nannestad
Åsaveien 20,22500 ,98,https://www.finn.no/realestate/lettings/ad.html?finnkode=289951213,59.931545,10.720879,05/02/2023,229.0,362,Oslo
STORGATA 73,3250 ,140,https://www.finn.no/realestate/lettings/ad.html?finnkode=277105851,62.599881,6.4440583,05/02/2023,23.0,6270,Brattvåg
Maridalsveien 90,14500 ,29,https://www.finn.no/realestate/lettings/ad.html?finnkode=289948547,59.932506,10.755832,05/02/2023,500.0,458,Oslo
Tolvsrødveien 20,10000 ,53,https://www.finn.no/realestate/lettings/ad.html?finnkode=289947500,59.273216,10.4768346,05/02/2023,188.0,3152,Tolvsrød
Brannvaktgata 6,9900 ,90,https://www.finn.no/realestate/lettings/ad.html?finnkode=208349770,59.0530255,9.6986532,05/02/2023,110.0,3950,Brevik
NJARDARVOLLEN 2,24000 ,120,https://www.finn.no/realestate/lettings/ad.html?finnkode=289944867,63.4102058,10.4153139,05/02/2023,200.0,7032,Trondheim
Lillevannsveien 63 A,26000 ,205,https://www.finn.no/realestate/lettings/ad.html?finnkode=289944877,59.975021,10.648115,05/02/2023,126.0,788,Oslo
Farmannsveien 12,12000 ,60,https://www.finn.no/realestate/lettings/ad.html?finnkode=289943528,59.2714607,10.4074845,05/02/2023,200.0,3111,Tønsberg
TRONDHEIMSVEIEN 117,30000 ,137,https://www.finn.no/realestate/lettings/ad.html?finnkode=289942184,60.0041841,11.0298473,05/02/2023,218.0,2020,Skedsmokorset
Kvernhuslia 8 E,14500 ,55,https://www.finn.no/realestate/lettings/ad.html?finnkode=289943049,58.203556,8.031957,05/02/2023,263.0,4634,Kristiansand S
Mosseveien 222B,"30000,–",196,https://www.finn.no/realestate/lettings/ad.html?finnkode=289612626,59.860461,10.786891,05/02/2023,,1169,Oslo
JÆRNESKOLLEN 10 A,15000 ,125,https://www.finn.no/realestate/lettings/ad.html?finnkode=139452114,58.2054411,8.0418646,05/02/2023,120.0,4634,Kristiansand S
TIURVEIEN 36,14000 ,100,https://www.finn.no/realestate/lettings/ad.html?finnkode=289932698,59.6572274,10.6501463,05/02/2023,140.0,1440,Drøbak
Grytafjordvegen 754,3250 ,350,https://www.finn.no/realestate/lettings/ad.html?finnkode=231881544,62.5343732,6.3658336,05/02/2023,9.0,6265,Vatne
Skyåsvegen 5,10350 ,40,https://www.finn.no/realestate/lettings/ad.html?finnkode=289932739,63.4278348,10.4291936,05/02/2023,258.0,7052,Trondheim
KANONHALLVEIEN,27000 ,84,https://www.finn.no/realestate/lettings/ad.html?finnkode=278562841,59.931549,10.7914385,05/02/2023,321.0,585,Oslo
Lindemansgate 4B,18000 ,53,https://www.finn.no/realestate/lettings/ad.html?finnkode=277307808,59.9217731,10.7030444,05/02/2023,339.0,267,Oslo
Hødnsvegen 178,8000 ,100,https://www.finn.no/realestate/lettings/ad.html?finnkode=289926140,60.8242153,8.6223908,05/02/2023,80.0,3560,Hemsedal
Nybråtveien 27,11900 ,110,https://www.finn.no/realestate/lettings/ad.html?finnkode=207599470,59.5869043,11.1402393,05/02/2023,108.0,1832,Askim
KRITLEVEGEN 9,7000 ,80,https://www.finn.no/realestate/lettings/ad.html?finnkode=144235416,59.4146987,5.2864469,05/02/2023,87.0,5521,Haugesund
Eaholmsveien 26B,11000 ,55,https://www.finn.no/realestate/lettings/ad.html?finnkode=221923930,63.130485,7.813844,05/02/2023,200.0,6518,Kristiansund N
Alfheimveien 4B,14000 ,40,https://www.finn.no/realestate/lettings/ad.html?finnkode=289863480,59.9256287,10.6231745,05/02/2023,350.0,1358,Jar
Schultz' gate 35,20000 ,66,https://www.finn.no/realestate/lettings/ad.html?finnkode=267405930,59.929453,10.725093,05/02/2023,303.0,365,Oslo
Stasjonsveien 6B,9000 ,25,https://www.finn.no/realestate/lettings/ad.html?finnkode=289917449,59.950405,10.687788,05/02/2023,360.0,774,Oslo
Bjørndalsveien,6500 ,25,https://www.finn.no/realestate/lettings/ad.html?finnkode=289106598,59.2264889,10.9433151,05/02/2023,260.0,1605,Fredrikstad
Bråtaveien 4,9000 ,27,https://www.finn.no/realestate/lettings/ad.html?finnkode=283055192,59.9375265,10.9934258,05/02/2023,333.0,1472,Fjellhamar
SJØBERGVEGEN 23 D,26000 ,150,https://www.finn.no/realestate/lettings/ad.html?finnkode=289917373,60.1518808,11.1722022,05/02/2023,173.0,2066,Jessheim
Hollendergata 2E,7500 ,18,https://www.finn.no/realestate/lettings/ad.html?finnkode=288826329,59.909899,10.766656,05/02/2023,416.0,190,Oslo
HAMNEGATA 31 A,16000 ,67,https://www.finn.no/realestate/lettings/ad.html?finnkode=289910145,59.77768,5.5020133,05/02/2023,238.0,5411,Stord
Gladengveien 5C,17000 ,50,https://www.finn.no/realestate/lettings/ad.html?finnkode=269449675,59.915065,10.788924,05/02/2023,340.0,661,Oslo
Eiganesveien 21,6000 ,13,https://www.finn.no/realestate/lettings/ad.html?finnkode=247480090,58.9671668,5.7236754,05/02/2023,461.0,4008,Stavanger
Luksefjellvegen 135,8400 ,62,https://www.finn.no/realestate/lettings/ad.html?finnkode=289913257,59.2345139,9.5925797,05/02/2023,135.0,3721,Skien
TÅSENVEIEN 115 A,12000 ,43,https://www.finn.no/realestate/lettings/ad.html?finnkode=289909389,59.958546,10.760326,05/02/2023,279.0,880,Oslo
Strandgaten 208,2000 ,18,https://www.finn.no/realestate/lettings/ad.html?finnkode=277795059,60.3975936,5.310909,05/02/2023,111.0,5004,Bergen
ELVEGATA 2,10500 ,84,https://www.finn.no/realestate/lettings/ad.html?finnkode=289680689,58.7340467,5.6392713,05/02/2023,125.0,4340,Bryne
Vesterngata 24,24000 ,158,https://www.finn.no/realestate/lettings/ad.html?finnkode=265165323,60.1699511,10.2680335,05/02/2023,151.0,3513,Hønefoss
STOLTENBERGS GATE 33,22000 ,70,https://www.finn.no/realestate/lettings/ad.html?finnkode=264724902,59.2665182,10.4151416,05/02/2023,314.0,3110,Tønsberg
Solbakkeveien 23 B,10000 ,80,https://www.finn.no/realestate/lettings/ad.html?finnkode=167504305,59.1381083,10.2052481,05/02/2023,125.0,3238,Sandefjord
Jernbanealleen 26,12900 ,101,https://www.finn.no/realestate/lettings/ad.html?finnkode=151738967,59.1310704,10.2241254,05/02/2023,127.0,3210,Sandefjord
Sørengkaia 35,2700 ,11,https://www.finn.no/realestate/lettings/ad.html?finnkode=86750456,59.903589,10.755871,05/02/2023,245.0,194,Oslo
Mølleroddveien 1,12000 ,80,https://www.finn.no/realestate/lettings/ad.html?finnkode=149183392,59.194215,10.941371,05/02/2023,150.0,1673,Kråkerøy
VIKHAMMERDALEN 4,4950 ,100,https://www.finn.no/realestate/lettings/ad.html?finnkode=16369930,63.4361076,10.6275549,05/02/2023,49.0,7560,Vikhammer
Krogstadvegen 36 Hovin i,11000 ,60,https://www.finn.no/realestate/lettings/ad.html?finnkode=289896076,63.1030617,10.2262335,05/02/2023,183.0,7236,Gauldal
SVERDRUPS GATE 12 B,21500 ,64,https://www.finn.no/realestate/lettings/ad.html?finnkode=289880176,59.920444,10.763907,05/02/2023,335.0,559,Oslo
Dimnøyvegen 36,5200 ,23,https://www.finn.no/realestate/lettings/ad.html?finnkode=246383422,62.319296,5.839446,05/02/2023,226.0,6065,Ulsteinvik
Geitmyrsveien,30000 ,50,https://www.finn.no/realestate/lettings/ad.html?finnkode=240780809,59.9269279,10.7430311,05/02/2023,600.0,171,Oslo
Klipperveien 23,13000 ,147,https://www.finn.no/realestate/lettings/ad.html?finnkode=223265028,58.4563608,5.9685471,05/02/2023,88.0,4374,Egersund
FANTOFTVEGEN 14 H,4750 ,16,https://www.finn.no/realestate/lettings/ad.html?finnkode=289534264,60.3448489,5.3551591,05/02/2023,296.0,5075,Bergen
Augerødbakken 18b,13000 ,70,https://www.finn.no/realestate/lettings/ad.html?finnkode=289890977,59.465395,10.783296,05/02/2023,185.0,1591,Sperrebotn
STORGATEN 13,11900 ,52,https://www.finn.no/realestate/lettings/ad.html?finnkode=289899103,59.265709,10.411261,05/02/2023,228.0,3126,Tønsberg
HAVSTEINLIA 14,4400 ,59,https://www.finn.no/realestate/lettings/ad.html?finnkode=289892970,63.4081758,10.3783247,05/02/2023,74.0,7021,Trondheim
STORGATEN 13,12900 ,63,https://www.finn.no/realestate/lettings/ad.html?finnkode=289897509,59.265709,10.411261,05/02/2023,204.0,3126,Tønsberg
Årvollveien 78,17000 ,52,https://www.finn.no/realestate/lettings/ad.html?finnkode=289893523,59.954715,10.820393,05/02/2023,326.0,590,Oslo
SLETTELØKKA 24B,17500 ,66,https://www.finn.no/realestate/lettings/ad.html?finnkode=289891062,59.947015,10.84825,05/02/2023,265.0,597,Oslo
PROMENADEN 26,20000 ,107,https://www.finn.no/realestate/lettings/ad.html?finnkode=89864340,59.907911,10.833343,05/02/2023,186.0,682,Oslo
Melen 15,6900 ,49,https://www.finn.no/realestate/lettings/ad.html?finnkode=289895115,69.931597,22.049005,05/02/2023,140.0,9161,Burfjord
Riskjellvegen 13B,7000 ,54,https://www.finn.no/realestate/lettings/ad.html?finnkode=237960066,58.773651,5.642123,05/02/2023,129.0,4350,Kleppe
KJÆRLIGHETSSTIEN 41,10500 ,80,https://www.finn.no/realestate/lettings/ad.html?finnkode=60785065,59.131226,11.373378,05/02/2023,131.0,1781,Halden
Geitmyrsveien,30000 ,50,https://www.finn.no/realestate/lettings/ad.html?finnkode=240780809,59.9269279,10.7430311,05/02/2023,600.0,171,Oslo
GRAVARSKROKEN 3,12000 ,86,https://www.finn.no/realestate/lettings/ad.html?finnkode=289871443,58.8488056,5.7422684,05/02/2023,139.0,4327,Sandnes
Smestadbråtan 31,12750 ,55,https://www.finn.no/realestate/lettings/ad.html?finnkode=117220966,59.9073928,11.0951789,05/02/2023,231.0,2008,Fjerdingby
Grovavegen 21,8000 ,44,https://www.finn.no/realestate/lettings/ad.html?finnkode=289871612,60.1537238,11.1400883,05/02/2023,181.0,2067,Jessheim
WALDEMAR THRANES GATE 10,1500 ,15,https://www.finn.no/realestate/lettings/ad.html?finnkode=289877910,59.923499,10.739649,05/02/2023,100.0,171,Oslo
Stavnevegen 22,11300 ,40,https://www.finn.no/realestate/lettings/ad.html?finnkode=76827084,63.4128722,10.3825633,05/02/2023,282.0,7019,Trondheim
Hemsedalsvegen,13500 ,101,https://www.finn.no/realestate/lettings/ad.html?finnkode=289872502,60.8496585,8.6169231,05/02/2023,133.0,2566,Hemsedal
Skippergata 21 A,14500 ,32,https://www.finn.no/realestate/lettings/ad.html?finnkode=289878573,59.910853,10.747606,05/02/2023,453.0,154,Oslo
Synesvegen 148,8000 ,70,https://www.finn.no/realestate/lettings/ad.html?finnkode=289872485,62.553291,6.076858,05/02/2023,114.0,6040,Vigra
Skådalsveien 33,7000 ,300,https://www.finn.no/realestate/lettings/ad.html?finnkode=281070865,59.962674,10.692676,05/02/2023,23.0,781,Oslo
Thomas Heftyes gate 41 B,15600 ,58,https://www.finn.no/realestate/lettings/ad.html?finnkode=289875970,59.920089,10.704191,05/02/2023,268.0,267,Oslo
Havnegata 7,13500 ,49,https://www.finn.no/realestate/lettings/ad.html?finnkode=289874296,58.8514698,5.7456256,05/02/2023,275.0,4306,Sandnes
Rådhusgata 26,17500 ,65,https://www.finn.no/realestate/lettings/ad.html?finnkode=289873767,59.744465,10.208176,05/02/2023,269.0,3015,Drammen
Helgerødgata 8,11900 ,42,https://www.finn.no/realestate/lettings/ad.html?finnkode=289871921,59.433397,10.645884,05/02/2023,283.0,1515,Moss
Parkveien 64,12000 ,20,https://www.finn.no/realestate/lettings/ad.html?finnkode=289857903,59.914373,10.721731,05/02/2023,600.0,254,Oslo
KASTANJEVEIEN 74,12000 ,47,https://www.finn.no/realestate/lettings/ad.html?finnkode=40253623,59.7605548,10.1506744,05/02/2023,255.0,3026,Drammen
Kong Carls gate 25,25000 ,180,https://www.finn.no/realestate/lettings/ad.html?finnkode=289863164,58.9622798,5.7312614,05/02/2023,138.0,4010,Stavanger
Udbyes gate 7,15000 ,60,https://www.finn.no/realestate/lettings/ad.html?finnkode=289862659,63.4174931,10.3956052,05/02/2023,250.0,7030,Trondheim
Oscars gate,20000 ,20,https://www.finn.no/realestate/lettings/ad.html?finnkode=289853328,59.922622,10.7279103,05/02/2023,1000.0,352,Oslo
SØREN JAABÆKS VEI 17,10800 ,50,https://www.finn.no/realestate/lettings/ad.html?finnkode=284322133,60.3665007,5.3472755,05/02/2023,216.0,5063,Bergen
Skardvangveien 2,11000 ,188,https://www.finn.no/realestate/lettings/ad.html?finnkode=238646930,62.2620698,10.7769888,05/02/2023,58.0,2500,Tynset
NORDMOVEIEN 7 B,7600 ,25,https://www.finn.no/realestate/lettings/ad.html?finnkode=289859142,59.7617343,9.9527028,05/02/2023,304.0,3053,Steinberg
Siggerudbråtan 34,12500 ,66,https://www.finn.no/realestate/lettings/ad.html?finnkode=289859653,60.327274,11.202077,05/02/2023,189.0,2080,Eidsvoll
Florvågvegen 17,8000 ,25,https://www.finn.no/realestate/lettings/ad.html?finnkode=79138166,60.4132806,5.23625,05/02/2023,320.0,5305,Florvåg
Vinkelveien 6,9500 ,75,https://www.finn.no/realestate/lettings/ad.html?finnkode=289847288,59.1153567,11.4292294,05/02/2023,126.0,1793,Tistedal
Daleveien 594,3500 ,50,https://www.finn.no/realestate/lettings/ad.html?finnkode=262166516,58.89965,5.780675,05/02/2023,70.0,4329,Sandnes
Dronning Astrids gate 2,11300 ,18,https://www.finn.no/realestate/lettings/ad.html?finnkode=289850554,59.925962,10.72294,05/02/2023,627.0,355,Oslo
Bjørn Stallares vei 25,17500 ,52,https://www.finn.no/realestate/lettings/ad.html?finnkode=289849552,59.932573,10.781659,05/02/2023,336.0,574,Oslo
Brugata 83,16900 ,160,https://www.finn.no/realestate/lettings/ad.html?finnkode=289849100,60.7956442,11.0964389,05/02/2023,105.0,2321,Hamar
SØNDRE EBERG GATE 6,8500 ,77,https://www.finn.no/realestate/lettings/ad.html?finnkode=289848072,63.4167032,10.432575,05/02/2023,110.0,7051,Trondheim
Romsaas alle 11,15500 ,48,https://www.finn.no/realestate/lettings/ad.html?finnkode=289843362,60.142204,11.160905,05/02/2023,322.0,2063,Jessheim
Kongens gate 11,10700 ,75,https://www.finn.no/realestate/lettings/ad.html?finnkode=289847216,59.1320867,10.2227567,05/02/2023,142.0,3210,Sandefjord
Hans Liens vei 37,17800 ,73,https://www.finn.no/realestate/lettings/ad.html?finnkode=289847064,59.889216,10.56855,05/02/2023,243.0,1363,Høvik
Fossbrubakkane 123,8500 ,94,https://www.finn.no/realestate/lettings/ad.html?finnkode=287979153,61.5285733,9.9579667,05/02/2023,90.0,2647,Sør-Fron
Jordal terrasse 12,16000 ,54,https://www.finn.no/realestate/lettings/ad.html?finnkode=289846264,59.912001,10.786666,05/02/2023,296.0,658,Oslo
Sørengkaia,22000 ,69,https://www.finn.no/realestate/lettings/ad.html?finnkode=288225464,59.9028806,10.7555528,05/02/2023,318.0,196,Oslo
Hafrsfjordgata 29 A,14900 ,40,https://www.finn.no/realestate/lettings/ad.html?finnkode=289844748,59.919963,10.698621,05/02/2023,372.0,268,Oslo
ROMSDALSGATA 14,11000 ,60,https://www.finn.no/realestate/lettings/ad.html?finnkode=289837050,62.7380757,7.1669744,05/02/2023,183.0,6415,Molde
Folagrenda 14,15300 ,49,https://www.finn.no/realestate/lettings/ad.html?finnkode=289842389,59.840203,10.439561,05/02/2023,312.0,1384,Asker
Peterhofveien 6,23000 ,104,https://www.finn.no/realestate/lettings/ad.html?finnkode=289841397,59.909091,10.600784,05/02/2023,221.0,1369,Stabekk
Skjerpevegen 20,8000 ,56,https://www.finn.no/realestate/lettings/ad.html?finnkode=289830279,58.6607383,5.6019631,05/02/2023,142.0,4365,Nærbø
HAAKON VII GATE 25 A,12500 ,45,https://www.finn.no/realestate/lettings/ad.html?finnkode=285520301,67.2757021,14.3742627,05/02/2023,277.0,8003,Bodø
Steinshyllvegen 39,2700 ,11,https://www.finn.no/realestate/lettings/ad.html?finnkode=244779615,63.3540212,10.1181319,05/02/2023,245.0,7074,Spongdal
INKOGNITOGATA 33 B,19000 ,52,https://www.finn.no/realestate/lettings/ad.html?finnkode=286400586,59.916135,10.720429,05/02/2023,365.0,256,Oslo
Vestbakken,7500 ,50,https://www.finn.no/realestate/lettings/ad.html?finnkode=244603703,59.3010972,10.43185,05/02/2023,150.0,3123,Tønsberg
Furulundjordet 27 A,15000 ,90,https://www.finn.no/realestate/lettings/ad.html?finnkode=289763915,60.2633437,11.1911564,05/02/2023,166.0,2070,Råholt
Larsnesvegen 323,15000 ,216,https://www.finn.no/realestate/lettings/ad.html?finnkode=261334203,62.191484,5.594739,05/02/2023,69.0,6084,Larsnes
Olav M. Troviks vei 68,6921 ,20,https://www.finn.no/realestate/lettings/ad.html?finnkode=289825643,59.963381,10.733285,05/02/2023,346.0,864,Oslo
BORGELIA 32,13500 ,112,https://www.finn.no/realestate/lettings/ad.html?finnkode=258863930,59.1604954,9.6650096,05/02/2023,120.0,3711,Skien
Remmo 9,10000 ,97,https://www.finn.no/realestate/lettings/ad.html?finnkode=57262358,60.5796725,5.2173063,05/02/2023,103.0,5911,Alversund
Gamle Konglungvei 35,12000 ,45,https://www.finn.no/realestate/lettings/ad.html?finnkode=289015006,59.8379413,10.5021498,05/02/2023,266.0,1392,Vettre
Rostockgata 98,3800 ,12,https://www.finn.no/realestate/lettings/ad.html?finnkode=289825508,59.905645,10.759808,05/02/2023,316.0,194,Oslo
Stigergata 26 A,16500 ,130,https://www.finn.no/realestate/lettings/ad.html?finnkode=149695978,59.737356,9.869819,05/02/2023,126.0,3320,Vestfossen
Nygårdsvegen 73 B,17000 ,131,https://www.finn.no/realestate/lettings/ad.html?finnkode=289826096,63.097994,7.803883,05/02/2023,129.0,6520,Frei
Torggata 140,12500 ,40,https://www.finn.no/realestate/lettings/ad.html?finnkode=289830397,60.795328,11.060821,05/02/2023,312.0,2317,Hamar
Kråkstadveien 1,9000 ,29,https://www.finn.no/realestate/lettings/ad.html?finnkode=154676742,59.714157,10.837953,05/02/2023,310.0,1400,Ski
Torggata 140,13900 ,54,https://www.finn.no/realestate/lettings/ad.html?finnkode=289828723,60.795328,11.060821,05/02/2023,257.0,2317,Hamar
Peckels gate 5,7000 ,21,https://www.finn.no/realestate/lettings/ad.html?finnkode=284325182,59.663146,9.648844,05/02/2023,333.0,3616,Kongsberg
Nedre gate 8,23000 ,79,https://www.finn.no/realestate/lettings/ad.html?finnkode=289825191,59.919846,10.754791,05/02/2023,291.0,551,Oslo
Hekkveien 3,14000 ,38,https://www.finn.no/realestate/lettings/ad.html?finnkode=289824108,59.926252,10.779513,05/02/2023,368.0,571,Oslo
Fensfjordvegen 119,7000 ,70,https://www.finn.no/realestate/lettings/ad.html?finnkode=289815282,60.8160011,5.3092751,05/02/2023,100.0,5986,Hosteland
Ringeriksveien 32,8300 ,25,https://www.finn.no/realestate/lettings/ad.html?finnkode=289823096,59.7595734,10.2587287,05/02/2023,332.0,3414,Lierstranda
KORSGATA 25,13500 ,29,https://www.finn.no/realestate/lettings/ad.html?finnkode=289823522,59.919971,10.758121,05/02/2023,465.0,551,Oslo
mosseveien 116,9000 ,150,https://www.finn.no/realestate/lettings/ad.html?finnkode=159252868,59.3696354,10.7979583,05/02/2023,60.0,1580,Rygge
Søster Mathildes gate 32,18500 ,76,https://www.finn.no/realestate/lettings/ad.html?finnkode=240506058,59.921138,10.947088,05/02/2023,243.0,1473,Lørenskog
Ladeveien 14,16000 ,57,https://www.finn.no/realestate/lettings/ad.html?finnkode=289810048,63.4415859,10.4348904,05/02/2023,280.0,7066,Trondheim
Landøyveien 80,9000 ,30,https://www.finn.no/realestate/lettings/ad.html?finnkode=289725397,59.858709,10.502675,05/02/2023,300.0,1394,Nesbru
Berge 3,16000 ,200,https://www.finn.no/realestate/lettings/ad.html?finnkode=289522852,60.211248,5.0745542,05/02/2023,80.0,5379,Steinsland
Båstadveien 870,29000 ,420,https://www.finn.no/realestate/lettings/ad.html?finnkode=289806095,59.7236935,11.2940265,05/02/2023,69.0,1866,Båstad
HOVSTØYLVEGEN 23,11000 ,120,https://www.finn.no/realestate/lettings/ad.html?finnkode=187415585,62.3366395,5.8594753,05/02/2023,91.0,6065,Ulsteinvik
Wolffs gate 14,11500 ,28,https://www.finn.no/realestate/lettings/ad.html?finnkode=289810470,60.3825497,5.3230162,05/02/2023,410.0,5006,Bergen
THOR OLSENS GATE 3 A,1950 ,15,https://www.finn.no/realestate/lettings/ad.html?finnkode=289809479,59.918033,10.745336,05/02/2023,130.0,177,Oslo
ILAGATA 2,7500 ,60,https://www.finn.no/realestate/lettings/ad.html?finnkode=250538374,59.929049,10.74629,05/02/2023,125.0,171,Oslo
Kvernevikveien 287,10000 ,80,https://www.finn.no/realestate/lettings/ad.html?finnkode=248171482,58.979022,5.6547679,05/02/2023,125.0,4073,Randaberg
HØGEVOLLSTUBBEN 14,15000 ,133,https://www.finn.no/realestate/lettings/ad.html?finnkode=289685571,58.852188,5.752738,05/02/2023,112.0,4327,Sandnes
Stålverkskroken 32,18500 ,50,https://www.finn.no/realestate/lettings/ad.html?finnkode=289805118,59.919089,10.791207,05/02/2023,370.0,661,Oslo
Guldhaugsletta,10000 ,30,https://www.finn.no/realestate/lettings/ad.html?finnkode=285627032,59.9610711,10.9834166,05/02/2023,333.0,2013,Skjetten
Ulvenveien 123,30500 ,115,https://www.finn.no/realestate/lettings/ad.html?finnkode=289796187,59.921475,10.814376,05/02/2023,265.0,665,Oslo
EDONBAKKEN 9,15500 ,84,https://www.finn.no/realestate/lettings/ad.html?finnkode=284832490,59.2659602,11.1520393,05/02/2023,184.0,1738,Borgenhaugen
Granstangen 18B,14000 ,70,https://www.finn.no/realestate/lettings/ad.html?finnkode=289790157,59.941696,10.900818,05/02/2023,200.0,1053,Oslo
Lensbygdavegen 26,9000 ,108,https://www.finn.no/realestate/lettings/ad.html?finnkode=289790284,60.662615,10.8125552,05/02/2023,83.0,2850,Lena
MOTZFELDTS GATE 23,19000 ,68,https://www.finn.no/realestate/lettings/ad.html?finnkode=78526934,59.915398,10.76718,05/02/2023,279.0,561,Oslo
SEXES GATE 10,14900 ,58,https://www.finn.no/realestate/lettings/ad.html?finnkode=289711822,59.914894,10.771876,05/02/2023,256.0,577,Oslo
Heliveien 776,6000 ,50,https://www.finn.no/realestate/lettings/ad.html?finnkode=289794749,59.6132488,11.078,05/02/2023,120.0,1820,Spydeberg
Bølerveien 137,20000 ,160,https://www.finn.no/realestate/lettings/ad.html?finnkode=289555533,60.0014673,11.0714864,05/02/2023,125.0,2015,Leirsund
TINGSTUVEIEN 27,6500 ,60,https://www.finn.no/realestate/lettings/ad.html?finnkode=289003090,59.92279,10.674238,05/02/2023,108.0,281,Oslo
Sørumveien 59,10000 ,90,https://www.finn.no/realestate/lettings/ad.html?finnkode=289789632,59.4347471,10.2870003,05/02/2023,111.0,3178,Våle
Statsminister Michelsens veg 62 A,19900 ,102,https://www.finn.no/realestate/lettings/ad.html?finnkode=289792570,60.3384834,5.343976,05/02/2023,195.0,5230,Paradis
Skodje sentrum,6900 ,40,https://www.finn.no/realestate/lettings/ad.html?finnkode=289670641,62.503983,6.695491,05/02/2023,172.0,6260,Skodje
Åsenstubben 4,11900 ,55,https://www.finn.no/realestate/lettings/ad.html?finnkode=289779723,58.8937445,5.6759903,05/02/2023,216.0,4055,Sola
Hommedalskogen 37,7500 ,55,https://www.finn.no/realestate/lettings/ad.html?finnkode=224504557,58.3434504,8.5465463,05/02/2023,136.0,4886,Grimstad
LANDFALLØYA 48,13500 ,69,https://www.finn.no/realestate/lettings/ad.html?finnkode=165016517,59.7485987,10.169339,05/02/2023,195.0,3023,Drammen
FJELLGATA 28 B,25000 ,92,https://www.finn.no/realestate/lettings/ad.html?finnkode=289673125,59.925733,10.770718,05/02/2023,271.0,566,Oslo
MADLASTOKKEN 25 A,18000 ,80,https://www.finn.no/realestate/lettings/ad.html?finnkode=289781311,58.951476,5.6729544,05/02/2023,225.0,4042,Hafrsfjord
Sørmarkveien 11,8000 ,35,https://www.finn.no/realestate/lettings/ad.html?finnkode=151655712,58.941454,5.723879,05/02/2023,228.0,4016,Stavanger
Fjellgata 1,1500 ,12,https://www.finn.no/realestate/lettings/ad.html?finnkode=232024733,59.924325,10.767924,05/02/2023,125.0,566,Oslo
Åslandhellinga 395B,4900 ,87,https://www.finn.no/realestate/lettings/ad.html?finnkode=208592464,59.824677,10.842306,05/02/2023,56.0,1274,Oslo
Kilgata 13,16000 ,64,https://www.finn.no/realestate/lettings/ad.html?finnkode=215483534,59.127323,10.236917,05/02/2023,250.0,3217,Sandefjord
Ingar Nilsens vei 5 A,20000 ,75,https://www.finn.no/realestate/lettings/ad.html?finnkode=289778098,59.921158,10.692278,05/02/2023,266.0,268,Oslo
HOFGAARDS GATE 16 C,11000 ,54,https://www.finn.no/realestate/lettings/ad.html?finnkode=67092220,59.74302,10.226667,05/02/2023,203.0,3012,Drammen
Skolemesteren 10,6200 ,50,https://www.finn.no/realestate/lettings/ad.html?finnkode=258632920,59.0223337,9.7141941,05/02/2023,124.0,3961,Stathelle
Rektor Qvigstads Gate,5000 ,113,https://www.finn.no/realestate/lettings/ad.html?finnkode=289770575,69.6481526,18.9435035,05/02/2023,44.0,9009,Tromsø
Feråslia 21,13000 ,55,https://www.finn.no/realestate/lettings/ad.html?finnkode=289103548,60.3041277,5.2913588,05/02/2023,236.0,5253,Sandsli
Stadionveien 5,23500 ,44,https://www.finn.no/realestate/lettings/ad.html?finnkode=181480534,60.384394,5.298786,05/02/2023,534.0,5162,Laksevåg
Lian,15000 ,75,https://www.finn.no/realestate/lettings/ad.html?finnkode=75930255,63.4029768,10.3127064,05/02/2023,200.0,7024,Trondheim
Søråsveien 58,5000 ,15,https://www.finn.no/realestate/lettings/ad.html?finnkode=289765109,59.658822,10.774411,05/02/2023,333.0,1430,Ås
Ila Alle 84,9000 ,90,https://www.finn.no/realestate/lettings/ad.html?finnkode=107392547,59.225461,10.952988,05/02/2023,100.0,1605,Fredrikstad
Osterhaus gate 16C,10000 ,60,https://www.finn.no/realestate/lettings/ad.html?finnkode=289453998,59.917469,10.752605,05/02/2023,166.0,183,Oslo
GAMLEVEGEN 42,10000 ,140,https://www.finn.no/realestate/lettings/ad.html?finnkode=142418771,60.7735022,11.2248905,05/02/2023,71.0,2344,Ilseng
Likaiveien 10,2900 ,35,https://www.finn.no/realestate/lettings/ad.html?finnkode=205070294,58.9154994,5.8179548,05/02/2023,82.0,4311,Hommersåk
RUSELØKKVEIEN 49,23000 ,68,https://www.finn.no/realestate/lettings/ad.html?finnkode=288976314,59.912264,10.72366,05/02/2023,338.0,251,Oslo
SKOGVEIEN 3,16000 ,174,https://www.finn.no/realestate/lettings/ad.html?finnkode=276628235,59.2242104,10.3011769,05/02/2023,91.0,3160,Stokke
HERMAN FRANGS GATE 24,6800 ,120,https://www.finn.no/realestate/lettings/ad.html?finnkode=289753465,60.796566,11.0641898,05/02/2023,56.0,2317,Hamar
Lørenveien 35,15900 ,40,https://www.finn.no/realestate/lettings/ad.html?finnkode=289762580,59.931423,10.788982,05/02/2023,397.0,585,Oslo
Bjørnsvelia 33,9000 ,50,https://www.finn.no/realestate/lettings/ad.html?finnkode=260140001,60.8137617,10.6710307,05/02/2023,180.0,2819,Gjøvik
Stavangerveien 32 C,14000 ,71,https://www.finn.no/realestate/lettings/ad.html?finnkode=289761281,58.873588,5.727662,05/02/2023,197.0,4313,Sandnes
Vøyensvingen 7,13900 ,40,https://www.finn.no/realestate/lettings/ad.html?finnkode=289760744,59.93014,10.752772,05/02/2023,347.0,458,Oslo
BERINGSTREDET 16,31500 ,221,https://www.finn.no/realestate/lettings/ad.html?finnkode=285041557,69.673419,18.96728,05/02/2023,142.0,9010,Tromsø
Myrlandsbakken 8,11500 ,53,https://www.finn.no/realestate/lettings/ad.html?finnkode=194832490,62.434499,6.367571,05/02/2023,216.0,6020,Ålesund
Bøgata 5C,18000 ,80,https://www.finn.no/realestate/lettings/ad.html?finnkode=289744948,59.912254,10.781534,05/02/2023,225.0,655,Oslo
SELJEVEIEN 4,15500 ,150,https://www.finn.no/realestate/lettings/ad.html?finnkode=212395901,59.7332576,9.8589226,05/02/2023,103.0,3320,Vestfossen
Langbråten 24,14500 ,76,https://www.finn.no/realestate/lettings/ad.html?finnkode=289751102,60.141282,11.16152,05/02/2023,190.0,2063,Jessheim
GOSENSTUBBEN 69,5950 ,60,https://www.finn.no/realestate/lettings/ad.html?finnkode=289721748,58.9398697,5.6875318,05/02/2023,99.0,4041,Hafrsfjord
Bakkehaugvegen 2G,"8350,–",50,https://www.finn.no/realestate/lettings/ad.html?finnkode=289750121,60.8877055,10.9355891,05/02/2023,,2383,Brumunddal
HALSHAUG TERRASSE 9 A,10000 ,94,https://www.finn.no/realestate/lettings/ad.html?finnkode=231183025,58.0341357,7.4499687,05/02/2023,106.0,4514,Mandal
Bekkeveien 14,11000 ,110,https://www.finn.no/realestate/lettings/ad.html?finnkode=289740091,58.2970402,6.6574101,05/02/2023,100.0,4400,Flekkefjord
VESTFJORDGATA 66,7000 ,30,https://www.finn.no/realestate/lettings/ad.html?finnkode=289743820,68.2360435,14.5697599,05/02/2023,233.0,8300,Svolvær
Statsråd Tanks gate 7,13900 ,142,https://www.finn.no/realestate/lettings/ad.html?finnkode=289746690,59.129472,11.387039,05/02/2023,97.0,1777,Halden
Grønlandsleiret 16,32000 ,62,https://www.finn.no/realestate/lettings/ad.html?finnkode=289743006,59.912319,10.76538,05/02/2023,516.0,190,Oslo
VAMMAVEIEN 43,15000 ,101,https://www.finn.no/realestate/lettings/ad.html?finnkode=289741330,59.57971,11.1626733,05/02/2023,148.0,1813,Askim
Grønlandsleiret 16,22500 ,45,https://www.finn.no/realestate/lettings/ad.html?finnkode=289669691,59.912319,10.76538,05/02/2023,500.0,190,Oslo
Eikelivegen 5,14500 ,67,https://www.finn.no/realestate/lettings/ad.html?finnkode=189799703,59.951463,11.0336776,05/02/2023,216.0,2005,Rælingen
Grønlandsleiret 16,22500 ,34,https://www.finn.no/realestate/lettings/ad.html?finnkode=289741236,59.912319,10.76538,05/02/2023,661.0,190,Oslo
COLLETTS GATE 11 A,23900 ,75,https://www.finn.no/realestate/lettings/ad.html?finnkode=272309345,59.925025,10.736131,05/02/2023,318.0,169,Oslo
BERJABAKKEN 4,12000 ,60,https://www.finn.no/realestate/lettings/ad.html?finnkode=289737717,59.6198093,10.4076024,05/02/2023,200.0,3060,Svelvik
Fernanda Nissens gate 3 D,16500 ,43,https://www.finn.no/realestate/lettings/ad.html?finnkode=289743860,59.945721,10.768358,05/02/2023,383.0,484,Oslo
LAUVLIA 24,12000 ,50,https://www.finn.no/realestate/lettings/ad.html?finnkode=289734922,59.7576714,10.0248539,05/02/2023,240.0,3055,Krokstadelva
Tytebærbrekko 27,12000 ,72,https://www.finn.no/realestate/lettings/ad.html?finnkode=289713563,60.359874,5.118277,05/02/2023,166.0,5354,Straume
JØRSTADMOVEGEN 566,7800 ,85,https://www.finn.no/realestate/lettings/ad.html?finnkode=289735395,61.1450543,10.3844395,05/02/2023,91.0,2625,Fåberg
Brekkelia 5 B,10000 ,38,https://www.finn.no/realestate/lettings/ad.html?finnkode=289739524,59.961445,10.767197,05/02/2023,263.0,882,Oslo
Brinken 1,8500 ,37,https://www.finn.no/realestate/lettings/ad.html?finnkode=289739353,60.1371837,11.164605,05/02/2023,229.0,2050,Jessheim
REYNOLDSGATE 2 B,5500 ,11,https://www.finn.no/realestate/lettings/ad.html?finnkode=218233277,59.142647,9.662081,05/02/2023,500.0,3915,Porsgrunn
Blektjernveien 4b,12000 ,50,https://www.finn.no/realestate/lettings/ad.html?finnkode=289731176,59.735077,10.183128,05/02/2023,240.0,3046,Drammen
Lilleakerveien 27,10900 ,42,https://www.finn.no/realestate/lettings/ad.html?finnkode=289737133,59.919851,10.636486,05/02/2023,259.0,283,Oslo
LEIF CASTBERGS VEG 24 A,7000 ,50,https://www.finn.no/realestate/lettings/ad.html?finnkode=124377101,60.7899787,10.6699395,05/02/2023,140.0,2821,Gjøvik
Evangjordet 5,15000 ,68,https://www.finn.no/realestate/lettings/ad.html?finnkode=289736675,60.113438,11.461778,05/02/2023,220.0,2150,Årnes
Ansnesveien 48,8000 ,55,https://www.finn.no/realestate/lettings/ad.html?finnkode=210270956,63.6336688,8.9846422,05/02/2023,145.0,7241,Ansnes
Grønstads gate 30B,11000 ,60,https://www.finn.no/realestate/lettings/ad.html?finnkode=282987175,61.1128107,10.4665341,05/02/2023,183.0,2609,Lillehammer
RÅDHUSGATA 15,5900 ,20,https://www.finn.no/realestate/lettings/ad.html?finnkode=275128449,58.616067,5.646625,05/02/2023,295.0,4360,Varhaug
LANGES GATE 9,7800 ,13,https://www.finn.no/realestate/lettings/ad.html?finnkode=284242730,59.919151,10.740133,05/02/2023,600.0,165,Oslo
Vestbygata 22,11200 ,42,https://www.finn.no/realestate/lettings/ad.html?finnkode=289732284,59.9629409,11.0512015,05/02/2023,266.0,2003,Lillestrøm
Georg Feydts Gate 7,8500 ,84,https://www.finn.no/realestate/lettings/ad.html?finnkode=45678509,59.1270971,11.4432384,05/02/2023,101.0,1792,Tistedal
Disenvegen 18,5250 ,129,https://www.finn.no/realestate/lettings/ad.html?finnkode=133037387,60.7983299,11.0872207,05/02/2023,40.0,2318,Hamar
Hallagerbakken 44,11000 ,74,https://www.finn.no/realestate/lettings/ad.html?finnkode=283678979,59.839303,10.790629,05/02/2023,148.0,1256,Oslo
Disenvegen 8,5250 ,12,https://www.finn.no/realestate/lettings/ad.html?finnkode=138322615,60.7984134,11.0864015,05/02/2023,437.0,2318,Hamar
RÅDYRFARET 22 B,10500 ,70,https://www.finn.no/realestate/lettings/ad.html?finnkode=289723775,59.1291149,11.3653232,05/02/2023,150.0,1781,Halden
Granebakken 106,11500 ,45,https://www.finn.no/realestate/lettings/ad.html?finnkode=88758139,59.856318,10.82895,05/02/2023,255.0,1284,Oslo
Hegdehaugsveien 20,20000 ,70,https://www.finn.no/realestate/lettings/ad.html?finnkode=281421308,59.920232,10.730424,05/02/2023,285.0,167,Oslo
Grønnestølsbakken 7,9000 ,48,https://www.finn.no/realestate/lettings/ad.html?finnkode=289724441,60.353303,5.3370542,05/02/2023,187.0,5073,Bergen
Heimdalsvegen 12,17900 ,70,https://www.finn.no/realestate/lettings/ad.html?finnkode=289723548,63.349074,10.355806,05/02/2023,255.0,7080,Heimdal
Bernt Ankers gate 23,9000 ,15,https://www.finn.no/realestate/lettings/ad.html?finnkode=245451066,59.916339,10.751205,05/02/2023,600.0,183,Oslo
Vikavegen 136 Kvanne,5000 ,28,https://www.finn.no/realestate/lettings/ad.html?finnkode=267894322,62.8407112,8.6365217,05/02/2023,178.0,6640,Kvanne
Horgvegen 5,15750 ,70,https://www.finn.no/realestate/lettings/ad.html?finnkode=289721286,63.4271081,10.5360583,05/02/2023,225.0,7055,Ranheim
Rådyrstien 8,16500 ,160,https://www.finn.no/realestate/lettings/ad.html?finnkode=289713239,59.4969716,10.2617097,05/02/2023,103.0,3089,Holmestrand
GAMLEVEIEN 121,11500 ,60,https://www.finn.no/realestate/lettings/ad.html?finnkode=47958481,59.959174,10.477233,05/02/2023,191.0,1350,Lommedalen
Erling Skjalgssons gate 18,7500 ,150,https://www.finn.no/realestate/lettings/ad.html?finnkode=289715447,59.919235,10.701428,05/02/2023,50.0,267,Oslo
INNDALSVEIEN 7 A,14000 ,54,https://www.finn.no/realestate/lettings/ad.html?finnkode=289705466,60.370471,5.347122,05/02/2023,259.0,5063,Bergen
Solliveien 14,9500 ,65,https://www.finn.no/realestate/lettings/ad.html?finnkode=156946900,58.1215361,7.9496427,05/02/2023,146.0,4620,Kristiansand S
STRANDGATA 33,10000 ,66,https://www.finn.no/realestate/lettings/ad.html?finnkode=268464720,61.596192,9.743305,05/02/2023,151.0,2640,Vinstra
Seljeveien 31,18000 ,71,https://www.finn.no/realestate/lettings/ad.html?finnkode=289715019,59.929301,10.788527,05/02/2023,253.0,575,Oslo
SØNDRE ØYJORDEN,8900 ,28,https://www.finn.no/realestate/lettings/ad.html?finnkode=289609812,60.4276274,5.3038967,05/02/2023,317.0,5038,Bergen
SNEKKERSTUBAKKEN 10 B,15000 ,85,https://www.finn.no/realestate/lettings/ad.html?finnkode=278665967,59.26633,11.15913,05/02/2023,176.0,1738,Borgenhaugen
Haugeveien 15,9500 ,45,https://www.finn.no/realestate/lettings/ad.html?finnkode=289706217,59.2172469,10.8980289,05/02/2023,211.0,1621,Gressvik
Stockfleths gate 40,16900 ,65,https://www.finn.no/realestate/lettings/ad.html?finnkode=289711841,59.934353,10.751734,05/02/2023,260.0,461,Oslo
REICHWEINS GATE 5,9000 ,11,https://www.finn.no/realestate/lettings/ad.html?finnkode=150483531,59.912058,10.720878,05/02/2023,818.0,254,Oslo
Uelands gate 22,18500 ,64,https://www.finn.no/realestate/lettings/ad.html?finnkode=289710824,59.926695,10.749763,05/02/2023,289.0,175,Oslo
TOMTEGATA 63,4500 ,25,https://www.finn.no/realestate/lettings/ad.html?finnkode=106566356,59.2009546,9.6193122,05/02/2023,180.0,3714,Skien
Geitmyrsveien,30000 ,50,https://www.finn.no/realestate/lettings/ad.html?finnkode=240780809,59.9269279,10.7430311,05/02/2023,600.0,171,Oslo
Furukollen 15 B,10500 ,95,https://www.finn.no/realestate/lettings/ad.html?finnkode=147842857,59.130757,9.647817,05/02/2023,110.0,3924,Porsgrunn
Snølia 5,"22000,–",82,https://www.finn.no/realestate/lettings/ad.html?finnkode=289233583,59.946703,10.952525,05/02/2023,,1470,Lørenskog
Mikalsrud 5,"12000,–",80,https://www.finn.no/realestate/lettings/ad.html?finnkode=289231283,60.1577347,11.1838147,05/02/2023,,2069,Jessheim
Sørengkaia 120,21500 ,64,https://www.finn.no/realestate/lettings/ad.html?finnkode=289703561,59.90169,10.753471,05/02/2023,335.0,194,Oslo
Fagerlibakken,10800 ,50,https://www.finn.no/realestate/lettings/ad.html?finnkode=270325712,62.474568,6.222814,05/02/2023,216.0,6008,Ålesund
Sneltvedtvegen 21,7500 ,45,https://www.finn.no/realestate/lettings/ad.html?finnkode=152621120,59.2120313,9.6224013,05/02/2023,166.0,3715,Skien
Helgeroveien 480,8500 ,45,https://www.finn.no/realestate/lettings/ad.html?finnkode=123588705,58.9962692,9.9688602,05/02/2023,188.0,3294,Stavern
Storgata 120 A,15500 ,90,https://www.finn.no/realestate/lettings/ad.html?finnkode=289678617,61.1202622,10.4620961,05/02/2023,172.0,2615,Lillehammer
SJØGANGEN 2,20000 ,39,https://www.finn.no/realestate/lettings/ad.html?finnkode=211406959,59.908407,10.721976,05/02/2023,512.0,252,Oslo
Stakkevollvegen 300,16500 ,65,https://www.finn.no/realestate/lettings/ad.html?finnkode=284573314,69.6837459,18.9983507,05/02/2023,253.0,9019,Tromsø
Sanddalsbotn 42,15000 ,120,https://www.finn.no/realestate/lettings/ad.html?finnkode=289691161,60.3303668,5.3665649,05/02/2023,125.0,5221,Nesttun
LENNINGSVEIEN 12,9700 ,60,https://www.finn.no/realestate/lettings/ad.html?finnkode=289683536,65.4699531,12.2175544,05/02/2023,161.0,8900,Brønnøysund
Hagamoen 2,22000 ,215,https://www.finn.no/realestate/lettings/ad.html?finnkode=289677138,60.260561,11.21326,05/02/2023,102.0,2072,Dal
HOFSTADGATA 42,11500 ,42,https://www.finn.no/realestate/lettings/ad.html?finnkode=129973273,59.8464262,10.4635847,05/02/2023,273.0,1384,Asker
BRYGGETORGET 15,3400 ,12,https://www.finn.no/realestate/lettings/ad.html?finnkode=279146756,59.909862,10.724001,05/02/2023,283.0,250,Oslo
Raveien 406 E,16000 ,90,https://www.finn.no/realestate/lettings/ad.html?finnkode=208487203,59.173831,10.211899,05/02/2023,177.0,3241,Sandefjord
Rustvegen 270,6500 ,80,https://www.finn.no/realestate/lettings/ad.html?finnkode=289670218,61.5748513,9.728979,05/02/2023,81.0,2640,Vinstra
SATURNVEIEN 29 A,13000 ,40,https://www.finn.no/realestate/lettings/ad.html?finnkode=113797961,59.957936,10.777756,05/02/2023,325.0,492,Oslo
CHRISTIANSLUND ALLE 26,16000 ,130,https://www.finn.no/realestate/lettings/ad.html?finnkode=289671147,59.226623,10.935873,05/02/2023,123.0,1613,Fredrikstad
Skovveien 35,3000 ,12,https://www.finn.no/realestate/lettings/ad.html?finnkode=159857035,59.920224,10.720102,05/02/2023,250.0,258,Oslo
Arons vei 9,10000 ,64,https://www.finn.no/realestate/lettings/ad.html?finnkode=289679598,59.670985,10.6572253,05/02/2023,156.0,1448,Drøbak
ARNE STANGEBYES GATE 15 A,14000 ,61,https://www.finn.no/realestate/lettings/ad.html?finnkode=284360901,59.2131252,10.9421239,05/02/2023,229.0,1607,Fredrikstad
TORGGATA 27,8950 ,11,https://www.finn.no/realestate/lettings/ad.html?finnkode=238895526,59.916912,10.753309,05/02/2023,813.0,183,Oslo
Ausvigheia 116,8000 ,70,https://www.finn.no/realestate/lettings/ad.html?finnkode=289670857,58.0765726,7.7701973,05/02/2023,114.0,4640,Søgne
HØYFJELLVEIEN 4B,9500 ,90,https://www.finn.no/realestate/lettings/ad.html?finnkode=260902559,59.2407087,10.9651238,05/02/2023,105.0,1617,Fredrikstad
Vibeveien 17,12000 ,112,https://www.finn.no/realestate/lettings/ad.html?finnkode=104127172,59.6803612,9.6448271,05/02/2023,107.0,3611,Kongsberg
Finskudtveien 55,7500 ,50,https://www.finn.no/realestate/lettings/ad.html?finnkode=283400512,59.414559,11.213859,05/02/2023,150.0,1894,Rakkestad
Storgata 15,12900 ,90,https://www.finn.no/realestate/lettings/ad.html?finnkode=289663371,59.123585,11.38766,05/02/2023,143.0,1766,Halden
SANDSBERGET 8,6900 ,27,https://www.finn.no/realestate/lettings/ad.html?finnkode=285307432,62.470633,6.232003,05/02/2023,255.0,6009,Ålesund
Storgata 4b,12000 ,41,https://www.finn.no/realestate/lettings/ad.html?finnkode=272818693,67.282915,14.376326,05/02/2023,292.0,8006,Bodø
Kjelsåsveien 138A,21000 ,104,https://www.finn.no/realestate/lettings/ad.html?finnkode=289662503,59.963538,10.781925,05/02/2023,201.0,491,Oslo
VÅRSTAULVEGEN 90 C,5500 ,60,https://www.finn.no/realestate/lettings/ad.html?finnkode=77067187,59.4771922,8.4278515,05/02/2023,91.0,3848,Morgedal
Elvadalen 451,10000 ,146,https://www.finn.no/realestate/lettings/ad.html?finnkode=289660945,63.157627,9.658772,05/02/2023,68.0,7327,Svorkmo
Bøkkerveien 6 D,13900 ,29,https://www.finn.no/realestate/lettings/ad.html?finnkode=289671775,59.927312,10.795391,05/02/2023,479.0,579,Oslo
Røstadlia Nedre 12,11000 ,68,https://www.finn.no/realestate/lettings/ad.html?finnkode=237398971,63.7512819,11.3260257,05/02/2023,161.0,7609,Levanger
Sørdolmveien 7,7000 ,40,https://www.finn.no/realestate/lettings/ad.html?finnkode=289666567,63.651594,8.774543,05/02/2023,175.0,7252,Dolmøy
Nedre hamburgersmauet 8,5600 ,79,https://www.finn.no/realestate/lettings/ad.html?finnkode=253787177,60.3959364,5.3283358,05/02/2023,70.0,5018,Bergen
Trondalsveien 21,14000 ,120,https://www.finn.no/realestate/lettings/ad.html?finnkode=278449525,59.219367,10.890918,05/02/2023,116.0,1621,Gressvik
DRONNINGENS GATE 52,5000 ,12,https://www.finn.no/realestate/lettings/ad.html?finnkode=279227345,58.147366,8.001628,05/02/2023,416.0,4608,Kristiansand S
Svennengveien,9000 ,30,https://www.finn.no/realestate/lettings/ad.html?finnkode=267585660,67.288018,14.4239377,05/02/2023,300.0,8010,Bodø
Væressletta 13 C,12500 ,49,https://www.finn.no/realestate/lettings/ad.html?finnkode=289665947,63.433246,10.579758,05/02/2023,255.0,7055,Ranheim
SPERREVIKVEGEN 101,9000 ,50,https://www.finn.no/realestate/lettings/ad.html?finnkode=110895535,60.2234853,5.3845491,05/02/2023,180.0,5215,Lysekloster
Lindebergveien 23c,15500 ,39,https://www.finn.no/realestate/lettings/ad.html?finnkode=288914531,59.930143,10.88031,05/02/2023,397.0,1069,Oslo
Gjørtlervegen 1 A,4800 ,35,https://www.finn.no/realestate/lettings/ad.html?finnkode=223776784,63.404548,10.358065,05/02/2023,137.0,7021,Trondheim
Ulsmågskaret 24,13000 ,68,https://www.finn.no/realestate/lettings/ad.html?finnkode=263345172,60.3183664,5.3737527,05/02/2023,191.0,5224,Nesttun
ELLEN GLEDITSCH' VEI 1,16000 ,77,https://www.finn.no/realestate/lettings/ad.html?finnkode=67893385,59.966296,10.919533,05/02/2023,207.0,987,Oslo
Grevlingveien 29,9500 ,70,https://www.finn.no/realestate/lettings/ad.html?finnkode=284950585,58.8663357,5.7674625,05/02/2023,135.0,4329,Sandnes
INGA BJØRNSONS VEI 35,23500 ,133,https://www.finn.no/realestate/lettings/ad.html?finnkode=289643174,59.967329,10.930593,05/02/2023,176.0,969,Oslo
Lunaveien 14,9900 ,65,https://www.finn.no/realestate/lettings/ad.html?finnkode=182386038,59.7635027,10.0382415,05/02/2023,152.0,3055,Krokstadelva
ELVEGATA 19,17000 ,90,https://www.finn.no/realestate/lettings/ad.html?finnkode=289647158,61.116873,10.466636,05/02/2023,188.0,2609,Lillehammer
Strandvegen 181,7000 ,12,https://www.finn.no/realestate/lettings/ad.html?finnkode=289647680,69.6319101,18.9122832,05/02/2023,583.0,9006,Tromsø
Kirkealleen 118,800 ,12,https://www.finn.no/realestate/lettings/ad.html?finnkode=246013055,59.777277,10.489785,05/02/2023,66.0,3470,Slemmestad
FJELDMORAVEGEN 3,8900 ,80,https://www.finn.no/realestate/lettings/ad.html?finnkode=75130306,60.8744639,11.5681722,05/02/2023,111.0,2414,Elverum
Veråsvegen 302,10000 ,141,https://www.finn.no/realestate/lettings/ad.html?finnkode=289643906,60.7343533,5.1350325,05/02/2023,70.0,5955,Lindås
Grømheia 4,12000 ,80,https://www.finn.no/realestate/lettings/ad.html?finnkode=173314250,58.3405112,8.5801144,05/02/2023,150.0,4877,Grimstad
LYSEKLOSTERVEGEN 443,7500 ,70,https://www.finn.no/realestate/lettings/ad.html?finnkode=184975811,60.2270937,5.4008199,05/02/2023,107.0,5215,Lysekloster
Gjesdalveien 8,11000 ,65,https://www.finn.no/realestate/lettings/ad.html?finnkode=289644740,58.8487716,5.7359415,05/02/2023,169.0,4306,Sandnes
Gjesdalveien 8,11000 ,65,https://www.finn.no/realestate/lettings/ad.html?finnkode=289644524,58.8487716,5.7359415,05/02/2023,169.0,4306,Sandnes
Hollenderåsen 54,9900 ,49,https://www.finn.no/realestate/lettings/ad.html?finnkode=289642812,59.0982193,10.2585839,05/02/2023,202.0,3234,Sandefjord
Reinsholm 12A,13000 ,120,https://www.finn.no/realestate/lettings/ad.html?finnkode=289637225,63.7929005,11.4925836,05/02/2023,108.0,7654,Verdal
Stokkbekken 135,12500 ,28,https://www.finn.no/realestate/lettings/ad.html?finnkode=289637375,63.414297,10.481884,05/02/2023,446.0,7048,Trondheim
Oscar Dahls vei 24,8000 ,30,https://www.finn.no/realestate/lettings/ad.html?finnkode=289636005,59.853845,10.837527,05/02/2023,266.0,1285,Oslo
Langerekkja 20,8600 ,48,https://www.finn.no/realestate/lettings/ad.html?finnkode=289526460,60.4074494,5.4734712,05/02/2023,179.0,5262,Arnatveit
Wergelands vei 23,7000 ,31,https://www.finn.no/realestate/lettings/ad.html?finnkode=286133136,59.6691143,9.6618306,05/02/2023,225.0,3613,Kongsberg
Bergstien 26,11000 ,50,https://www.finn.no/realestate/lettings/ad.html?finnkode=143399915,59.7494132,10.2004577,05/02/2023,220.0,3016,Drammen
Reitanveien 15,10500 ,70,https://www.finn.no/realestate/lettings/ad.html?finnkode=289629328,63.5106287,10.8075463,05/02/2023,150.0,7510,Skatval
KRINGVEIEN 4 B,10000 ,50,https://www.finn.no/realestate/lettings/ad.html?finnkode=166542590,59.945554,10.909865,05/02/2023,200.0,1084,Oslo
Peter Møllers vei 5 B,14500 ,46,https://www.finn.no/realestate/lettings/ad.html?finnkode=289632589,59.93016,10.793108,05/02/2023,315.0,585,Oslo
Åstveitskogen 14,10000 ,55,https://www.finn.no/realestate/lettings/ad.html?finnkode=101980585,60.4564431,5.3178763,05/02/2023,181.0,5113,Tertnes
Måkekollen 78,16000 ,84,https://www.finn.no/realestate/lettings/ad.html?finnkode=289631364,59.189621,10.895737,05/02/2023,190.0,1679,Kråkerøy
VIKERVEIEN 59,8500 ,70,https://www.finn.no/realestate/lettings/ad.html?finnkode=289617983,59.2074831,10.8878132,05/02/2023,121.0,1621,Gressvik
Vestre Hopsvegen 17,10000 ,70,https://www.finn.no/realestate/lettings/ad.html?finnkode=289629924,60.3270254,5.3427207,05/02/2023,142.0,5232,Paradis
