address,price,area,url,lat,lon,date,price_per_m2,postal_code,city
Heimevernsveien 3-6,17650 ,33,https://www.finn.no/realestate/lettings/ad.html?finnkode=216808079,70.656386,23.6961,30/01/2023,534.0,9603.0,Hammerfest
Peter Møllers vei 5 B,14500 ,46,https://www.finn.no/realestate/lettings/ad.html?finnkode=289632589,59.93016,10.793108,30/01/2023,315.0,585.0,Oslo
Åstveitskogen 14,10000 ,55,https://www.finn.no/realestate/lettings/ad.html?finnkode=101980585,60.4564431,5.3178763,30/01/2023,181.0,5113.0,Tertnes
Måkekollen 78,16000 ,84,https://www.finn.no/realestate/lettings/ad.html?finnkode=289631364,59.189621,10.895737,30/01/2023,190.0,1679.0,Kråkerøy
VIKERVEIEN 59,8500 ,70,https://www.finn.no/realestate/lettings/ad.html?finnkode=289617983,59.2074831,10.8878132,30/01/2023,121.0,1621.0,Gressvik
Vestre Hopsvegen 17,10000 ,70,https://www.finn.no/realestate/lettings/ad.html?finnkode=289629924,60.3270254,5.3427207,30/01/2023,142.0,5232.0,Paradis
WALDEMAR THRANES GATE 64,8500 ,20,https://www.finn.no/realestate/lettings/ad.html?finnkode=110880297,59.927558,10.747715,30/01/2023,425.0,173.0,Oslo
Rostockgata 98,21000 ,40,https://www.finn.no/realestate/lettings/ad.html?finnkode=289621131,59.905645,10.759808,30/01/2023,525.0,194.0,Oslo
Nygărdsveien 53,9500 ,85,https://www.finn.no/realestate/lettings/ad.html?finnkode=289620885,58.4735626,8.7766896,30/01/2023,111.0,4844.0,Arendal
SKIPPERGATA 8,12000 ,70,https://www.finn.no/realestate/lettings/ad.html?finnkode=96206144,69.6529498,18.9610795,30/01/2023,171.0,9008.0,Tromsø
Harald Hårfagres gate 12,13500 ,38,https://www.finn.no/realestate/lettings/ad.html?finnkode=289627238,63.445696,10.442517,30/01/2023,355.0,7041.0,Trondheim
Bruhagen 2,17900 ,124,https://www.finn.no/realestate/lettings/ad.html?finnkode=289624883,58.8448537,5.7295821,30/01/2023,144.0,4306.0,Sandnes
GRØNNEGATA 94,12000 ,65,https://www.finn.no/realestate/lettings/ad.html?finnkode=289619297,60.7955935,11.0701733,30/01/2023,184.0,2317.0,Hamar
NJARDARVOLLEN 24,24300 ,110,https://www.finn.no/realestate/lettings/ad.html?finnkode=289623235,63.4075967,10.4155507,30/01/2023,220.0,7032.0,Trondheim
Sjøbergvegen 1A,10500 ,55,https://www.finn.no/realestate/lettings/ad.html?finnkode=289613220,60.147628,11.171533,30/01/2023,190.0,2066.0,Jessheim
ØDEGÅRDSVEIEN 43 B,14000 ,80,https://www.finn.no/realestate/lettings/ad.html?finnkode=289618587,59.8343662,11.1357106,30/01/2023,175.0,1911.0,Flateby
BEKKEGATA 27,12000 ,67,https://www.finn.no/realestate/lettings/ad.html?finnkode=289617504,60.7955356,11.0700976,30/01/2023,179.0,2317.0,Hamar
ØDEGÅRDSVEIEN 43 B,16000 ,80,https://www.finn.no/realestate/lettings/ad.html?finnkode=289612094,59.8343662,11.1357106,30/01/2023,200.0,1911.0,Flateby
Sorgenfriveien 24,19500 ,71,https://www.finn.no/realestate/lettings/ad.html?finnkode=289620460,63.405163,10.400364,30/01/2023,274.0,7031.0,Trondheim
OLAV KYRRES GATE 13,2500 ,15,https://www.finn.no/realestate/lettings/ad.html?finnkode=286717141,59.917382,10.691925,30/01/2023,166.0,273.0,Oslo
Gladengveien 15B,18000 ,61,https://www.finn.no/realestate/lettings/ad.html?finnkode=129967422,59.917246,10.792349,30/01/2023,295.0,661.0,Oslo
ØVRE KORSKIRKEALLMENNINGEN 6,5500 ,11,https://www.finn.no/realestate/lettings/ad.html?finnkode=278734308,60.395338,5.329111,30/01/2023,500.0,5017.0,Bergen
Martin Barstads veg,12000 ,55,https://www.finn.no/realestate/lettings/ad.html?finnkode=166868346,63.421912,10.5221651,30/01/2023,218.0,7056.0,Ranheim
Fanavegen 87,13000 ,36,https://www.finn.no/realestate/lettings/ad.html?finnkode=289604401,60.296697,5.325608,30/01/2023,361.0,5239.0,Rådal
Hvålagata 8,9000 ,175,https://www.finn.no/realestate/lettings/ad.html?finnkode=289615860,59.56175,9.274447,30/01/2023,51.0,3681.0,Notodden
STASJONSVEIEN 23,8500 ,50,https://www.finn.no/realestate/lettings/ad.html?finnkode=56258165,59.8800662,11.5696919,30/01/2023,170.0,1940.0,Bjørkelangen
Vestfoldveien 90,12500 ,55,https://www.finn.no/realestate/lettings/ad.html?finnkode=289605494,59.730808,10.209946,30/01/2023,227.0,3043.0,Drammen
Grimsrudveien 75,13000 ,70,https://www.finn.no/realestate/lettings/ad.html?finnkode=74623454,59.74247,10.7719983,30/01/2023,185.0,1407.0,Vinterbro
Svoldergata 4,11000 ,25,https://www.finn.no/realestate/lettings/ad.html?finnkode=289613721,59.911222,10.708512,30/01/2023,440.0,271.0,Oslo
BEKKEGATA 27,12000 ,60,https://www.finn.no/realestate/lettings/ad.html?finnkode=289606428,60.7955356,11.0700976,30/01/2023,200.0,2317.0,Hamar
Clara Holsts veg 19,6420 ,13,https://www.finn.no/realestate/lettings/ad.html?finnkode=289611494,63.4290245,10.4381088,30/01/2023,493.0,7046.0,Trondheim
Ullevålsalléen 5,14500 ,34,https://www.finn.no/realestate/lettings/ad.html?finnkode=289611421,59.93788,10.731827,30/01/2023,426.0,850.0,Oslo
Clara Holsts veg 19,10950 ,38,https://www.finn.no/realestate/lettings/ad.html?finnkode=289611019,63.4290245,10.4381088,30/01/2023,288.0,7046.0,Trondheim
Heimevernsveien 3-6,17650 ,33,https://www.finn.no/realestate/lettings/ad.html?finnkode=216808079,70.656386,23.6961,30/01/2023,534.0,9603.0,Hammerfest
Bregnevegen 11,23000 ,267,https://www.finn.no/realestate/lettings/ad.html?finnkode=289604242,58.785983,5.606791,30/01/2023,86.0,4351.0,Kleppe
Stavangergata 23,12900 ,34,https://www.finn.no/realestate/lettings/ad.html?finnkode=289610139,59.942576,10.756742,30/01/2023,379.0,467.0,Oslo
Thulstrups gate 5,26200 ,95,https://www.finn.no/realestate/lettings/ad.html?finnkode=289608811,59.935417,10.738124,30/01/2023,275.0,451.0,Oslo
Thulstrups gate 7,25000 ,80,https://www.finn.no/realestate/lettings/ad.html?finnkode=289608768,59.935251,10.738473,30/01/2023,312.0,451.0,Oslo
Riiser-Larsens vei 7,8800 ,21,https://www.finn.no/realestate/lettings/ad.html?finnkode=289608740,59.907727,10.615752,30/01/2023,419.0,1368.0,Stabekk
Tunvegen 05,7200 ,12,https://www.finn.no/realestate/lettings/ad.html?finnkode=289608734,60.1915058,11.06991,30/01/2023,600.0,2060.0,Gardermoen
Inger Bang Lunds vei 17,22000 ,87,https://www.finn.no/realestate/lettings/ad.html?finnkode=289608584,60.372557,5.343604,30/01/2023,252.0,5059.0,Bergen
Nattfiolveien 11,8750 ,70,https://www.finn.no/realestate/lettings/ad.html?finnkode=209809613,60.228069,10.359418,30/01/2023,125.0,3520.0,Jevnaker
Tunvegen 12,9200 ,22,https://www.finn.no/realestate/lettings/ad.html?finnkode=289607239,60.192192,11.070707,30/01/2023,418.0,2060.0,Gardermoen
Tunvegen 12,9200 ,22,https://www.finn.no/realestate/lettings/ad.html?finnkode=289607288,60.192192,11.070707,30/01/2023,418.0,2060.0,Gardermoen
Varabergarmen 11,12000 ,68,https://www.finn.no/realestate/lettings/ad.html?finnkode=289607028,58.8811926,5.6691757,30/01/2023,176.0,4051.0,Sola
Ekebergveien 5 C,16000 ,52,https://www.finn.no/realestate/lettings/ad.html?finnkode=289607019,59.901691,10.771551,30/01/2023,307.0,192.0,Oslo
GRØNNEGATA 93 A,14500 ,60,https://www.finn.no/realestate/lettings/ad.html?finnkode=289585715,60.7958205,11.0705556,30/01/2023,241.0,2317.0,Hamar
Grenseveien 55,16000 ,43,https://www.finn.no/realestate/lettings/ad.html?finnkode=289605135,59.9219352,10.7929291,30/01/2023,372.0,576.0,Oslo
Tvetestien 10,16000 ,65,https://www.finn.no/realestate/lettings/ad.html?finnkode=289603299,63.417454,10.371436,30/01/2023,246.0,7020.0,Trondheim
Sørskarva 11 Bærums Verk Lommedalen,9000 ,32,https://www.finn.no/realestate/lettings/ad.html?finnkode=204190499,59.946992,10.493756,30/01/2023,281.0,1350.0,Lommedalen
Leitet 1,9900 ,37,https://www.finn.no/realestate/lettings/ad.html?finnkode=279728383,60.3917203,5.336456,30/01/2023,267.0,5018.0,Bergen
Sigurd Hoels vei 5,14800 ,36,https://www.finn.no/realestate/lettings/ad.html?finnkode=289599887,59.916143,10.785791,30/01/2023,411.0,655.0,Oslo
Middelthuns gate 15 C,15900 ,45,https://www.finn.no/realestate/lettings/ad.html?finnkode=289598355,59.927613,10.711831,30/01/2023,353.0,368.0,Oslo
Nedre Torggate 9,12000 ,74,https://www.finn.no/realestate/lettings/ad.html?finnkode=289597650,59.0522672,10.0281211,30/01/2023,162.0,3256.0,Larvik
Kalfarveien 100,13500 ,30,https://www.finn.no/realestate/lettings/ad.html?finnkode=289595959,60.3840965,5.3520772,30/01/2023,450.0,5022.0,Bergen
KAPITELBERGVEGEN 5,6900 ,35,https://www.finn.no/realestate/lettings/ad.html?finnkode=289595260,59.2021593,9.6247086,30/01/2023,197.0,3714.0,Skien
GRÅTENVEGEN 22,6000 ,30,https://www.finn.no/realestate/lettings/ad.html?finnkode=289594106,59.192849,9.6165384,30/01/2023,200.0,3732.0,Skien
Kringveien 2 d,12000 ,60,https://www.finn.no/realestate/lettings/ad.html?finnkode=156170594,59.945199,10.910162,30/01/2023,200.0,1087.0,Oslo
BREILIVEIEN 20,9000 ,47,https://www.finn.no/realestate/lettings/ad.html?finnkode=222962183,59.1310929,10.2422707,30/01/2023,191.0,3217.0,Sandefjord
Hans Jacob Nilsens gate 12,15800 ,85,https://www.finn.no/realestate/lettings/ad.html?finnkode=289586586,59.210082,10.943881,30/01/2023,185.0,1602.0,Fredrikstad
Kringveien 2 D,18000 ,145,https://www.finn.no/realestate/lettings/ad.html?finnkode=156170673,59.945199,10.910162,30/01/2023,124.0,1087.0,Oslo
Viernveien 61,13500 ,85,https://www.finn.no/realestate/lettings/ad.html?finnkode=141716190,59.8536514,10.5388114,30/01/2023,158.0,1397.0,Nesøya
Carl Lundgrens Vei 5,"20990,–",66,https://www.finn.no/realestate/lettings/ad.html?finnkode=289592965,59.920411,10.634698,30/01/2023,,283.0,Oslo
Kirkegaten 15,14900 ,70,https://www.finn.no/realestate/lettings/ad.html?finnkode=239047916,60.4066712,5.326506,30/01/2023,212.0,5036.0,Bergen
SOLVIKVEIEN 11,28000 ,350,https://www.finn.no/realestate/lettings/ad.html?finnkode=289588332,59.895602,10.560057,30/01/2023,80.0,1363.0,Høvik
VALKYRIEGATA 21 A,12900 ,33,https://www.finn.no/realestate/lettings/ad.html?finnkode=289588000,59.929943,10.715863,30/01/2023,390.0,366.0,Oslo
TORGET 4,12500 ,120,https://www.finn.no/realestate/lettings/ad.html?finnkode=289589811,59.0528692,10.027049,30/01/2023,104.0,3256.0,Larvik
Segelckes vei 12,18500 ,66,https://www.finn.no/realestate/lettings/ad.html?finnkode=289589799,59.951499,11.009929,30/01/2023,280.0,2010.0,Strømmen
Kronprinsens gate 11,10000 ,32,https://www.finn.no/realestate/lettings/ad.html?finnkode=289589929,58.1481314,8.0015969,30/01/2023,312.0,4614.0,Kristiansand S
Borger Withs gate 31,16000 ,53,https://www.finn.no/realestate/lettings/ad.html?finnkode=289589633,59.940768,10.777356,30/01/2023,301.0,482.0,Oslo
Måsåbekkvegen,7500 ,29,https://www.finn.no/realestate/lettings/ad.html?finnkode=289583707,60.8049461,11.0468072,30/01/2023,258.0,2316.0,Hamar
HOLSØYVEIEN 84,15000 ,70,https://www.finn.no/realestate/lettings/ad.html?finnkode=283234515,68.1374341,13.6330516,30/01/2023,214.0,8370.0,Leknes
Grønvoll allé 68,15500 ,43,https://www.finn.no/realestate/lettings/ad.html?finnkode=289589149,59.916078,10.794717,30/01/2023,360.0,661.0,Oslo
Prins Oscars gate 1 B,11500 ,34,https://www.finn.no/realestate/lettings/ad.html?finnkode=289588018,59.741353,10.21926,30/01/2023,338.0,3015.0,Drammen
Torridalsveien 8,10000 ,31,https://www.finn.no/realestate/lettings/ad.html?finnkode=289587510,58.1526545,8.006978,30/01/2023,322.0,4630.0,Kristiansand S
Dvergsnesheia 43,7100 ,30,https://www.finn.no/realestate/lettings/ad.html?finnkode=98452047,58.126877,8.068464,30/01/2023,236.0,4639.0,Kristiansand S
Maridalsveien 37,15400 ,32,https://www.finn.no/realestate/lettings/ad.html?finnkode=289587155,59.927081,10.751108,30/01/2023,481.0,175.0,Oslo
Julianus Holms veg 54,17000 ,65,https://www.finn.no/realestate/lettings/ad.html?finnkode=289587143,63.441837,10.4623313,30/01/2023,261.0,7041.0,Trondheim
Langes gate 6,14000 ,39,https://www.finn.no/realestate/lettings/ad.html?finnkode=289585324,59.918644,10.73984,30/01/2023,358.0,165.0,Oslo
Sigurd Hoels vei 49,16000 ,45,https://www.finn.no/realestate/lettings/ad.html?finnkode=289583430,59.918009,10.7879,30/01/2023,355.0,655.0,Oslo
Mobergsbakken 44,12000 ,48,https://www.finn.no/realestate/lettings/ad.html?finnkode=289575790,60.182355,5.4609601,30/01/2023,250.0,5200.0,Os
Vetabekkveien 18,7000 ,60,https://www.finn.no/realestate/lettings/ad.html?finnkode=97899370,59.2701417,11.0356186,30/01/2023,116.0,1718.0,Greåker
Kvernerudsvegen 55,"11950,–",80,https://www.finn.no/realestate/lettings/ad.html?finnkode=278619631,60.393164,10.565498,30/01/2023,,2770.0,Jaren
KROKUSVEGEN 10,10500 ,56,https://www.finn.no/realestate/lettings/ad.html?finnkode=245669030,60.391168,11.2005057,30/01/2023,187.0,2092.0,Minnesund
Schleppegrells gate 14 A,14500 ,41,https://www.finn.no/realestate/lettings/ad.html?finnkode=289580587,59.927309,10.760771,30/01/2023,353.0,556.0,Oslo
Bølerlia 45,17000 ,65,https://www.finn.no/realestate/lettings/ad.html?finnkode=289580339,59.880523,10.845057,30/01/2023,261.0,691.0,Oslo
Østre Eikenga 4,6000 ,50,https://www.finn.no/realestate/lettings/ad.html?finnkode=289572014,59.7890287,10.23992,30/01/2023,120.0,3404.0,Lier
BØHMERGATEN 17,16900 ,105,https://www.finn.no/realestate/lettings/ad.html?finnkode=184836065,60.376419,5.331787,30/01/2023,160.0,5057.0,Bergen
Claus Riis gate 7A,15000 ,32,https://www.finn.no/realestate/lettings/ad.html?finnkode=289493732,59.930909,10.752383,30/01/2023,468.0,457.0,Oslo
Kappvika 24,14500 ,257,https://www.finn.no/realestate/lettings/ad.html?finnkode=103139579,60.7141844,10.8621813,30/01/2023,56.0,2849.0,Kapp
STEINLIVEIEN 5 B,30000 ,170,https://www.finn.no/realestate/lettings/ad.html?finnkode=108804591,59.884054,10.806004,30/01/2023,176.0,1185.0,Oslo
Tunglandsvegen 32 B,12000 ,62,https://www.finn.no/realestate/lettings/ad.html?finnkode=289566443,59.0125583,6.0506416,30/01/2023,193.0,4100.0,Jørpeland
Snølia 5,19000 ,56,https://www.finn.no/realestate/lettings/ad.html?finnkode=282805222,59.946703,10.952525,30/01/2023,339.0,1470.0,Lørenskog
SUNDGATA 138,4200 ,38,https://www.finn.no/realestate/lettings/ad.html?finnkode=79405147,59.4118616,5.2648558,30/01/2023,110.0,5527.0,Haugesund
Bogstadveien 31 A,19900 ,69,https://www.finn.no/realestate/lettings/ad.html?finnkode=289562618,59.926852,10.721017,30/01/2023,288.0,366.0,Oslo
Storgata 4A,13000 ,80,https://www.finn.no/realestate/lettings/ad.html?finnkode=289551785,59.119791,11.3868545,30/01/2023,162.0,1767.0,Halden
Westye Egebergs gate 2A,15000 ,38,https://www.finn.no/realestate/lettings/ad.html?finnkode=289543098,59.920815,10.747557,30/01/2023,394.0,177.0,Oslo
Plutovegen 2,12000 ,95,https://www.finn.no/realestate/lettings/ad.html?finnkode=289549889,62.7457816,7.2173994,30/01/2023,126.0,6419.0,Molde
Lade Allè 96,16000 ,54,https://www.finn.no/realestate/lettings/ad.html?finnkode=282709313,63.438819,10.467169,30/01/2023,296.0,7041.0,Trondheim
STORE SKIPPERGATE 14,9500 ,48,https://www.finn.no/realestate/lettings/ad.html?finnkode=77890686,58.969813,5.7421175,30/01/2023,197.0,4013.0,Stavanger
Washingtons vei 7,21000 ,117,https://www.finn.no/realestate/lettings/ad.html?finnkode=289552703,60.386483,5.353928,30/01/2023,179.0,5019.0,Bergen
Dagaliveien,6500 ,12,https://www.finn.no/realestate/lettings/ad.html?finnkode=189184416,59.9526231,10.6888463,30/01/2023,541.0,776.0,Oslo
Ryfylkegata 6,7500 ,60,https://www.finn.no/realestate/lettings/ad.html?finnkode=80631159,59.4172708,5.2776637,30/01/2023,125.0,5522.0,Haugesund
NY-PARADIS 76,4800 ,12,https://www.finn.no/realestate/lettings/ad.html?finnkode=243215809,60.3391309,5.3377921,30/01/2023,400.0,5231.0,Paradis
Døvlehavna,11000 ,66,https://www.finn.no/realestate/lettings/ad.html?finnkode=289541942,59.2198074,10.2876237,30/01/2023,166.0,3160.0,Stokke
SKEISVANNSVEGEN 1 B,14000 ,98,https://www.finn.no/realestate/lettings/ad.html?finnkode=289268249,59.4218406,5.2736865,30/01/2023,142.0,5519.0,Haugesund
Storgata 170,10000 ,41,https://www.finn.no/realestate/lettings/ad.html?finnkode=289044225,69.656338,18.963003,30/01/2023,243.0,9008.0,Tromsø
Kirkegata 46,13000 ,80,https://www.finn.no/realestate/lettings/ad.html?finnkode=280890006,61.1136548,10.4644633,30/01/2023,162.0,2609.0,Lillehammer
Sofies Gate 67A,7600 ,80,https://www.finn.no/realestate/lettings/ad.html?finnkode=289536685,59.928528,10.734721,30/01/2023,95.0,168.0,Oslo
STORRINDEN 85 A,13500 ,75,https://www.finn.no/realestate/lettings/ad.html?finnkode=289521911,60.3064531,5.2665846,30/01/2023,180.0,5252.0,Søreidgrend
Nøtterøveien 22B,13000 ,90,https://www.finn.no/realestate/lettings/ad.html?finnkode=172348556,59.2563649,10.4155791,30/01/2023,144.0,3127.0,Tønsberg
hunstadvegen 6,11500 ,70,https://www.finn.no/realestate/lettings/ad.html?finnkode=289532576,60.1737808,11.4931808,30/01/2023,164.0,2166.0,Oppaker
Malerhaugveien 23,15500 ,41,https://www.finn.no/realestate/lettings/ad.html?finnkode=289532727,59.915974,10.793915,30/01/2023,378.0,661.0,Oslo
KALKBRENNERVEIEN 9,9000 ,50,https://www.finn.no/realestate/lettings/ad.html?finnkode=208917697,59.928958,10.58205,30/01/2023,180.0,1362.0,Hosle
Skjelderups gate 15A,17000 ,41,https://www.finn.no/realestate/lettings/ad.html?finnkode=286542648,59.920448,10.766984,30/01/2023,414.0,559.0,Oslo
STADIONVEIEN 39,9500 ,80,https://www.finn.no/realestate/lettings/ad.html?finnkode=289528567,58.1362165,7.0649338,30/01/2023,118.0,4580.0,Lyngdal
Charlotte Andersens vei 11F,12500 ,45,https://www.finn.no/realestate/lettings/ad.html?finnkode=96330799,59.941048,10.69612,30/01/2023,277.0,374.0,Oslo
Fredlundsvingen 10,10000 ,47,https://www.finn.no/realestate/lettings/ad.html?finnkode=289411000,60.3573408,5.3354756,30/01/2023,212.0,5073.0,Bergen
BÆRUMSVEIEN 204,2500 ,12,https://www.finn.no/realestate/lettings/ad.html?finnkode=288947598,59.917115,10.5887803,30/01/2023,208.0,1357.0,Bekkestua
Frydenlundgata 8,22000 ,62,https://www.finn.no/realestate/lettings/ad.html?finnkode=289513137,59.924285,10.737279,30/01/2023,354.0,169.0,Oslo
Svinoddveien 11,9500 ,60,https://www.finn.no/realestate/lettings/ad.html?finnkode=243847375,58.4562879,8.755053,30/01/2023,158.0,4836.0,Arendal
Ørvegen,11000 ,150,https://www.finn.no/realestate/lettings/ad.html?finnkode=235937660,62.8953735,7.6861533,30/01/2023,73.0,6631.0,Batnfjordsøra
Ileveien 12,19900 ,140,https://www.finn.no/realestate/lettings/ad.html?finnkode=133131718,59.4650298,10.7795747,30/01/2023,142.0,1591.0,Sperrebotn
Svaneveien nr 9,11000 ,100,https://www.finn.no/realestate/lettings/ad.html?finnkode=289500976,58.139674,7.061155,30/01/2023,110.0,4580.0,Lyngdal
Nordre Klev 18,"10300,–",112,https://www.finn.no/realestate/lettings/ad.html?finnkode=289511968,59.4891807,10.3119439,30/01/2023,,3080.0,Holmestrand
Bings Gate 11B,10000 ,40,https://www.finn.no/realestate/lettings/ad.html?finnkode=289502900,59.206394,10.946171,30/01/2023,250.0,1606.0,Fredrikstad
Vogngutua,6500 ,43,https://www.finn.no/realestate/lettings/ad.html?finnkode=289499875,60.8774218,10.9479071,30/01/2023,151.0,2380.0,Brumunddal
Sollijordet 17,10400 ,58,https://www.finn.no/realestate/lettings/ad.html?finnkode=177968311,59.016686,10.015018,30/01/2023,179.0,3292.0,Stavern
Tranebærvegen 22,7900 ,41,https://www.finn.no/realestate/lettings/ad.html?finnkode=115357823,64.001323,11.486077,30/01/2023,192.0,7712.0,Steinkjer
Giskegata 9,8500 ,45,https://www.finn.no/realestate/lettings/ad.html?finnkode=289493981,62.4721853,6.1486471,30/01/2023,188.0,6004.0,Ålesund
Colbjørnsens gate 14,6400 ,12,https://www.finn.no/realestate/lettings/ad.html?finnkode=289493915,59.917421,10.715984,30/01/2023,533.0,256.0,Oslo
OSKAR BRAATENS GATE 2,16500 ,48,https://www.finn.no/realestate/lettings/ad.html?finnkode=289266168,59.933132,10.761028,30/01/2023,343.0,474.0,Oslo
Steinvollvegen 5,14500 ,68,https://www.finn.no/realestate/lettings/ad.html?finnkode=272931489,60.1402511,11.1840423,30/01/2023,213.0,2053.0,Jessheim
PETEDALSHEIA 124,6500 ,92,https://www.finn.no/realestate/lettings/ad.html?finnkode=270488485,60.3017317,5.2895828,30/01/2023,70.0,5254.0,Sandsli
Stadionveien 5,10500 ,46,https://www.finn.no/realestate/lettings/ad.html?finnkode=230370617,60.384394,5.298786,30/01/2023,228.0,5162.0,Laksevåg
ORRESKOGEN 36,15500 ,65,https://www.finn.no/realestate/lettings/ad.html?finnkode=289447970,59.974507,10.651225,30/01/2023,238.0,788.0,Oslo
Brekkerødtoppen 4B,12500 ,80,https://www.finn.no/realestate/lettings/ad.html?finnkode=153948668,59.151427,11.3707961,30/01/2023,156.0,1782.0,Halden
Lensmann Jahnsens veg 34,10000 ,50,https://www.finn.no/realestate/lettings/ad.html?finnkode=289483180,60.183175,12.017131,30/01/2023,200.0,2211.0,Kongsvinger
Poppelveien 35,7300 ,58,https://www.finn.no/realestate/lettings/ad.html?finnkode=241038723,59.9018,9.945451,30/01/2023,125.0,3340.0,Åmot
VALHALLVEGEN 22 B,9500 ,78,https://www.finn.no/realestate/lettings/ad.html?finnkode=73778638,59.2187355,9.6100162,30/01/2023,121.0,3715.0,Skien
NEDRE STRANDGATE 20,5950 ,92,https://www.finn.no/realestate/lettings/ad.html?finnkode=289411110,62.4701586,6.1456726,30/01/2023,64.0,6004.0,Ålesund
GISKEGATA 37,6000 ,80,https://www.finn.no/realestate/lettings/ad.html?finnkode=289353412,62.4715485,6.1404971,30/01/2023,75.0,6005.0,Ålesund
Rosenborggata,8800 ,25,https://www.finn.no/realestate/lettings/ad.html?finnkode=168619255,59.9270652,10.7262589,30/01/2023,352.0,356.0,Oslo
KAPERMOEN 44,7500 ,25,https://www.finn.no/realestate/lettings/ad.html?finnkode=59330223,59.6589582,9.6600685,30/01/2023,300.0,3612.0,Kongsberg
Alf Prøysens vei 10,8300 ,38,https://www.finn.no/realestate/lettings/ad.html?finnkode=107227546,60.0536661,10.8671622,30/01/2023,218.0,1482.0,Nittedal
Baglergaten 10,5000 ,55,https://www.finn.no/realestate/lettings/ad.html?finnkode=185912526,60.401202,5.324362,30/01/2023,90.0,5032.0,Bergen
SOGNSVEIEN 12,12100 ,22,https://www.finn.no/realestate/lettings/ad.html?finnkode=136880809,59.939096,10.729546,30/01/2023,550.0,851.0,Oslo
Rosenborggata 6,14000 ,70,https://www.finn.no/realestate/lettings/ad.html?finnkode=192310287,59.925682,10.724415,30/01/2023,200.0,356.0,Oslo
STRANDVEGEN 1A,5500 ,200,https://www.finn.no/realestate/lettings/ad.html?finnkode=224882618,60.542723,5.284891,30/01/2023,27.0,5914.0,Isdalstø
HAUGESMAUET 5,11000 ,45,https://www.finn.no/realestate/lettings/ad.html?finnkode=289458159,60.3962021,5.3119389,30/01/2023,244.0,5005.0,Bergen
Simonstad 198,12000 ,180,https://www.finn.no/realestate/lettings/ad.html?finnkode=289191455,58.7064465,8.5845039,30/01/2023,66.0,4868.0,Selåsvatn
Rambergveien 12,12500 ,40,https://www.finn.no/realestate/lettings/ad.html?finnkode=225341966,59.26422,10.401538,30/01/2023,312.0,3115.0,Tønsberg
Odalsveien 9,11500 ,65,https://www.finn.no/realestate/lettings/ad.html?finnkode=139348025,59.2994046,10.7656493,30/01/2023,176.0,1642.0,Saltnes
Bureiservegen 2,12000 ,95,https://www.finn.no/realestate/lettings/ad.html?finnkode=105609448,60.864576,11.578005,30/01/2023,126.0,2407.0,Elverum
HUKEN 9,10000 ,75,https://www.finn.no/realestate/lettings/ad.html?finnkode=61534724,59.1370089,9.6425973,30/01/2023,133.0,3921.0,Porsgrunn
STRANDGATEN 230,15000 ,38,https://www.finn.no/realestate/lettings/ad.html?finnkode=289432082,60.3992087,5.3075649,30/01/2023,394.0,5004.0,Bergen
Colbjørnsens gate 6,9000 ,21,https://www.finn.no/realestate/lettings/ad.html?finnkode=283132352,59.916625,10.720577,30/01/2023,428.0,256.0,Oslo
PROFESSOR DAHLS GATE 50,1800 ,14,https://www.finn.no/realestate/lettings/ad.html?finnkode=82898969,59.925564,10.710734,30/01/2023,128.0,260.0,Oslo
SORGENFRIGATA 37 A,7300 ,50,https://www.finn.no/realestate/lettings/ad.html?finnkode=289418036,59.929959,10.724292,30/01/2023,146.0,365.0,Oslo
RUBINVEGEN 15,5750 ,27,https://www.finn.no/realestate/lettings/ad.html?finnkode=88328050,69.6773268,19.0550468,30/01/2023,212.0,9022.0,Krokelvdalen
UTSIKTEN 5D,11000 ,70,https://www.finn.no/realestate/lettings/ad.html?finnkode=160850865,58.9785358,5.7122285,30/01/2023,157.0,4026.0,Stavanger
Gjerdrums vei 12,9600 ,19,https://www.finn.no/realestate/lettings/ad.html?finnkode=289424886,59.955251,10.765814,30/01/2023,505.0,484.0,Oslo
Sannergata 32,31300 ,112,https://www.finn.no/realestate/lettings/ad.html?finnkode=289424915,59.928873,10.765571,30/01/2023,279.0,557.0,Oslo
Jærvegen 148,12000 ,80,https://www.finn.no/realestate/lettings/ad.html?finnkode=262072591,58.723541,5.626961,30/01/2023,150.0,4340.0,Bryne
KVERNVEIEN 35,13000 ,70,https://www.finn.no/realestate/lettings/ad.html?finnkode=285818753,59.727826,10.207153,30/01/2023,185.0,3043.0,Drammen
Tømtveien,6000 ,150,https://www.finn.no/realestate/lettings/ad.html?finnkode=289410922,59.564629,10.734632,30/01/2023,40.0,1540.0,Vestby
NØRVEGJERDET 34,10900 ,69,https://www.finn.no/realestate/lettings/ad.html?finnkode=70389858,62.4736364,6.2419534,30/01/2023,157.0,6009.0,Ålesund
Bjørkealleen 19,4500 ,120,https://www.finn.no/realestate/lettings/ad.html?finnkode=285745493,59.137968,9.663996,30/01/2023,37.0,3937.0,Porsgrunn
Osloveien 96 B,16000 ,98,https://www.finn.no/realestate/lettings/ad.html?finnkode=104703023,59.6726936,10.6507912,30/01/2023,163.0,1443.0,Drøbak
MIDTTUA 12,8900 ,72,https://www.finn.no/realestate/lettings/ad.html?finnkode=187237382,59.4332662,5.2648941,30/01/2023,123.0,5516.0,Haugesund
GLENNEVEIEN 32,11500 ,85,https://www.finn.no/realestate/lettings/ad.html?finnkode=260065079,59.1284304,11.3713416,30/01/2023,135.0,1781.0,Halden
St. Olavs Gate 5C,11700 ,39,https://www.finn.no/realestate/lettings/ad.html?finnkode=289393304,59.918529,10.742058,30/01/2023,300.0,165.0,Oslo
HAVNEGATA 34 A,9500 ,45,https://www.finn.no/realestate/lettings/ad.html?finnkode=265934982,59.730131,10.231673,30/01/2023,211.0,3040.0,Drammen
Festningsgata 13,8500 ,65,https://www.finn.no/realestate/lettings/ad.html?finnkode=285692270,59.1189022,11.3921562,30/01/2023,130.0,1767.0,Halden
Tjuvholmen alle,26000 ,62,https://www.finn.no/realestate/lettings/ad.html?finnkode=215832399,59.9078284,10.7217637,30/01/2023,419.0,252.0,Oslo
ØVERBØEN 8,10000 ,60,https://www.finn.no/realestate/lettings/ad.html?finnkode=289381121,62.736947,7.093973,30/01/2023,166.0,6411.0,Molde
Professor Dahls gate 1,15900 ,55,https://www.finn.no/realestate/lettings/ad.html?finnkode=146065279,59.923967,10.724305,30/01/2023,289.0,355.0,Oslo
GRØNNESTØLSVEIEN 20 D,4000 ,61,https://www.finn.no/realestate/lettings/ad.html?finnkode=243235157,60.3541047,5.3371086,30/01/2023,65.0,5073.0,Bergen
Rolvsøy,8000 ,40,https://www.finn.no/realestate/lettings/ad.html?finnkode=289381016,59.2680889,11.0179833,30/01/2023,200.0,1663.0,Rolvsøy
BJØRNSONS GATE 32,16500 ,90,https://www.finn.no/realestate/lettings/ad.html?finnkode=185217611,60.372028,5.347256,30/01/2023,183.0,5052.0,Bergen
PRINSENS GATE 117,8000 ,34,https://www.finn.no/realestate/lettings/ad.html?finnkode=225780631,67.283237,14.3881522,30/01/2023,235.0,8005.0,Bodø
Heggdalsringen 59,11000 ,30,https://www.finn.no/realestate/lettings/ad.html?finnkode=244419838,63.406685,10.448948,30/01/2023,366.0,7049.0,Trondheim
CHR. MICHELSENS GATE 40,9000 ,75,https://www.finn.no/realestate/lettings/ad.html?finnkode=80301405,60.788853,10.6845225,30/01/2023,120.0,2815.0,Gjøvik
BERGRÅDVEIEN 13 B,21000 ,81,https://www.finn.no/realestate/lettings/ad.html?finnkode=289345980,59.953705,10.75835,30/01/2023,259.0,873.0,Oslo
ROALD AMUNDSENS GATE 15,10000 ,93,https://www.finn.no/realestate/lettings/ad.html?finnkode=191108523,59.562659,9.269376,30/01/2023,107.0,3681.0,Notodden
Svellingsveien 29,7500 ,50,https://www.finn.no/realestate/lettings/ad.html?finnkode=266193391,63.7991306,8.8030155,30/01/2023,150.0,7270.0,Dyrvik
LANGES GATE 9,8200 ,14,https://www.finn.no/realestate/lettings/ad.html?finnkode=289351985,59.919151,10.740133,30/01/2023,585.0,165.0,Oslo
BERGGATA 20,7000 ,35,https://www.finn.no/realestate/lettings/ad.html?finnkode=208478400,59.2119768,10.9422323,30/01/2023,200.0,1607.0,Fredrikstad
Lovegen,6500 ,70,https://www.finn.no/realestate/lettings/ad.html?finnkode=158954832,60.9819801,9.1075524,30/01/2023,92.0,1134.0,Ulnes
Bellevuebakken 12,12000 ,77,https://www.finn.no/realestate/lettings/ad.html?finnkode=289361143,60.3855145,5.3556229,30/01/2023,155.0,5019.0,Bergen
Toftes gate 41 B,14500 ,47,https://www.finn.no/realestate/lettings/ad.html?finnkode=233709871,59.924411,10.760789,30/01/2023,308.0,551.0,Oslo
Parkalleen,17900 ,98,https://www.finn.no/realestate/lettings/ad.html?finnkode=289358466,59.9583701,11.0452253,30/01/2023,182.0,2000.0,Lillestrøm
Lille Hunstad,12000 ,75,https://www.finn.no/realestate/lettings/ad.html?finnkode=289318057,67.2785778,14.5265861,30/01/2023,160.0,8019.0,Bodø
Engvegen 10,7500 ,67,https://www.finn.no/realestate/lettings/ad.html?finnkode=289357173,59.2548536,5.1997278,30/01/2023,111.0,4270.0,Åkrehamn
EILERT SUNDTS GATE 52,18000 ,67,https://www.finn.no/realestate/lettings/ad.html?finnkode=287507743,59.924631,10.723014,30/01/2023,268.0,355.0,Oslo
Apotekerveien 6,11500 ,75,https://www.finn.no/realestate/lettings/ad.html?finnkode=157305995,59.228719,10.988736,30/01/2023,153.0,1654.0,Sellebakk
Østre stiaberget 101,9500 ,50,https://www.finn.no/realestate/lettings/ad.html?finnkode=289351974,60.3766544,5.1846356,30/01/2023,190.0,5179.0,Godvik
petersborggata 12,5500 ,16,https://www.finn.no/realestate/lettings/ad.html?finnkode=207159399,69.6476282,18.9440849,30/01/2023,343.0,9009.0,Tromsø
Stubberudstien 12,10000 ,50,https://www.finn.no/realestate/lettings/ad.html?finnkode=289339626,59.945056,11.003366,30/01/2023,200.0,1467.0,Strømmen
Leirvikveien 30,18000 ,178,https://www.finn.no/realestate/lettings/ad.html?finnkode=206377277,60.3773619,5.2005289,30/01/2023,101.0,5179.0,Godvik
Wilhelm Frøshaugs vei 1,15000 ,70,https://www.finn.no/realestate/lettings/ad.html?finnkode=289300748,59.804151,10.80664,30/01/2023,214.0,1410.0,Kolbotn
Østre Åsevegen,13000 ,75,https://www.finn.no/realestate/lettings/ad.html?finnkode=289341446,62.4662124,6.3244304,30/01/2023,173.0,6017.0,Ålesund
SIGURDS GATE 8 B,6950 ,87,https://www.finn.no/realestate/lettings/ad.html?finnkode=166239693,59.91195,10.773114,30/01/2023,79.0,650.0,Oslo
SKRIVERGATEN 41,13500 ,60,https://www.finn.no/realestate/lettings/ad.html?finnkode=141748398,60.3725938,5.3376412,30/01/2023,225.0,5054.0,Bergen
Toftes gate 59b,15500 ,35,https://www.finn.no/realestate/lettings/ad.html?finnkode=289325963,59.922762,10.760487,30/01/2023,442.0,552.0,Oslo
Øvre Helle 45,5000 ,55,https://www.finn.no/realestate/lettings/ad.html?finnkode=289213013,58.3061369,7.3639169,30/01/2023,90.0,4525.0,Konsmo
EILERT SUNDTS GATE 52,18000 ,67,https://www.finn.no/realestate/lettings/ad.html?finnkode=287507743,59.924631,10.723014,30/01/2023,268.0,355.0,Oslo
Jens Bjelkes gate 14 B,16500 ,51,https://www.finn.no/realestate/lettings/ad.html?finnkode=289319494,59.918485,10.765341,30/01/2023,323.0,562.0,Oslo
Paulus plass 4A,7522 ,30,https://www.finn.no/realestate/lettings/ad.html?finnkode=289316011,59.926689,10.757618,30/01/2023,250.0,554.0,Oslo
RØYSEBEKKVEIEN 16,7000 ,35,https://www.finn.no/realestate/lettings/ad.html?finnkode=289307566,59.1273048,10.280729,30/01/2023,200.0,3218.0,Sandefjord
MARCUS THRANES VEI 17,6500 ,39,https://www.finn.no/realestate/lettings/ad.html?finnkode=260714067,59.6764901,9.6320942,30/01/2023,166.0,3617.0,Kongsberg
Tyttebærveien 10A,11500 ,61,https://www.finn.no/realestate/lettings/ad.html?finnkode=289304421,59.87487,11.581088,30/01/2023,188.0,1940.0,Bjørkelangen
HELLEVEIEN 38 A,9000 ,30,https://www.finn.no/realestate/lettings/ad.html?finnkode=223625025,60.4245361,5.3013628,30/01/2023,300.0,5042.0,Bergen
TÅSENVEIEN 117,15500 ,73,https://www.finn.no/realestate/lettings/ad.html?finnkode=289290006,59.958693,10.760764,30/01/2023,212.0,880.0,Oslo
Mor Åses vei 26,27500 ,228,https://www.finn.no/realestate/lettings/ad.html?finnkode=286673888,58.9454404,5.7131721,30/01/2023,120.0,4019.0,Stavanger
Olaus fjørtoft-vegen 347,14000 ,180,https://www.finn.no/realestate/lettings/ad.html?finnkode=284292787,62.6630077,6.3451416,30/01/2023,77.0,6293.0,Longva
GRØNVOLDVEGEN 46,11500 ,72,https://www.finn.no/realestate/lettings/ad.html?finnkode=289289013,60.7124387,11.1963605,30/01/2023,159.0,2335.0,Stange
Øvstevegen 60,8000 ,60,https://www.finn.no/realestate/lettings/ad.html?finnkode=200457716,62.6723459,6.2711218,30/01/2023,133.0,6293.0,Longva
SPORTSVEIEN 18,10000 ,55,https://www.finn.no/realestate/lettings/ad.html?finnkode=237996363,59.2126871,10.949402,30/01/2023,181.0,1604.0,Fredrikstad
Skomsvollsjøen 7,8500 ,55,https://www.finn.no/realestate/lettings/ad.html?finnkode=249076475,64.5143041,11.282537,30/01/2023,154.0,7819.0,Fosslandsosen
Sagbakken 6,9200 ,80,https://www.finn.no/realestate/lettings/ad.html?finnkode=169424000,59.2131514,10.1345812,30/01/2023,115.0,3243.0,Kodal
Stubbanvegen 60,4950 ,11,https://www.finn.no/realestate/lettings/ad.html?finnkode=289290740,63.3927883,10.4237126,30/01/2023,450.0,7036.0,Trondheim
Vigernesgata 5C,"11000,–",29,https://www.finn.no/realestate/lettings/ad.html?finnkode=289128077,59.956268,11.069986,30/01/2023,,2004.0,Lillestrøm
Aspemyra 38,9500 ,38,https://www.finn.no/realestate/lettings/ad.html?finnkode=288956497,69.965619,23.433347,30/01/2023,250.0,9517.0,Alta
Carl Jenssens vei 24,"12000,–",36,https://www.finn.no/realestate/lettings/ad.html?finnkode=289192951,59.4237538,10.6616571,30/01/2023,,1532.0,Moss
LINNKJELLVEIEN 38,9000 ,65,https://www.finn.no/realestate/lettings/ad.html?finnkode=289287691,58.1079526,7.9658394,30/01/2023,138.0,4623.0,Kristiansand S
DRONNING INGRIDS PLASS 1,14900 ,44,https://www.finn.no/realestate/lettings/ad.html?finnkode=289290958,59.919735,10.781284,30/01/2023,338.0,576.0,Oslo
ÅDNAVEGEN 34 Indre,13000 ,86,https://www.finn.no/realestate/lettings/ad.html?finnkode=289279697,60.4236225,5.4692458,30/01/2023,151.0,5260.0,Arna
Bilet 12,10000 ,97,https://www.finn.no/realestate/lettings/ad.html?finnkode=91349813,58.971151,9.564816,30/01/2023,103.0,3967.0,Stathelle
Langflåtveien,16500 ,115,https://www.finn.no/realestate/lettings/ad.html?finnkode=101757977,58.9314675,5.7398605,30/01/2023,143.0,4018.0,Stavanger
Skogaromvegen 25 B,9500 ,50,https://www.finn.no/realestate/lettings/ad.html?finnkode=289271652,63.3006821,10.1445701,30/01/2023,190.0,7350.0,Buvika
Bukken Bruses veg 39,8500 ,30,https://www.finn.no/realestate/lettings/ad.html?finnkode=289276124,63.429212,10.5065428,30/01/2023,283.0,7056.0,Ranheim
Elmholt Alle 5,19000 ,75,https://www.finn.no/realestate/lettings/ad.html?finnkode=264422821,59.923942,10.66858,30/01/2023,253.0,275.0,Oslo
,,75,https://www.finn.no/realestate/lettings/ad.html?finnkode=49896349,-23.2335499,17.3231107,30/01/2023,,,
Julianus Holms veg 12,13000 ,28,https://www.finn.no/realestate/lettings/ad.html?finnkode=289273259,63.4437729,10.4568267,30/01/2023,464.0,7041.0,Trondheim
,,63,https://www.finn.no/realestate/lettings/ad.html?finnkode=287978051,-23.2335499,17.3231107,30/01/2023,,,
Valderhaugbakkane 50,18500 ,160,https://www.finn.no/realestate/lettings/ad.html?finnkode=232611888,62.510322,6.1311844,30/01/2023,115.0,6050.0,Valderøya
Ullagerveien 9 A,16000 ,48,https://www.finn.no/realestate/lettings/ad.html?finnkode=289272501,59.9305209,10.7901248,30/01/2023,333.0,585.0,Oslo
,,16,https://www.finn.no/realestate/lettings/ad.html?finnkode=78428786,-23.2335499,17.3231107,30/01/2023,,,
,,41,https://www.finn.no/realestate/lettings/ad.html?finnkode=283448440,-23.2335499,17.3231107,30/01/2023,,,
,,42,https://www.finn.no/realestate/lettings/ad.html?finnkode=226925494,-23.2335499,17.3231107,30/01/2023,,,
,,37,https://www.finn.no/realestate/lettings/ad.html?finnkode=188370172,-23.2335499,17.3231107,30/01/2023,,,
,,37,https://www.finn.no/realestate/lettings/ad.html?finnkode=97495504,-23.2335499,17.3231107,30/01/2023,,,
,,67,https://www.finn.no/realestate/lettings/ad.html?finnkode=289263700,-23.2335499,17.3231107,30/01/2023,,,
,,140,https://www.finn.no/realestate/lettings/ad.html?finnkode=289266697,-23.2335499,17.3231107,30/01/2023,,,
,,40,https://www.finn.no/realestate/lettings/ad.html?finnkode=220918023,-23.2335499,17.3231107,30/01/2023,,,
,,25,https://www.finn.no/realestate/lettings/ad.html?finnkode=258452328,-23.2335499,17.3231107,30/01/2023,,,
,,66,https://www.finn.no/realestate/lettings/ad.html?finnkode=268567694,-23.2335499,17.3231107,30/01/2023,,,
,,62,https://www.finn.no/realestate/lettings/ad.html?finnkode=190684757,-23.2335499,17.3231107,30/01/2023,,,
,,109,https://www.finn.no/realestate/lettings/ad.html?finnkode=283914288,-23.2335499,17.3231107,30/01/2023,,,
,,60,https://www.finn.no/realestate/lettings/ad.html?finnkode=226703541,-23.2335499,17.3231107,30/01/2023,,,
,,51,https://www.finn.no/realestate/lettings/ad.html?finnkode=288444249,-23.2335499,17.3231107,30/01/2023,,,
,,23,https://www.finn.no/realestate/lettings/ad.html?finnkode=248222148,-23.2335499,17.3231107,30/01/2023,,,
,,86,https://www.finn.no/realestate/lettings/ad.html?finnkode=289258717,-23.2335499,17.3231107,30/01/2023,,,
,,29,https://www.finn.no/realestate/lettings/ad.html?finnkode=289258708,-23.2335499,17.3231107,30/01/2023,,,
,,49,https://www.finn.no/realestate/lettings/ad.html?finnkode=287174723,-23.2335499,17.3231107,30/01/2023,,,
,,86,https://www.finn.no/realestate/lettings/ad.html?finnkode=289255906,-23.2335499,17.3231107,30/01/2023,,,
,,26,https://www.finn.no/realestate/lettings/ad.html?finnkode=289123838,-23.2335499,17.3231107,30/01/2023,,,
,,50,https://www.finn.no/realestate/lettings/ad.html?finnkode=289254979,-23.2335499,17.3231107,30/01/2023,,,
,,40,https://www.finn.no/realestate/lettings/ad.html?finnkode=195201735,-23.2335499,17.3231107,30/01/2023,,,
,,120,https://www.finn.no/realestate/lettings/ad.html?finnkode=289254020,-23.2335499,17.3231107,30/01/2023,,,
,,29,https://www.finn.no/realestate/lettings/ad.html?finnkode=289258610,-23.2335499,17.3231107,30/01/2023,,,
,,85,https://www.finn.no/realestate/lettings/ad.html?finnkode=269180396,-23.2335499,17.3231107,30/01/2023,,,
,,50,https://www.finn.no/realestate/lettings/ad.html?finnkode=289252620,-23.2335499,17.3231107,30/01/2023,,,
,,125,https://www.finn.no/realestate/lettings/ad.html?finnkode=153732144,-23.2335499,17.3231107,30/01/2023,,,
,,75,https://www.finn.no/realestate/lettings/ad.html?finnkode=131432237,-23.2335499,17.3231107,30/01/2023,,,
,,45,https://www.finn.no/realestate/lettings/ad.html?finnkode=289251256,-23.2335499,17.3231107,30/01/2023,,,
,,23,https://www.finn.no/realestate/lettings/ad.html?finnkode=289251344,-23.2335499,17.3231107,30/01/2023,,,
,,25,https://www.finn.no/realestate/lettings/ad.html?finnkode=289248491,-23.2335499,17.3231107,30/01/2023,,,
,,68,https://www.finn.no/realestate/lettings/ad.html?finnkode=289249868,-23.2335499,17.3231107,30/01/2023,,,
,,52,https://www.finn.no/realestate/lettings/ad.html?finnkode=264387090,-23.2335499,17.3231107,30/01/2023,,,
,,165,https://www.finn.no/realestate/lettings/ad.html?finnkode=288189260,-23.2335499,17.3231107,30/01/2023,,,
,,60,https://www.finn.no/realestate/lettings/ad.html?finnkode=235317115,-23.2335499,17.3231107,30/01/2023,,,
,,190,https://www.finn.no/realestate/lettings/ad.html?finnkode=289253865,-23.2335499,17.3231107,30/01/2023,,,
,,43,https://www.finn.no/realestate/lettings/ad.html?finnkode=113511808,-23.2335499,17.3231107,30/01/2023,,,
,,155,https://www.finn.no/realestate/lettings/ad.html?finnkode=289219962,-23.2335499,17.3231107,30/01/2023,,,
,,60,https://www.finn.no/realestate/lettings/ad.html?finnkode=289145655,-23.2335499,17.3231107,30/01/2023,,,
,,80,https://www.finn.no/realestate/lettings/ad.html?finnkode=283038407,-23.2335499,17.3231107,30/01/2023,,,
,,80,https://www.finn.no/realestate/lettings/ad.html?finnkode=283133708,-23.2335499,17.3231107,30/01/2023,,,
,,34,https://www.finn.no/realestate/lettings/ad.html?finnkode=289246763,-23.2335499,17.3231107,30/01/2023,,,
,,42,https://www.finn.no/realestate/lettings/ad.html?finnkode=249940724,-23.2335499,17.3231107,30/01/2023,,,
,,59,https://www.finn.no/realestate/lettings/ad.html?finnkode=288788611,-23.2335499,17.3231107,30/01/2023,,,
,,54,https://www.finn.no/realestate/lettings/ad.html?finnkode=289240784,-23.2335499,17.3231107,30/01/2023,,,
,,21,https://www.finn.no/realestate/lettings/ad.html?finnkode=134572497,-23.2335499,17.3231107,30/01/2023,,,
,,22,https://www.finn.no/realestate/lettings/ad.html?finnkode=289244523,-23.2335499,17.3231107,30/01/2023,,,
,,63,https://www.finn.no/realestate/lettings/ad.html?finnkode=289016004,-23.2335499,17.3231107,30/01/2023,,,
,,20,https://www.finn.no/realestate/lettings/ad.html?finnkode=288383669,-23.2335499,17.3231107,30/01/2023,,,
,,30,https://www.finn.no/realestate/lettings/ad.html?finnkode=266812033,-23.2335499,17.3231107,30/01/2023,,,
,,42,https://www.finn.no/realestate/lettings/ad.html?finnkode=248452406,-23.2335499,17.3231107,30/01/2023,,,
,,150,https://www.finn.no/realestate/lettings/ad.html?finnkode=289245807,-23.2335499,17.3231107,30/01/2023,,,
,,67,https://www.finn.no/realestate/lettings/ad.html?finnkode=229737347,-23.2335499,17.3231107,30/01/2023,,,
,,60,https://www.finn.no/realestate/lettings/ad.html?finnkode=289245206,-23.2335499,17.3231107,30/01/2023,,,
,,76,https://www.finn.no/realestate/lettings/ad.html?finnkode=88398027,-23.2335499,17.3231107,30/01/2023,,,
,,42,https://www.finn.no/realestate/lettings/ad.html?finnkode=289240972,-23.2335499,17.3231107,30/01/2023,,,
,,28,https://www.finn.no/realestate/lettings/ad.html?finnkode=282149350,-23.2335499,17.3231107,30/01/2023,,,
,,41,https://www.finn.no/realestate/lettings/ad.html?finnkode=289242965,-23.2335499,17.3231107,30/01/2023,,,
,,35,https://www.finn.no/realestate/lettings/ad.html?finnkode=169444544,-23.2335499,17.3231107,30/01/2023,,,
,,70,https://www.finn.no/realestate/lettings/ad.html?finnkode=289235866,-23.2335499,17.3231107,30/01/2023,,,
,,58,https://www.finn.no/realestate/lettings/ad.html?finnkode=289235329,-23.2335499,17.3231107,30/01/2023,,,
,,62,https://www.finn.no/realestate/lettings/ad.html?finnkode=289234653,-23.2335499,17.3231107,30/01/2023,,,
,,68,https://www.finn.no/realestate/lettings/ad.html?finnkode=289230320,-23.2335499,17.3231107,30/01/2023,,,
,,50,https://www.finn.no/realestate/lettings/ad.html?finnkode=289232494,-23.2335499,17.3231107,30/01/2023,,,
,,40,https://www.finn.no/realestate/lettings/ad.html?finnkode=253320346,-23.2335499,17.3231107,30/01/2023,,,
,,165,https://www.finn.no/realestate/lettings/ad.html?finnkode=274210421,-23.2335499,17.3231107,30/01/2023,,,
,,13,https://www.finn.no/realestate/lettings/ad.html?finnkode=124678641,-23.2335499,17.3231107,30/01/2023,,,
,,45,https://www.finn.no/realestate/lettings/ad.html?finnkode=287550725,-23.2335499,17.3231107,30/01/2023,,,
,,47,https://www.finn.no/realestate/lettings/ad.html?finnkode=141307332,-23.2335499,17.3231107,30/01/2023,,,
,,34,https://www.finn.no/realestate/lettings/ad.html?finnkode=183561583,-23.2335499,17.3231107,30/01/2023,,,
,,35,https://www.finn.no/realestate/lettings/ad.html?finnkode=204761275,-23.2335499,17.3231107,30/01/2023,,,
,,60,https://www.finn.no/realestate/lettings/ad.html?finnkode=289237495,-23.2335499,17.3231107,30/01/2023,,,
,,12,https://www.finn.no/realestate/lettings/ad.html?finnkode=76735115,-23.2335499,17.3231107,30/01/2023,,,
,,109,https://www.finn.no/realestate/lettings/ad.html?finnkode=289230499,-23.2335499,17.3231107,30/01/2023,,,
,,110,https://www.finn.no/realestate/lettings/ad.html?finnkode=285602180,-23.2335499,17.3231107,30/01/2023,,,
,,60,https://www.finn.no/realestate/lettings/ad.html?finnkode=289230587,-23.2335499,17.3231107,30/01/2023,,,
,,20,https://www.finn.no/realestate/lettings/ad.html?finnkode=202642531,-23.2335499,17.3231107,30/01/2023,,,
,,35,https://www.finn.no/realestate/lettings/ad.html?finnkode=227552102,-23.2335499,17.3231107,30/01/2023,,,
,,37,https://www.finn.no/realestate/lettings/ad.html?finnkode=274690761,-23.2335499,17.3231107,30/01/2023,,,
,,45,https://www.finn.no/realestate/lettings/ad.html?finnkode=289202641,-23.2335499,17.3231107,30/01/2023,,,
,,65,https://www.finn.no/realestate/lettings/ad.html?finnkode=180914246,-23.2335499,17.3231107,30/01/2023,,,
,,43,https://www.finn.no/realestate/lettings/ad.html?finnkode=181051190,-23.2335499,17.3231107,30/01/2023,,,
,,71,https://www.finn.no/realestate/lettings/ad.html?finnkode=284324413,-23.2335499,17.3231107,30/01/2023,,,
,,45,https://www.finn.no/realestate/lettings/ad.html?finnkode=289224418,-23.2335499,17.3231107,30/01/2023,,,
,,95,https://www.finn.no/realestate/lettings/ad.html?finnkode=251316540,-23.2335499,17.3231107,30/01/2023,,,
,,43,https://www.finn.no/realestate/lettings/ad.html?finnkode=247130376,-23.2335499,17.3231107,30/01/2023,,,
,,52,https://www.finn.no/realestate/lettings/ad.html?finnkode=289225667,-23.2335499,17.3231107,30/01/2023,,,
,,51,https://www.finn.no/realestate/lettings/ad.html?finnkode=289223761,-23.2335499,17.3231107,30/01/2023,,,
,,15,https://www.finn.no/realestate/lettings/ad.html?finnkode=289224512,-23.2335499,17.3231107,30/01/2023,,,
,,25,https://www.finn.no/realestate/lettings/ad.html?finnkode=289224427,-23.2335499,17.3231107,30/01/2023,,,
,,30,https://www.finn.no/realestate/lettings/ad.html?finnkode=274862113,-23.2335499,17.3231107,30/01/2023,,,
,,84,https://www.finn.no/realestate/lettings/ad.html?finnkode=289227745,-23.2335499,17.3231107,30/01/2023,,,
,,32,https://www.finn.no/realestate/lettings/ad.html?finnkode=130255685,-23.2335499,17.3231107,30/01/2023,,,
,,50,https://www.finn.no/realestate/lettings/ad.html?finnkode=289227167,-23.2335499,17.3231107,30/01/2023,,,
,,12,https://www.finn.no/realestate/lettings/ad.html?finnkode=264414213,-23.2335499,17.3231107,30/01/2023,,,
,,40,https://www.finn.no/realestate/lettings/ad.html?finnkode=289226991,-23.2335499,17.3231107,30/01/2023,,,
,,82,https://www.finn.no/realestate/lettings/ad.html?finnkode=35701972,-23.2335499,17.3231107,30/01/2023,,,
,,25,https://www.finn.no/realestate/lettings/ad.html?finnkode=284618831,-23.2335499,17.3231107,30/01/2023,,,
,,37,https://www.finn.no/realestate/lettings/ad.html?finnkode=165870095,-23.2335499,17.3231107,30/01/2023,,,
,,76,https://www.finn.no/realestate/lettings/ad.html?finnkode=159998802,-23.2335499,17.3231107,30/01/2023,,,
,,30,https://www.finn.no/realestate/lettings/ad.html?finnkode=264344887,-23.2335499,17.3231107,30/01/2023,,,
,,18,https://www.finn.no/realestate/lettings/ad.html?finnkode=289225268,-23.2335499,17.3231107,30/01/2023,,,
,,28,https://www.finn.no/realestate/lettings/ad.html?finnkode=70718703,-23.2335499,17.3231107,30/01/2023,,,
,,40,https://www.finn.no/realestate/lettings/ad.html?finnkode=275641105,-23.2335499,17.3231107,30/01/2023,,,
,,24,https://www.finn.no/realestate/lettings/ad.html?finnkode=276267809,-23.2335499,17.3231107,30/01/2023,,,
,,47,https://www.finn.no/realestate/lettings/ad.html?finnkode=80730835,-23.2335499,17.3231107,30/01/2023,,,
,,15,https://www.finn.no/realestate/lettings/ad.html?finnkode=282892923,-23.2335499,17.3231107,30/01/2023,,,
,,150,https://www.finn.no/realestate/lettings/ad.html?finnkode=289203054,-23.2335499,17.3231107,30/01/2023,,,
,,200,https://www.finn.no/realestate/lettings/ad.html?finnkode=289211987,-23.2335499,17.3231107,30/01/2023,,,
,,40,https://www.finn.no/realestate/lettings/ad.html?finnkode=194963426,-23.2335499,17.3231107,30/01/2023,,,
,,21,https://www.finn.no/realestate/lettings/ad.html?finnkode=235861353,-23.2335499,17.3231107,30/01/2023,,,
,,58,https://www.finn.no/realestate/lettings/ad.html?finnkode=195667504,-23.2335499,17.3231107,30/01/2023,,,
,,25,https://www.finn.no/realestate/lettings/ad.html?finnkode=285627692,-23.2335499,17.3231107,30/01/2023,,,
,,150,https://www.finn.no/realestate/lettings/ad.html?finnkode=287275063,-23.2335499,17.3231107,30/01/2023,,,
,,38,https://www.finn.no/realestate/lettings/ad.html?finnkode=289219273,-23.2335499,17.3231107,30/01/2023,,,
,,50,https://www.finn.no/realestate/lettings/ad.html?finnkode=73118218,-23.2335499,17.3231107,30/01/2023,,,
,,160,https://www.finn.no/realestate/lettings/ad.html?finnkode=289219082,-23.2335499,17.3231107,30/01/2023,,,
,,42,https://www.finn.no/realestate/lettings/ad.html?finnkode=289203068,-23.2335499,17.3231107,30/01/2023,,,
,,68,https://www.finn.no/realestate/lettings/ad.html?finnkode=281845845,-23.2335499,17.3231107,30/01/2023,,,
,,139,https://www.finn.no/realestate/lettings/ad.html?finnkode=289216625,-23.2335499,17.3231107,30/01/2023,,,
,,70,https://www.finn.no/realestate/lettings/ad.html?finnkode=266554539,-23.2335499,17.3231107,30/01/2023,,,
,,52,https://www.finn.no/realestate/lettings/ad.html?finnkode=289206070,-23.2335499,17.3231107,30/01/2023,,,
,,18,https://www.finn.no/realestate/lettings/ad.html?finnkode=189457980,-23.2335499,17.3231107,30/01/2023,,,
,,90,https://www.finn.no/realestate/lettings/ad.html?finnkode=185054636,-23.2335499,17.3231107,30/01/2023,,,
,,55,https://www.finn.no/realestate/lettings/ad.html?finnkode=50893082,-23.2335499,17.3231107,30/01/2023,,,
,,35,https://www.finn.no/realestate/lettings/ad.html?finnkode=289211149,-23.2335499,17.3231107,30/01/2023,,,
,,50,https://www.finn.no/realestate/lettings/ad.html?finnkode=289207959,-23.2335499,17.3231107,30/01/2023,,,
,,73,https://www.finn.no/realestate/lettings/ad.html?finnkode=184942356,-23.2335499,17.3231107,30/01/2023,,,
,,50,https://www.finn.no/realestate/lettings/ad.html?finnkode=289206218,-23.2335499,17.3231107,30/01/2023,,,
,,71,https://www.finn.no/realestate/lettings/ad.html?finnkode=110284809,-23.2335499,17.3231107,30/01/2023,,,
,,18,https://www.finn.no/realestate/lettings/ad.html?finnkode=161811963,-23.2335499,17.3231107,30/01/2023,,,
,,55,https://www.finn.no/realestate/lettings/ad.html?finnkode=219669390,-23.2335499,17.3231107,30/01/2023,,,
,,98,https://www.finn.no/realestate/lettings/ad.html?finnkode=262424273,-23.2335499,17.3231107,30/01/2023,,,
,,70,https://www.finn.no/realestate/lettings/ad.html?finnkode=203839008,-23.2335499,17.3231107,30/01/2023,,,
,,40,https://www.finn.no/realestate/lettings/ad.html?finnkode=161671446,-23.2335499,17.3231107,30/01/2023,,,
,,42,https://www.finn.no/realestate/lettings/ad.html?finnkode=289207276,-23.2335499,17.3231107,30/01/2023,,,
,,30,https://www.finn.no/realestate/lettings/ad.html?finnkode=289205770,-23.2335499,17.3231107,30/01/2023,,,
,,20,https://www.finn.no/realestate/lettings/ad.html?finnkode=289205639,-23.2335499,17.3231107,30/01/2023,,,
,,70,https://www.finn.no/realestate/lettings/ad.html?finnkode=289201219,-23.2335499,17.3231107,30/01/2023,,,
,,40,https://www.finn.no/realestate/lettings/ad.html?finnkode=267675006,-23.2335499,17.3231107,30/01/2023,,,
,,40,https://www.finn.no/realestate/lettings/ad.html?finnkode=289203987,-23.2335499,17.3231107,30/01/2023,,,
,,84,https://www.finn.no/realestate/lettings/ad.html?finnkode=289195112,-23.2335499,17.3231107,30/01/2023,,,
,,50,https://www.finn.no/realestate/lettings/ad.html?finnkode=289193445,-23.2335499,17.3231107,30/01/2023,,,
,,60,https://www.finn.no/realestate/lettings/ad.html?finnkode=235317115,-23.2335499,17.3231107,30/01/2023,,,
,,30,https://www.finn.no/realestate/lettings/ad.html?finnkode=159184974,-23.2335499,17.3231107,30/01/2023,,,
,,20,https://www.finn.no/realestate/lettings/ad.html?finnkode=289199579,-23.2335499,17.3231107,30/01/2023,,,
,,55,https://www.finn.no/realestate/lettings/ad.html?finnkode=284034894,-23.2335499,17.3231107,30/01/2023,,,
,,15,https://www.finn.no/realestate/lettings/ad.html?finnkode=162149638,-23.2335499,17.3231107,30/01/2023,,,
,,104,https://www.finn.no/realestate/lettings/ad.html?finnkode=289169544,-23.2335499,17.3231107,30/01/2023,,,
,,65,https://www.finn.no/realestate/lettings/ad.html?finnkode=289115238,-23.2335499,17.3231107,30/01/2023,,,
,,45,https://www.finn.no/realestate/lettings/ad.html?finnkode=48331795,-23.2335499,17.3231107,30/01/2023,,,
,,52,https://www.finn.no/realestate/lettings/ad.html?finnkode=288993849,-23.2335499,17.3231107,30/01/2023,,,
,,24,https://www.finn.no/realestate/lettings/ad.html?finnkode=286394224,-23.2335499,17.3231107,30/01/2023,,,
,,25,https://www.finn.no/realestate/lettings/ad.html?finnkode=289191902,-23.2335499,17.3231107,30/01/2023,,,
,,45,https://www.finn.no/realestate/lettings/ad.html?finnkode=289095619,-23.2335499,17.3231107,30/01/2023,,,
,,136,https://www.finn.no/realestate/lettings/ad.html?finnkode=184800665,-23.2335499,17.3231107,30/01/2023,,,
,,52,https://www.finn.no/realestate/lettings/ad.html?finnkode=129449983,-23.2335499,17.3231107,30/01/2023,,,
,,59,https://www.finn.no/realestate/lettings/ad.html?finnkode=289198049,-23.2335499,17.3231107,30/01/2023,,,
,,180,https://www.finn.no/realestate/lettings/ad.html?finnkode=227709945,-23.2335499,17.3231107,30/01/2023,,,
,,55,https://www.finn.no/realestate/lettings/ad.html?finnkode=219669390,-23.2335499,17.3231107,30/01/2023,,,
,,55,https://www.finn.no/realestate/lettings/ad.html?finnkode=279229816,-23.2335499,17.3231107,30/01/2023,,,
,,40,https://www.finn.no/realestate/lettings/ad.html?finnkode=285627272,-23.2335499,17.3231107,30/01/2023,,,
,,65,https://www.finn.no/realestate/lettings/ad.html?finnkode=224251184,-23.2335499,17.3231107,30/01/2023,,,
,,120,https://www.finn.no/realestate/lettings/ad.html?finnkode=180336296,-23.2335499,17.3231107,30/01/2023,,,
,,38,https://www.finn.no/realestate/lettings/ad.html?finnkode=289147325,-23.2335499,17.3231107,30/01/2023,,,
,,100,https://www.finn.no/realestate/lettings/ad.html?finnkode=289191687,-23.2335499,17.3231107,30/01/2023,,,
,,27,https://www.finn.no/realestate/lettings/ad.html?finnkode=289190656,-23.2335499,17.3231107,30/01/2023,,,
,,30,https://www.finn.no/realestate/lettings/ad.html?finnkode=217775368,-23.2335499,17.3231107,30/01/2023,,,
,,50,https://www.finn.no/realestate/lettings/ad.html?finnkode=235624733,-23.2335499,17.3231107,30/01/2023,,,
,,60,https://www.finn.no/realestate/lettings/ad.html?finnkode=289093963,-23.2335499,17.3231107,30/01/2023,,,
,,75,https://www.finn.no/realestate/lettings/ad.html?finnkode=283422029,-23.2335499,17.3231107,30/01/2023,,,
,,15,https://www.finn.no/realestate/lettings/ad.html?finnkode=284758211,-23.2335499,17.3231107,30/01/2023,,,
,,42,https://www.finn.no/realestate/lettings/ad.html?finnkode=289193192,-23.2335499,17.3231107,30/01/2023,,,
,,33,https://www.finn.no/realestate/lettings/ad.html?finnkode=289187463,-23.2335499,17.3231107,30/01/2023,,,
,,64,https://www.finn.no/realestate/lettings/ad.html?finnkode=289192780,-23.2335499,17.3231107,30/01/2023,,,
,,58,https://www.finn.no/realestate/lettings/ad.html?finnkode=249427917,-23.2335499,17.3231107,30/01/2023,,,
,,125,https://www.finn.no/realestate/lettings/ad.html?finnkode=289191507,-23.2335499,17.3231107,30/01/2023,,,
,,55,https://www.finn.no/realestate/lettings/ad.html?finnkode=233310297,-23.2335499,17.3231107,30/01/2023,,,
,,37,https://www.finn.no/realestate/lettings/ad.html?finnkode=289008070,-23.2335499,17.3231107,30/01/2023,,,
,,200,https://www.finn.no/realestate/lettings/ad.html?finnkode=224011248,-23.2335499,17.3231107,30/01/2023,,,
,,196,https://www.finn.no/realestate/lettings/ad.html?finnkode=289186703,-23.2335499,17.3231107,30/01/2023,,,
,,54,https://www.finn.no/realestate/lettings/ad.html?finnkode=272170680,-23.2335499,17.3231107,30/01/2023,,,
,,14,https://www.finn.no/realestate/lettings/ad.html?finnkode=268942203,-23.2335499,17.3231107,30/01/2023,,,
,,55,https://www.finn.no/realestate/lettings/ad.html?finnkode=289182028,-23.2335499,17.3231107,30/01/2023,,,
,,29,https://www.finn.no/realestate/lettings/ad.html?finnkode=289187358,-23.2335499,17.3231107,30/01/2023,,,
,,55,https://www.finn.no/realestate/lettings/ad.html?finnkode=116794975,-23.2335499,17.3231107,30/01/2023,,,
,,16,https://www.finn.no/realestate/lettings/ad.html?finnkode=79505579,-23.2335499,17.3231107,30/01/2023,,,
,,64,https://www.finn.no/realestate/lettings/ad.html?finnkode=289131597,-23.2335499,17.3231107,30/01/2023,,,
,,44,https://www.finn.no/realestate/lettings/ad.html?finnkode=281396805,-23.2335499,17.3231107,30/01/2023,,,
,,80,https://www.finn.no/realestate/lettings/ad.html?finnkode=158898111,-23.2335499,17.3231107,30/01/2023,,,
,,45,https://www.finn.no/realestate/lettings/ad.html?finnkode=289174371,-23.2335499,17.3231107,30/01/2023,,,
,,58,https://www.finn.no/realestate/lettings/ad.html?finnkode=117720305,-23.2335499,17.3231107,30/01/2023,,,
,,67,https://www.finn.no/realestate/lettings/ad.html?finnkode=192608244,-23.2335499,17.3231107,30/01/2023,,,
,,76,https://www.finn.no/realestate/lettings/ad.html?finnkode=288566451,-23.2335499,17.3231107,30/01/2023,,,
,,54,https://www.finn.no/realestate/lettings/ad.html?finnkode=61043895,-23.2335499,17.3231107,30/01/2023,,,
,,24,https://www.finn.no/realestate/lettings/ad.html?finnkode=233771634,-23.2335499,17.3231107,30/01/2023,,,
,,60,https://www.finn.no/realestate/lettings/ad.html?finnkode=80827203,-23.2335499,17.3231107,30/01/2023,,,
,,16,https://www.finn.no/realestate/lettings/ad.html?finnkode=287994561,-23.2335499,17.3231107,30/01/2023,,,
,,48,https://www.finn.no/realestate/lettings/ad.html?finnkode=241793340,-23.2335499,17.3231107,30/01/2023,,,
,,12,https://www.finn.no/realestate/lettings/ad.html?finnkode=85367574,-23.2335499,17.3231107,30/01/2023,,,
,,75,https://www.finn.no/realestate/lettings/ad.html?finnkode=285099437,-23.2335499,17.3231107,30/01/2023,,,
,,84,https://www.finn.no/realestate/lettings/ad.html?finnkode=289170333,-23.2335499,17.3231107,30/01/2023,,,
,,46,https://www.finn.no/realestate/lettings/ad.html?finnkode=181054651,-23.2335499,17.3231107,30/01/2023,,,
,,33,https://www.finn.no/realestate/lettings/ad.html?finnkode=171354858,-23.2335499,17.3231107,30/01/2023,,,
,,125,https://www.finn.no/realestate/lettings/ad.html?finnkode=271940376,-23.2335499,17.3231107,30/01/2023,,,
,,135,https://www.finn.no/realestate/lettings/ad.html?finnkode=289162506,-23.2335499,17.3231107,30/01/2023,,,
,,52,https://www.finn.no/realestate/lettings/ad.html?finnkode=289172103,-23.2335499,17.3231107,30/01/2023,,,
,,59,https://www.finn.no/realestate/lettings/ad.html?finnkode=145627519,-23.2335499,17.3231107,30/01/2023,,,
,,21,https://www.finn.no/realestate/lettings/ad.html?finnkode=203797377,-23.2335499,17.3231107,30/01/2023,,,
,,61,https://www.finn.no/realestate/lettings/ad.html?finnkode=289163474,-23.2335499,17.3231107,30/01/2023,,,
,,70,https://www.finn.no/realestate/lettings/ad.html?finnkode=280373684,-23.2335499,17.3231107,30/01/2023,,,
,,25,https://www.finn.no/realestate/lettings/ad.html?finnkode=289166655,-23.2335499,17.3231107,30/01/2023,,,
,,20,https://www.finn.no/realestate/lettings/ad.html?finnkode=262168057,-23.2335499,17.3231107,30/01/2023,,,
,,30,https://www.finn.no/realestate/lettings/ad.html?finnkode=289163772,-23.2335499,17.3231107,30/01/2023,,,
,,35,https://www.finn.no/realestate/lettings/ad.html?finnkode=201630351,-23.2335499,17.3231107,30/01/2023,,,
,,98,https://www.finn.no/realestate/lettings/ad.html?finnkode=284014209,-23.2335499,17.3231107,30/01/2023,,,
,,52,https://www.finn.no/realestate/lettings/ad.html?finnkode=123456673,-23.2335499,17.3231107,30/01/2023,,,
,,30,https://www.finn.no/realestate/lettings/ad.html?finnkode=289161429,-23.2335499,17.3231107,30/01/2023,,,
,,55,https://www.finn.no/realestate/lettings/ad.html?finnkode=103958635,-23.2335499,17.3231107,30/01/2023,,,
,,100,https://www.finn.no/realestate/lettings/ad.html?finnkode=288239733,-23.2335499,17.3231107,30/01/2023,,,
,,50,https://www.finn.no/realestate/lettings/ad.html?finnkode=289160600,-23.2335499,17.3231107,30/01/2023,,,
,,30,https://www.finn.no/realestate/lettings/ad.html?finnkode=289161660,-23.2335499,17.3231107,30/01/2023,,,
,,86,https://www.finn.no/realestate/lettings/ad.html?finnkode=289115377,-23.2335499,17.3231107,30/01/2023,,,
,,62,https://www.finn.no/realestate/lettings/ad.html?finnkode=289159504,-23.2335499,17.3231107,30/01/2023,,,
,,12,https://www.finn.no/realestate/lettings/ad.html?finnkode=289152580,-23.2335499,17.3231107,30/01/2023,,,
,,35,https://www.finn.no/realestate/lettings/ad.html?finnkode=289157467,-23.2335499,17.3231107,30/01/2023,,,
,,50,https://www.finn.no/realestate/lettings/ad.html?finnkode=261152294,-23.2335499,17.3231107,30/01/2023,,,
,,41,https://www.finn.no/realestate/lettings/ad.html?finnkode=288814979,-23.2335499,17.3231107,30/01/2023,,,
,,65,https://www.finn.no/realestate/lettings/ad.html?finnkode=288681032,-23.2335499,17.3231107,30/01/2023,,,
,,155,https://www.finn.no/realestate/lettings/ad.html?finnkode=289146688,-23.2335499,17.3231107,30/01/2023,,,
,,35,https://www.finn.no/realestate/lettings/ad.html?finnkode=289159789,-23.2335499,17.3231107,30/01/2023,,,
,,68,https://www.finn.no/realestate/lettings/ad.html?finnkode=213891906,-23.2335499,17.3231107,30/01/2023,,,
,,68,https://www.finn.no/realestate/lettings/ad.html?finnkode=94241692,-23.2335499,17.3231107,30/01/2023,,,
,,60,https://www.finn.no/realestate/lettings/ad.html?finnkode=133510840,-23.2335499,17.3231107,30/01/2023,,,
,,175,https://www.finn.no/realestate/lettings/ad.html?finnkode=288958361,-23.2335499,17.3231107,30/01/2023,,,
,,33,https://www.finn.no/realestate/lettings/ad.html?finnkode=289081825,-23.2335499,17.3231107,30/01/2023,,,
,,81,https://www.finn.no/realestate/lettings/ad.html?finnkode=289140412,-23.2335499,17.3231107,30/01/2023,,,
,,80,https://www.finn.no/realestate/lettings/ad.html?finnkode=289149123,-23.2335499,17.3231107,30/01/2023,,,
,,40,https://www.finn.no/realestate/lettings/ad.html?finnkode=289150555,-23.2335499,17.3231107,30/01/2023,,,
,,35,https://www.finn.no/realestate/lettings/ad.html?finnkode=289152878,-23.2335499,17.3231107,30/01/2023,,,
,,90,https://www.finn.no/realestate/lettings/ad.html?finnkode=289150492,-23.2335499,17.3231107,30/01/2023,,,
,,36,https://www.finn.no/realestate/lettings/ad.html?finnkode=166160043,-23.2335499,17.3231107,30/01/2023,,,
,,15,https://www.finn.no/realestate/lettings/ad.html?finnkode=55545999,-23.2335499,17.3231107,30/01/2023,,,
,,45,https://www.finn.no/realestate/lettings/ad.html?finnkode=279781868,-23.2335499,17.3231107,30/01/2023,,,
,,33,https://www.finn.no/realestate/lettings/ad.html?finnkode=289008372,-23.2335499,17.3231107,30/01/2023,,,
,,40,https://www.finn.no/realestate/lettings/ad.html?finnkode=289145284,-23.2335499,17.3231107,30/01/2023,,,
,,65,https://www.finn.no/realestate/lettings/ad.html?finnkode=289147972,-23.2335499,17.3231107,30/01/2023,,,
,,50,https://www.finn.no/realestate/lettings/ad.html?finnkode=137168931,-23.2335499,17.3231107,30/01/2023,,,
,,45,https://www.finn.no/realestate/lettings/ad.html?finnkode=289145667,-23.2335499,17.3231107,30/01/2023,,,
,,110,https://www.finn.no/realestate/lettings/ad.html?finnkode=274579865,-23.2335499,17.3231107,30/01/2023,,,
,,82,https://www.finn.no/realestate/lettings/ad.html?finnkode=289145385,-23.2335499,17.3231107,30/01/2023,,,
,,19,https://www.finn.no/realestate/lettings/ad.html?finnkode=289146689,-23.2335499,17.3231107,30/01/2023,,,
,,72,https://www.finn.no/realestate/lettings/ad.html?finnkode=289144107,-23.2335499,17.3231107,30/01/2023,,,
,,40,https://www.finn.no/realestate/lettings/ad.html?finnkode=125163601,-23.2335499,17.3231107,30/01/2023,,,
,,60,https://www.finn.no/realestate/lettings/ad.html?finnkode=101830901,-23.2335499,17.3231107,30/01/2023,,,
,,35,https://www.finn.no/realestate/lettings/ad.html?finnkode=226832031,-23.2335499,17.3231107,30/01/2023,,,
,,50,https://www.finn.no/realestate/lettings/ad.html?finnkode=224280756,-23.2335499,17.3231107,30/01/2023,,,
,,44,https://www.finn.no/realestate/lettings/ad.html?finnkode=288938046,-23.2335499,17.3231107,30/01/2023,,,
,,49,https://www.finn.no/realestate/lettings/ad.html?finnkode=289140926,-23.2335499,17.3231107,30/01/2023,,,
,,50,https://www.finn.no/realestate/lettings/ad.html?finnkode=289142718,-23.2335499,17.3231107,30/01/2023,,,
,,53,https://www.finn.no/realestate/lettings/ad.html?finnkode=288725945,-23.2335499,17.3231107,30/01/2023,,,
,,130,https://www.finn.no/realestate/lettings/ad.html?finnkode=289141351,-23.2335499,17.3231107,30/01/2023,,,
,,30,https://www.finn.no/realestate/lettings/ad.html?finnkode=229512424,-23.2335499,17.3231107,30/01/2023,,,
,,20,https://www.finn.no/realestate/lettings/ad.html?finnkode=289141566,-23.2335499,17.3231107,30/01/2023,,,
,,160,https://www.finn.no/realestate/lettings/ad.html?finnkode=289139595,-23.2335499,17.3231107,30/01/2023,,,
,,43,https://www.finn.no/realestate/lettings/ad.html?finnkode=240098697,-23.2335499,17.3231107,30/01/2023,,,
,,120,https://www.finn.no/realestate/lettings/ad.html?finnkode=289136860,-23.2335499,17.3231107,30/01/2023,,,
,,110,https://www.finn.no/realestate/lettings/ad.html?finnkode=128314406,-23.2335499,17.3231107,30/01/2023,,,
,,57,https://www.finn.no/realestate/lettings/ad.html?finnkode=116659567,-23.2335499,17.3231107,30/01/2023,,,
,,46,https://www.finn.no/realestate/lettings/ad.html?finnkode=83262895,-23.2335499,17.3231107,30/01/2023,,,
,,27,https://www.finn.no/realestate/lettings/ad.html?finnkode=235107781,-23.2335499,17.3231107,30/01/2023,,,
,,45,https://www.finn.no/realestate/lettings/ad.html?finnkode=231761627,-23.2335499,17.3231107,30/01/2023,,,
,,78,https://www.finn.no/realestate/lettings/ad.html?finnkode=265500715,-23.2335499,17.3231107,30/01/2023,,,
,,22,https://www.finn.no/realestate/lettings/ad.html?finnkode=184613468,-23.2335499,17.3231107,30/01/2023,,,
,,35,https://www.finn.no/realestate/lettings/ad.html?finnkode=75646476,-23.2335499,17.3231107,30/01/2023,,,
,,50,https://www.finn.no/realestate/lettings/ad.html?finnkode=68696277,-23.2335499,17.3231107,30/01/2023,,,
,,59,https://www.finn.no/realestate/lettings/ad.html?finnkode=289047063,-23.2335499,17.3231107,30/01/2023,,,
,,39,https://www.finn.no/realestate/lettings/ad.html?finnkode=288868438,-23.2335499,17.3231107,30/01/2023,,,
,,47,https://www.finn.no/realestate/lettings/ad.html?finnkode=288638617,-23.2335499,17.3231107,30/01/2023,,,
,,40,https://www.finn.no/realestate/lettings/ad.html?finnkode=56174203,-23.2335499,17.3231107,30/01/2023,,,
,,25,https://www.finn.no/realestate/lettings/ad.html?finnkode=250161129,-23.2335499,17.3231107,30/01/2023,,,
,,15,https://www.finn.no/realestate/lettings/ad.html?finnkode=289131405,-23.2335499,17.3231107,30/01/2023,,,
,,30,https://www.finn.no/realestate/lettings/ad.html?finnkode=280150455,-23.2335499,17.3231107,30/01/2023,,,
,,25,https://www.finn.no/realestate/lettings/ad.html?finnkode=289129118,-23.2335499,17.3231107,30/01/2023,,,
,,90,https://www.finn.no/realestate/lettings/ad.html?finnkode=72815483,-23.2335499,17.3231107,30/01/2023,,,
,,59,https://www.finn.no/realestate/lettings/ad.html?finnkode=289132516,-23.2335499,17.3231107,30/01/2023,,,
,,35,https://www.finn.no/realestate/lettings/ad.html?finnkode=92864257,-23.2335499,17.3231107,30/01/2023,,,
,,58,https://www.finn.no/realestate/lettings/ad.html?finnkode=267249012,-23.2335499,17.3231107,30/01/2023,,,
,,50,https://www.finn.no/realestate/lettings/ad.html?finnkode=279537378,-23.2335499,17.3231107,30/01/2023,,,
,,50,https://www.finn.no/realestate/lettings/ad.html?finnkode=289084038,-23.2335499,17.3231107,30/01/2023,,,
,,55,https://www.finn.no/realestate/lettings/ad.html?finnkode=222683394,-23.2335499,17.3231107,30/01/2023,,,
,,90,https://www.finn.no/realestate/lettings/ad.html?finnkode=289111080,-23.2335499,17.3231107,30/01/2023,,,
,,60,https://www.finn.no/realestate/lettings/ad.html?finnkode=289119505,-23.2335499,17.3231107,30/01/2023,,,
,,25,https://www.finn.no/realestate/lettings/ad.html?finnkode=289120613,-23.2335499,17.3231107,30/01/2023,,,
,,94,https://www.finn.no/realestate/lettings/ad.html?finnkode=286617784,-23.2335499,17.3231107,30/01/2023,,,
,,51,https://www.finn.no/realestate/lettings/ad.html?finnkode=289122832,-23.2335499,17.3231107,30/01/2023,,,
,,43,https://www.finn.no/realestate/lettings/ad.html?finnkode=282402657,-23.2335499,17.3231107,30/01/2023,,,
,,55,https://www.finn.no/realestate/lettings/ad.html?finnkode=288134540,-23.2335499,17.3231107,30/01/2023,,,
,,47,https://www.finn.no/realestate/lettings/ad.html?finnkode=289121742,-23.2335499,17.3231107,30/01/2023,,,
,,45,https://www.finn.no/realestate/lettings/ad.html?finnkode=289117728,-23.2335499,17.3231107,30/01/2023,,,
,,68,https://www.finn.no/realestate/lettings/ad.html?finnkode=77916127,-23.2335499,17.3231107,30/01/2023,,,
,,12,https://www.finn.no/realestate/lettings/ad.html?finnkode=206256869,-23.2335499,17.3231107,30/01/2023,,,
,,113,https://www.finn.no/realestate/lettings/ad.html?finnkode=125501689,-23.2335499,17.3231107,30/01/2023,,,
,,89,https://www.finn.no/realestate/lettings/ad.html?finnkode=289108498,-23.2335499,17.3231107,30/01/2023,,,
,,160,https://www.finn.no/realestate/lettings/ad.html?finnkode=273250437,-23.2335499,17.3231107,30/01/2023,,,
,,46,https://www.finn.no/realestate/lettings/ad.html?finnkode=274778969,-23.2335499,17.3231107,30/01/2023,,,
,,58,https://www.finn.no/realestate/lettings/ad.html?finnkode=181879543,-23.2335499,17.3231107,30/01/2023,,,
,,41,https://www.finn.no/realestate/lettings/ad.html?finnkode=278848073,-23.2335499,17.3231107,30/01/2023,,,
,,49,https://www.finn.no/realestate/lettings/ad.html?finnkode=281092657,-23.2335499,17.3231107,30/01/2023,,,
,,47,https://www.finn.no/realestate/lettings/ad.html?finnkode=289114660,-23.2335499,17.3231107,30/01/2023,,,
,,25,https://www.finn.no/realestate/lettings/ad.html?finnkode=289115161,-23.2335499,17.3231107,30/01/2023,,,
,,27,https://www.finn.no/realestate/lettings/ad.html?finnkode=289111879,-23.2335499,17.3231107,30/01/2023,,,
,,38,https://www.finn.no/realestate/lettings/ad.html?finnkode=286150570,-23.2335499,17.3231107,30/01/2023,,,
,,20,https://www.finn.no/realestate/lettings/ad.html?finnkode=209289524,-23.2335499,17.3231107,30/01/2023,,,
,,87,https://www.finn.no/realestate/lettings/ad.html?finnkode=199420272,-23.2335499,17.3231107,30/01/2023,,,
,,40,https://www.finn.no/realestate/lettings/ad.html?finnkode=289117574,-23.2335499,17.3231107,30/01/2023,,,
,,69,https://www.finn.no/realestate/lettings/ad.html?finnkode=289113254,-23.2335499,17.3231107,30/01/2023,,,
,,50,https://www.finn.no/realestate/lettings/ad.html?finnkode=258932574,-23.2335499,17.3231107,30/01/2023,,,
,,63,https://www.finn.no/realestate/lettings/ad.html?finnkode=201874978,-23.2335499,17.3231107,30/01/2023,,,
,,89,https://www.finn.no/realestate/lettings/ad.html?finnkode=289109367,-23.2335499,17.3231107,30/01/2023,,,
,,55,https://www.finn.no/realestate/lettings/ad.html?finnkode=146901757,-23.2335499,17.3231107,30/01/2023,,,
,,43,https://www.finn.no/realestate/lettings/ad.html?finnkode=289112920,-23.2335499,17.3231107,30/01/2023,,,
,,64,https://www.finn.no/realestate/lettings/ad.html?finnkode=289114635,-23.2335499,17.3231107,30/01/2023,,,
,,141,https://www.finn.no/realestate/lettings/ad.html?finnkode=289114531,-23.2335499,17.3231107,30/01/2023,,,
,,71,https://www.finn.no/realestate/lettings/ad.html?finnkode=283717332,-23.2335499,17.3231107,30/01/2023,,,
,,70,https://www.finn.no/realestate/lettings/ad.html?finnkode=103271242,-23.2335499,17.3231107,30/01/2023,,,
,,250,https://www.finn.no/realestate/lettings/ad.html?finnkode=276493972,-23.2335499,17.3231107,30/01/2023,,,
,,82,https://www.finn.no/realestate/lettings/ad.html?finnkode=225783155,-23.2335499,17.3231107,30/01/2023,,,
,,65,https://www.finn.no/realestate/lettings/ad.html?finnkode=289078824,-23.2335499,17.3231107,30/01/2023,,,
,,65,https://www.finn.no/realestate/lettings/ad.html?finnkode=289107017,-23.2335499,17.3231107,30/01/2023,,,
,,85,https://www.finn.no/realestate/lettings/ad.html?finnkode=245299845,-23.2335499,17.3231107,30/01/2023,,,
,,133,https://www.finn.no/realestate/lettings/ad.html?finnkode=289109874,-23.2335499,17.3231107,30/01/2023,,,
,,35,https://www.finn.no/realestate/lettings/ad.html?finnkode=289109475,-23.2335499,17.3231107,30/01/2023,,,
,,62,https://www.finn.no/realestate/lettings/ad.html?finnkode=286500018,-23.2335499,17.3231107,30/01/2023,,,
,,50,https://www.finn.no/realestate/lettings/ad.html?finnkode=228747869,-23.2335499,17.3231107,30/01/2023,,,
,,53,https://www.finn.no/realestate/lettings/ad.html?finnkode=289089939,-23.2335499,17.3231107,30/01/2023,,,
,,60,https://www.finn.no/realestate/lettings/ad.html?finnkode=289106564,-23.2335499,17.3231107,30/01/2023,,,
,,76,https://www.finn.no/realestate/lettings/ad.html?finnkode=289106061,-23.2335499,17.3231107,30/01/2023,,,
,,55,https://www.finn.no/realestate/lettings/ad.html?finnkode=158779175,-23.2335499,17.3231107,30/01/2023,,,
,,15,https://www.finn.no/realestate/lettings/ad.html?finnkode=289102137,-23.2335499,17.3231107,30/01/2023,,,
,,47,https://www.finn.no/realestate/lettings/ad.html?finnkode=165685825,-23.2335499,17.3231107,30/01/2023,,,
,,123,https://www.finn.no/realestate/lettings/ad.html?finnkode=287514312,-23.2335499,17.3231107,30/01/2023,,,
,,35,https://www.finn.no/realestate/lettings/ad.html?finnkode=289103968,-23.2335499,17.3231107,30/01/2023,,,
,,45,https://www.finn.no/realestate/lettings/ad.html?finnkode=289101937,-23.2335499,17.3231107,30/01/2023,,,
,,65,https://www.finn.no/realestate/lettings/ad.html?finnkode=289101541,-23.2335499,17.3231107,30/01/2023,,,
,,67,https://www.finn.no/realestate/lettings/ad.html?finnkode=286529565,-23.2335499,17.3231107,30/01/2023,,,
,,43,https://www.finn.no/realestate/lettings/ad.html?finnkode=245699842,-23.2335499,17.3231107,30/01/2023,,,
,,71,https://www.finn.no/realestate/lettings/ad.html?finnkode=284324413,-23.2335499,17.3231107,30/01/2023,,,
,,54,https://www.finn.no/realestate/lettings/ad.html?finnkode=285113544,-23.2335499,17.3231107,30/01/2023,,,
,,29,https://www.finn.no/realestate/lettings/ad.html?finnkode=289094586,-23.2335499,17.3231107,30/01/2023,,,
,,40,https://www.finn.no/realestate/lettings/ad.html?finnkode=289098493,-23.2335499,17.3231107,30/01/2023,,,
,,50,https://www.finn.no/realestate/lettings/ad.html?finnkode=289092682,-23.2335499,17.3231107,30/01/2023,,,
,,15,https://www.finn.no/realestate/lettings/ad.html?finnkode=133300559,-23.2335499,17.3231107,30/01/2023,,,
,,35,https://www.finn.no/realestate/lettings/ad.html?finnkode=229643666,-23.2335499,17.3231107,30/01/2023,,,
,,60,https://www.finn.no/realestate/lettings/ad.html?finnkode=133299716,-23.2335499,17.3231107,30/01/2023,,,
,,53,https://www.finn.no/realestate/lettings/ad.html?finnkode=289096876,-23.2335499,17.3231107,30/01/2023,,,
,,23,https://www.finn.no/realestate/lettings/ad.html?finnkode=289057734,-23.2335499,17.3231107,30/01/2023,,,
,,20,https://www.finn.no/realestate/lettings/ad.html?finnkode=283827368,-23.2335499,17.3231107,30/01/2023,,,
,,35,https://www.finn.no/realestate/lettings/ad.html?finnkode=168266073,-23.2335499,17.3231107,30/01/2023,,,
,,50,https://www.finn.no/realestate/lettings/ad.html?finnkode=289088015,-23.2335499,17.3231107,30/01/2023,,,
,,38,https://www.finn.no/realestate/lettings/ad.html?finnkode=289013127,-23.2335499,17.3231107,30/01/2023,,,
,,23,https://www.finn.no/realestate/lettings/ad.html?finnkode=263637294,-23.2335499,17.3231107,30/01/2023,,,
,,45,https://www.finn.no/realestate/lettings/ad.html?finnkode=289091354,-23.2335499,17.3231107,30/01/2023,,,
,,35,https://www.finn.no/realestate/lettings/ad.html?finnkode=289084730,-23.2335499,17.3231107,30/01/2023,,,
,,115,https://www.finn.no/realestate/lettings/ad.html?finnkode=289090702,-23.2335499,17.3231107,30/01/2023,,,
,,73,https://www.finn.no/realestate/lettings/ad.html?finnkode=87534304,-23.2335499,17.3231107,30/01/2023,,,
,,50,https://www.finn.no/realestate/lettings/ad.html?finnkode=289088447,-23.2335499,17.3231107,30/01/2023,,,
,,45,https://www.finn.no/realestate/lettings/ad.html?finnkode=288378502,-23.2335499,17.3231107,30/01/2023,,,
,,90,https://www.finn.no/realestate/lettings/ad.html?finnkode=289018920,-23.2335499,17.3231107,30/01/2023,,,
,,25,https://www.finn.no/realestate/lettings/ad.html?finnkode=8723038,-23.2335499,17.3231107,30/01/2023,,,
,,11,https://www.finn.no/realestate/lettings/ad.html?finnkode=289088577,-23.2335499,17.3231107,30/01/2023,,,
,,50,https://www.finn.no/realestate/lettings/ad.html?finnkode=173540994,-23.2335499,17.3231107,30/01/2023,,,
,,120,https://www.finn.no/realestate/lettings/ad.html?finnkode=187725825,-23.2335499,17.3231107,30/01/2023,,,
,,42,https://www.finn.no/realestate/lettings/ad.html?finnkode=256602732,-23.2335499,17.3231107,30/01/2023,,,
,,70,https://www.finn.no/realestate/lettings/ad.html?finnkode=289061536,-23.2335499,17.3231107,30/01/2023,,,
,,15,https://www.finn.no/realestate/lettings/ad.html?finnkode=289079840,-23.2335499,17.3231107,30/01/2023,,,
,,13,https://www.finn.no/realestate/lettings/ad.html?finnkode=261788500,-23.2335499,17.3231107,30/01/2023,,,
,,15,https://www.finn.no/realestate/lettings/ad.html?finnkode=72252853,-23.2335499,17.3231107,30/01/2023,,,
,,49,https://www.finn.no/realestate/lettings/ad.html?finnkode=283992451,-23.2335499,17.3231107,30/01/2023,,,
,,30,https://www.finn.no/realestate/lettings/ad.html?finnkode=281533460,-23.2335499,17.3231107,30/01/2023,,,
,,29,https://www.finn.no/realestate/lettings/ad.html?finnkode=111332529,-23.2335499,17.3231107,30/01/2023,,,
,,78,https://www.finn.no/realestate/lettings/ad.html?finnkode=288981850,-23.2335499,17.3231107,30/01/2023,,,
,,31,https://www.finn.no/realestate/lettings/ad.html?finnkode=288876235,-23.2335499,17.3231107,30/01/2023,,,
,,67,https://www.finn.no/realestate/lettings/ad.html?finnkode=288989794,-23.2335499,17.3231107,30/01/2023,,,
,,57,https://www.finn.no/realestate/lettings/ad.html?finnkode=276476854,-23.2335499,17.3231107,30/01/2023,,,
,,70,https://www.finn.no/realestate/lettings/ad.html?finnkode=92052103,-23.2335499,17.3231107,30/01/2023,,,
,,50,https://www.finn.no/realestate/lettings/ad.html?finnkode=155524185,-23.2335499,17.3231107,30/01/2023,,,
,,45,https://www.finn.no/realestate/lettings/ad.html?finnkode=88887719,-23.2335499,17.3231107,30/01/2023,,,
,,63,https://www.finn.no/realestate/lettings/ad.html?finnkode=260825661,-23.2335499,17.3231107,30/01/2023,,,
,,43,https://www.finn.no/realestate/lettings/ad.html?finnkode=285341278,-23.2335499,17.3231107,30/01/2023,,,
,,38,https://www.finn.no/realestate/lettings/ad.html?finnkode=143248377,-23.2335499,17.3231107,30/01/2023,,,
,,40,https://www.finn.no/realestate/lettings/ad.html?finnkode=284249801,-23.2335499,17.3231107,30/01/2023,,,
,,40,https://www.finn.no/realestate/lettings/ad.html?finnkode=286511711,-23.2335499,17.3231107,30/01/2023,,,
,,12,https://www.finn.no/realestate/lettings/ad.html?finnkode=289024389,-23.2335499,17.3231107,30/01/2023,,,
,,185,https://www.finn.no/realestate/lettings/ad.html?finnkode=289066486,-23.2335499,17.3231107,30/01/2023,,,
,,20,https://www.finn.no/realestate/lettings/ad.html?finnkode=289066597,-23.2335499,17.3231107,30/01/2023,,,
,,65,https://www.finn.no/realestate/lettings/ad.html?finnkode=289050573,-23.2335499,17.3231107,30/01/2023,,,
,,35,https://www.finn.no/realestate/lettings/ad.html?finnkode=154004210,-23.2335499,17.3231107,30/01/2023,,,
,,100,https://www.finn.no/realestate/lettings/ad.html?finnkode=117052617,-23.2335499,17.3231107,30/01/2023,,,
,,40,https://www.finn.no/realestate/lettings/ad.html?finnkode=235987105,-23.2335499,17.3231107,30/01/2023,,,
,,11,https://www.finn.no/realestate/lettings/ad.html?finnkode=288954348,-23.2335499,17.3231107,30/01/2023,,,
,,60,https://www.finn.no/realestate/lettings/ad.html?finnkode=122207961,-23.2335499,17.3231107,30/01/2023,,,
,,126,https://www.finn.no/realestate/lettings/ad.html?finnkode=289060796,-23.2335499,17.3231107,30/01/2023,,,
,,12,https://www.finn.no/realestate/lettings/ad.html?finnkode=289022014,-23.2335499,17.3231107,30/01/2023,,,
,,62,https://www.finn.no/realestate/lettings/ad.html?finnkode=173065003,-23.2335499,17.3231107,30/01/2023,,,
,,60,https://www.finn.no/realestate/lettings/ad.html?finnkode=183036062,-23.2335499,17.3231107,30/01/2023,,,
,,18,https://www.finn.no/realestate/lettings/ad.html?finnkode=289058631,-23.2335499,17.3231107,30/01/2023,,,
,,45,https://www.finn.no/realestate/lettings/ad.html?finnkode=101725644,-23.2335499,17.3231107,30/01/2023,,,
,,28,https://www.finn.no/realestate/lettings/ad.html?finnkode=288987016,-23.2335499,17.3231107,30/01/2023,,,
,,53,https://www.finn.no/realestate/lettings/ad.html?finnkode=168607739,-23.2335499,17.3231107,30/01/2023,,,
,,24,https://www.finn.no/realestate/lettings/ad.html?finnkode=286394224,-23.2335499,17.3231107,30/01/2023,,,
,,53,https://www.finn.no/realestate/lettings/ad.html?finnkode=168607739,-23.2335499,17.3231107,30/01/2023,,,
,,72,https://www.finn.no/realestate/lettings/ad.html?finnkode=230144517,-23.2335499,17.3231107,30/01/2023,,,
,,50,https://www.finn.no/realestate/lettings/ad.html?finnkode=288882262,-23.2335499,17.3231107,30/01/2023,,,
,,74,https://www.finn.no/realestate/lettings/ad.html?finnkode=282718180,-23.2335499,17.3231107,30/01/2023,,,
,,13,https://www.finn.no/realestate/lettings/ad.html?finnkode=233110095,-23.2335499,17.3231107,30/01/2023,,,
,,28,https://www.finn.no/realestate/lettings/ad.html?finnkode=191669280,-23.2335499,17.3231107,30/01/2023,,,
,,47,https://www.finn.no/realestate/lettings/ad.html?finnkode=170439853,-23.2335499,17.3231107,30/01/2023,,,
,,100,https://www.finn.no/realestate/lettings/ad.html?finnkode=77168003,-23.2335499,17.3231107,30/01/2023,,,
,,138,https://www.finn.no/realestate/lettings/ad.html?finnkode=278281577,-23.2335499,17.3231107,30/01/2023,,,
,,72,https://www.finn.no/realestate/lettings/ad.html?finnkode=196648444,-23.2335499,17.3231107,30/01/2023,,,
,,37,https://www.finn.no/realestate/lettings/ad.html?finnkode=185520294,-23.2335499,17.3231107,30/01/2023,,,
,,48,https://www.finn.no/realestate/lettings/ad.html?finnkode=167163876,-23.2335499,17.3231107,30/01/2023,,,
,,45,https://www.finn.no/realestate/lettings/ad.html?finnkode=289057425,-23.2335499,17.3231107,30/01/2023,,,
,,51,https://www.finn.no/realestate/lettings/ad.html?finnkode=289049662,-23.2335499,17.3231107,30/01/2023,,,
,,25,https://www.finn.no/realestate/lettings/ad.html?finnkode=289052524,-23.2335499,17.3231107,30/01/2023,,,
,,90,https://www.finn.no/realestate/lettings/ad.html?finnkode=289051757,-23.2335499,17.3231107,30/01/2023,,,
,,50,https://www.finn.no/realestate/lettings/ad.html?finnkode=195729889,-23.2335499,17.3231107,30/01/2023,,,
,,42,https://www.finn.no/realestate/lettings/ad.html?finnkode=94758894,-23.2335499,17.3231107,30/01/2023,,,
,,65,https://www.finn.no/realestate/lettings/ad.html?finnkode=218700195,-23.2335499,17.3231107,30/01/2023,,,
,,36,https://www.finn.no/realestate/lettings/ad.html?finnkode=289049532,-23.2335499,17.3231107,30/01/2023,,,
,,35,https://www.finn.no/realestate/lettings/ad.html?finnkode=266438527,-23.2335499,17.3231107,30/01/2023,,,
,,120,https://www.finn.no/realestate/lettings/ad.html?finnkode=163234198,-23.2335499,17.3231107,30/01/2023,,,
,,37,https://www.finn.no/realestate/lettings/ad.html?finnkode=289029664,-23.2335499,17.3231107,30/01/2023,,,
,,20,https://www.finn.no/realestate/lettings/ad.html?finnkode=112730886,-23.2335499,17.3231107,30/01/2023,,,
,,40,https://www.finn.no/realestate/lettings/ad.html?finnkode=289052669,-23.2335499,17.3231107,30/01/2023,,,
,,90,https://www.finn.no/realestate/lettings/ad.html?finnkode=147883892,-23.2335499,17.3231107,30/01/2023,,,
,,28,https://www.finn.no/realestate/lettings/ad.html?finnkode=237259984,-23.2335499,17.3231107,30/01/2023,,,
,,31,https://www.finn.no/realestate/lettings/ad.html?finnkode=282718251,-23.2335499,17.3231107,30/01/2023,,,
,,29,https://www.finn.no/realestate/lettings/ad.html?finnkode=289046052,-23.2335499,17.3231107,30/01/2023,,,
,,120,https://www.finn.no/realestate/lettings/ad.html?finnkode=289047946,-23.2335499,17.3231107,30/01/2023,,,
,,140,https://www.finn.no/realestate/lettings/ad.html?finnkode=289044746,-23.2335499,17.3231107,30/01/2023,,,
,,69,https://www.finn.no/realestate/lettings/ad.html?finnkode=281807859,-23.2335499,17.3231107,30/01/2023,,,
,,58,https://www.finn.no/realestate/lettings/ad.html?finnkode=224756041,-23.2335499,17.3231107,30/01/2023,,,
,,16,https://www.finn.no/realestate/lettings/ad.html?finnkode=289050223,-23.2335499,17.3231107,30/01/2023,,,
,,55,https://www.finn.no/realestate/lettings/ad.html?finnkode=289043103,-23.2335499,17.3231107,30/01/2023,,,
,,42,https://www.finn.no/realestate/lettings/ad.html?finnkode=288781026,-23.2335499,17.3231107,30/01/2023,,,
,,71,https://www.finn.no/realestate/lettings/ad.html?finnkode=287121734,-23.2335499,17.3231107,30/01/2023,,,
,,20,https://www.finn.no/realestate/lettings/ad.html?finnkode=80635668,-23.2335499,17.3231107,30/01/2023,,,
,,56,https://www.finn.no/realestate/lettings/ad.html?finnkode=222861720,-23.2335499,17.3231107,30/01/2023,,,
,,16,https://www.finn.no/realestate/lettings/ad.html?finnkode=85280755,-23.2335499,17.3231107,30/01/2023,,,
,,56,https://www.finn.no/realestate/lettings/ad.html?finnkode=289043014,-23.2335499,17.3231107,30/01/2023,,,
,,60,https://www.finn.no/realestate/lettings/ad.html?finnkode=289041521,-23.2335499,17.3231107,30/01/2023,,,
,,55,https://www.finn.no/realestate/lettings/ad.html?finnkode=167721455,-23.2335499,17.3231107,30/01/2023,,,
,,73,https://www.finn.no/realestate/lettings/ad.html?finnkode=289040012,-23.2335499,17.3231107,30/01/2023,,,
,,30,https://www.finn.no/realestate/lettings/ad.html?finnkode=288944021,-23.2335499,17.3231107,30/01/2023,,,
,,65,https://www.finn.no/realestate/lettings/ad.html?finnkode=289040494,-23.2335499,17.3231107,30/01/2023,,,
,,45,https://www.finn.no/realestate/lettings/ad.html?finnkode=137907167,-23.2335499,17.3231107,30/01/2023,,,
,,30,https://www.finn.no/realestate/lettings/ad.html?finnkode=289034767,-23.2335499,17.3231107,30/01/2023,,,
,,77,https://www.finn.no/realestate/lettings/ad.html?finnkode=141145846,-23.2335499,17.3231107,30/01/2023,,,
,,93,https://www.finn.no/realestate/lettings/ad.html?finnkode=215035557,-23.2335499,17.3231107,30/01/2023,,,
,,100,https://www.finn.no/realestate/lettings/ad.html?finnkode=288820821,-23.2335499,17.3231107,30/01/2023,,,
,,60,https://www.finn.no/realestate/lettings/ad.html?finnkode=229302303,-23.2335499,17.3231107,30/01/2023,,,
,,75,https://www.finn.no/realestate/lettings/ad.html?finnkode=123950922,-23.2335499,17.3231107,30/01/2023,,,
,,75,https://www.finn.no/realestate/lettings/ad.html?finnkode=289030778,-23.2335499,17.3231107,30/01/2023,,,
,,44,https://www.finn.no/realestate/lettings/ad.html?finnkode=288938046,-23.2335499,17.3231107,30/01/2023,,,
,,60,https://www.finn.no/realestate/lettings/ad.html?finnkode=181660961,-23.2335499,17.3231107,30/01/2023,,,
,,60,https://www.finn.no/realestate/lettings/ad.html?finnkode=173879240,-23.2335499,17.3231107,30/01/2023,,,
,,68,https://www.finn.no/realestate/lettings/ad.html?finnkode=287770974,-23.2335499,17.3231107,30/01/2023,,,
,,85,https://www.finn.no/realestate/lettings/ad.html?finnkode=288940286,-23.2335499,17.3231107,30/01/2023,,,
,,63,https://www.finn.no/realestate/lettings/ad.html?finnkode=289031408,-23.2335499,17.3231107,30/01/2023,,,
,,40,https://www.finn.no/realestate/lettings/ad.html?finnkode=124000115,-23.2335499,17.3231107,30/01/2023,,,
,,68,https://www.finn.no/realestate/lettings/ad.html?finnkode=242402787,-23.2335499,17.3231107,30/01/2023,,,
,,16,https://www.finn.no/realestate/lettings/ad.html?finnkode=284386722,-23.2335499,17.3231107,30/01/2023,,,
,,72,https://www.finn.no/realestate/lettings/ad.html?finnkode=289033740,-23.2335499,17.3231107,30/01/2023,,,
,,99,https://www.finn.no/realestate/lettings/ad.html?finnkode=289033281,-23.2335499,17.3231107,30/01/2023,,,
,,70,https://www.finn.no/realestate/lettings/ad.html?finnkode=286082152,-23.2335499,17.3231107,30/01/2023,,,
,,56,https://www.finn.no/realestate/lettings/ad.html?finnkode=159713569,-23.2335499,17.3231107,30/01/2023,,,
,,16,https://www.finn.no/realestate/lettings/ad.html?finnkode=53025481,-23.2335499,17.3231107,30/01/2023,,,
,,127,https://www.finn.no/realestate/lettings/ad.html?finnkode=254643044,-23.2335499,17.3231107,30/01/2023,,,
,,158,https://www.finn.no/realestate/lettings/ad.html?finnkode=222174898,-23.2335499,17.3231107,30/01/2023,,,
,,72,https://www.finn.no/realestate/lettings/ad.html?finnkode=206959160,-23.2335499,17.3231107,30/01/2023,,,
,,58,https://www.finn.no/realestate/lettings/ad.html?finnkode=172161513,-23.2335499,17.3231107,30/01/2023,,,
,,114,https://www.finn.no/realestate/lettings/ad.html?finnkode=282215762,-23.2335499,17.3231107,30/01/2023,,,
,,73,https://www.finn.no/realestate/lettings/ad.html?finnkode=215829698,-23.2335499,17.3231107,30/01/2023,,,
,,40,https://www.finn.no/realestate/lettings/ad.html?finnkode=288575279,-23.2335499,17.3231107,30/01/2023,,,
,,48,https://www.finn.no/realestate/lettings/ad.html?finnkode=288678133,-23.2335499,17.3231107,30/01/2023,,,
,,35,https://www.finn.no/realestate/lettings/ad.html?finnkode=252670936,-23.2335499,17.3231107,30/01/2023,,,
,,63,https://www.finn.no/realestate/lettings/ad.html?finnkode=163461279,-23.2335499,17.3231107,30/01/2023,,,
,,50,https://www.finn.no/realestate/lettings/ad.html?finnkode=207564656,-23.2335499,17.3231107,30/01/2023,,,
,,146,https://www.finn.no/realestate/lettings/ad.html?finnkode=285198627,-23.2335499,17.3231107,30/01/2023,,,
,,95,https://www.finn.no/realestate/lettings/ad.html?finnkode=94096991,-23.2335499,17.3231107,30/01/2023,,,
,,110,https://www.finn.no/realestate/lettings/ad.html?finnkode=138911610,-23.2335499,17.3231107,30/01/2023,,,
,,55,https://www.finn.no/realestate/lettings/ad.html?finnkode=176156613,-23.2335499,17.3231107,30/01/2023,,,
,,60,https://www.finn.no/realestate/lettings/ad.html?finnkode=86299436,-23.2335499,17.3231107,30/01/2023,,,
,,50,https://www.finn.no/realestate/lettings/ad.html?finnkode=273162468,-23.2335499,17.3231107,30/01/2023,,,
,,39,https://www.finn.no/realestate/lettings/ad.html?finnkode=233394693,-23.2335499,17.3231107,30/01/2023,,,
,,40,https://www.finn.no/realestate/lettings/ad.html?finnkode=212456480,-23.2335499,17.3231107,30/01/2023,,,
,,40,https://www.finn.no/realestate/lettings/ad.html?finnkode=116081681,-23.2335499,17.3231107,30/01/2023,,,
,,65,https://www.finn.no/realestate/lettings/ad.html?finnkode=289020543,-23.2335499,17.3231107,30/01/2023,,,
,,95,https://www.finn.no/realestate/lettings/ad.html?finnkode=63916342,-23.2335499,17.3231107,30/01/2023,,,
,,50,https://www.finn.no/realestate/lettings/ad.html?finnkode=286403134,-23.2335499,17.3231107,30/01/2023,,,
,,40,https://www.finn.no/realestate/lettings/ad.html?finnkode=289023267,-23.2335499,17.3231107,30/01/2023,,,
,,55,https://www.finn.no/realestate/lettings/ad.html?finnkode=288526296,-23.2335499,17.3231107,30/01/2023,,,
,,90,https://www.finn.no/realestate/lettings/ad.html?finnkode=243873360,-23.2335499,17.3231107,30/01/2023,,,
,,70,https://www.finn.no/realestate/lettings/ad.html?finnkode=81295597,-23.2335499,17.3231107,30/01/2023,,,
,,60,https://www.finn.no/realestate/lettings/ad.html?finnkode=289015926,-23.2335499,17.3231107,30/01/2023,,,
,,47,https://www.finn.no/realestate/lettings/ad.html?finnkode=288922497,-23.2335499,17.3231107,30/01/2023,,,
,,136,https://www.finn.no/realestate/lettings/ad.html?finnkode=288774738,-23.2335499,17.3231107,30/01/2023,,,
,,80,https://www.finn.no/realestate/lettings/ad.html?finnkode=91137925,-23.2335499,17.3231107,30/01/2023,,,
,,37,https://www.finn.no/realestate/lettings/ad.html?finnkode=289022344,-23.2335499,17.3231107,30/01/2023,,,
,,12,https://www.finn.no/realestate/lettings/ad.html?finnkode=260603552,-23.2335499,17.3231107,30/01/2023,,,
,,101,https://www.finn.no/realestate/lettings/ad.html?finnkode=289019146,-23.2335499,17.3231107,30/01/2023,,,
,,51,https://www.finn.no/realestate/lettings/ad.html?finnkode=284248285,-23.2335499,17.3231107,30/01/2023,,,
,,81,https://www.finn.no/realestate/lettings/ad.html?finnkode=218177704,-23.2335499,17.3231107,30/01/2023,,,
,,45,https://www.finn.no/realestate/lettings/ad.html?finnkode=107717241,-23.2335499,17.3231107,30/01/2023,,,
,,70,https://www.finn.no/realestate/lettings/ad.html?finnkode=282323814,-23.2335499,17.3231107,30/01/2023,,,
,,50,https://www.finn.no/realestate/lettings/ad.html?finnkode=266814395,-23.2335499,17.3231107,30/01/2023,,,
,,42,https://www.finn.no/realestate/lettings/ad.html?finnkode=288863573,-23.2335499,17.3231107,30/01/2023,,,
,,80,https://www.finn.no/realestate/lettings/ad.html?finnkode=276574663,-23.2335499,17.3231107,30/01/2023,,,
,,63,https://www.finn.no/realestate/lettings/ad.html?finnkode=153225808,-23.2335499,17.3231107,30/01/2023,,,
,,19,https://www.finn.no/realestate/lettings/ad.html?finnkode=289014260,-23.2335499,17.3231107,30/01/2023,,,
,,42,https://www.finn.no/realestate/lettings/ad.html?finnkode=269048644,-23.2335499,17.3231107,30/01/2023,,,
,,46,https://www.finn.no/realestate/lettings/ad.html?finnkode=289015630,-23.2335499,17.3231107,30/01/2023,,,
,,55,https://www.finn.no/realestate/lettings/ad.html?finnkode=286023612,-23.2335499,17.3231107,30/01/2023,,,
,,106,https://www.finn.no/realestate/lettings/ad.html?finnkode=289014577,-23.2335499,17.3231107,30/01/2023,,,
,,73,https://www.finn.no/realestate/lettings/ad.html?finnkode=289014478,-23.2335499,17.3231107,30/01/2023,,,
,,75,https://www.finn.no/realestate/lettings/ad.html?finnkode=49327929,-23.2335499,17.3231107,30/01/2023,,,
,,49,https://www.finn.no/realestate/lettings/ad.html?finnkode=204863705,-23.2335499,17.3231107,30/01/2023,,,
,,60,https://www.finn.no/realestate/lettings/ad.html?finnkode=289006740,-23.2335499,17.3231107,30/01/2023,,,
,,63,https://www.finn.no/realestate/lettings/ad.html?finnkode=284622501,-23.2335499,17.3231107,30/01/2023,,,
,,40,https://www.finn.no/realestate/lettings/ad.html?finnkode=289007394,-23.2335499,17.3231107,30/01/2023,,,
,,56,https://www.finn.no/realestate/lettings/ad.html?finnkode=289010675,-23.2335499,17.3231107,30/01/2023,,,
,,70,https://www.finn.no/realestate/lettings/ad.html?finnkode=288949605,-23.2335499,17.3231107,30/01/2023,,,
,,25,https://www.finn.no/realestate/lettings/ad.html?finnkode=288689714,-23.2335499,17.3231107,30/01/2023,,,
,,67,https://www.finn.no/realestate/lettings/ad.html?finnkode=288948776,-23.2335499,17.3231107,30/01/2023,,,
,,34,https://www.finn.no/realestate/lettings/ad.html?finnkode=288981422,-23.2335499,17.3231107,30/01/2023,,,
,,72,https://www.finn.no/realestate/lettings/ad.html?finnkode=288935820,-23.2335499,17.3231107,30/01/2023,,,
,,68,https://www.finn.no/realestate/lettings/ad.html?finnkode=288854276,-23.2335499,17.3231107,30/01/2023,,,
,,82,https://www.finn.no/realestate/lettings/ad.html?finnkode=265089451,-23.2335499,17.3231107,30/01/2023,,,
,,48,https://www.finn.no/realestate/lettings/ad.html?finnkode=288931137,-23.2335499,17.3231107,30/01/2023,,,
,,23,https://www.finn.no/realestate/lettings/ad.html?finnkode=268060742,-23.2335499,17.3231107,30/01/2023,,,
,,70,https://www.finn.no/realestate/lettings/ad.html?finnkode=106751606,-23.2335499,17.3231107,30/01/2023,,,
,,45,https://www.finn.no/realestate/lettings/ad.html?finnkode=46930408,-23.2335499,17.3231107,30/01/2023,,,
,,32,https://www.finn.no/realestate/lettings/ad.html?finnkode=255712204,-23.2335499,17.3231107,30/01/2023,,,
,,45,https://www.finn.no/realestate/lettings/ad.html?finnkode=163542378,-23.2335499,17.3231107,30/01/2023,,,
,,90,https://www.finn.no/realestate/lettings/ad.html?finnkode=289003613,-23.2335499,17.3231107,30/01/2023,,,
,,54,https://www.finn.no/realestate/lettings/ad.html?finnkode=117614633,-23.2335499,17.3231107,30/01/2023,,,
,,18,https://www.finn.no/realestate/lettings/ad.html?finnkode=288999265,-23.2335499,17.3231107,30/01/2023,,,
,,48,https://www.finn.no/realestate/lettings/ad.html?finnkode=282418810,-23.2335499,17.3231107,30/01/2023,,,
,,85,https://www.finn.no/realestate/lettings/ad.html?finnkode=244328458,-23.2335499,17.3231107,30/01/2023,,,
,,120,https://www.finn.no/realestate/lettings/ad.html?finnkode=288995705,-23.2335499,17.3231107,30/01/2023,,,
,,80,https://www.finn.no/realestate/lettings/ad.html?finnkode=283607977,-23.2335499,17.3231107,30/01/2023,,,
,,107,https://www.finn.no/realestate/lettings/ad.html?finnkode=273774059,-23.2335499,17.3231107,30/01/2023,,,
,,84,https://www.finn.no/realestate/lettings/ad.html?finnkode=288993009,-23.2335499,17.3231107,30/01/2023,,,
,,45,https://www.finn.no/realestate/lettings/ad.html?finnkode=173129593,-23.2335499,17.3231107,30/01/2023,,,
,,120,https://www.finn.no/realestate/lettings/ad.html?finnkode=184875474,-23.2335499,17.3231107,30/01/2023,,,
,,80,https://www.finn.no/realestate/lettings/ad.html?finnkode=288993242,-23.2335499,17.3231107,30/01/2023,,,
,,112,https://www.finn.no/realestate/lettings/ad.html?finnkode=282286736,-23.2335499,17.3231107,30/01/2023,,,
,,80,https://www.finn.no/realestate/lettings/ad.html?finnkode=227231898,-23.2335499,17.3231107,30/01/2023,,,
,,43,https://www.finn.no/realestate/lettings/ad.html?finnkode=174380178,-23.2335499,17.3231107,30/01/2023,,,
,,48,https://www.finn.no/realestate/lettings/ad.html?finnkode=288992315,-23.2335499,17.3231107,30/01/2023,,,
,,37,https://www.finn.no/realestate/lettings/ad.html?finnkode=288993282,-23.2335499,17.3231107,30/01/2023,,,
,,125,https://www.finn.no/realestate/lettings/ad.html?finnkode=288977205,-23.2335499,17.3231107,30/01/2023,,,
,,46,https://www.finn.no/realestate/lettings/ad.html?finnkode=154324732,-23.2335499,17.3231107,30/01/2023,,,
,,146,https://www.finn.no/realestate/lettings/ad.html?finnkode=72225319,-23.2335499,17.3231107,30/01/2023,,,
,,127,https://www.finn.no/realestate/lettings/ad.html?finnkode=288991839,-23.2335499,17.3231107,30/01/2023,,,
,,29,https://www.finn.no/realestate/lettings/ad.html?finnkode=167476431,-23.2335499,17.3231107,30/01/2023,,,
,,67,https://www.finn.no/realestate/lettings/ad.html?finnkode=288899139,-23.2335499,17.3231107,30/01/2023,,,
,,78,https://www.finn.no/realestate/lettings/ad.html?finnkode=231770282,-23.2335499,17.3231107,30/01/2023,,,
,,48,https://www.finn.no/realestate/lettings/ad.html?finnkode=266512458,-23.2335499,17.3231107,30/01/2023,,,
,,60,https://www.finn.no/realestate/lettings/ad.html?finnkode=105835663,-23.2335499,17.3231107,30/01/2023,,,
,,58,https://www.finn.no/realestate/lettings/ad.html?finnkode=283968235,-23.2335499,17.3231107,30/01/2023,,,
,,87,https://www.finn.no/realestate/lettings/ad.html?finnkode=227898186,-23.2335499,17.3231107,30/01/2023,,,
,,60,https://www.finn.no/realestate/lettings/ad.html?finnkode=240579537,-23.2335499,17.3231107,30/01/2023,,,
,,75,https://www.finn.no/realestate/lettings/ad.html?finnkode=288896882,-23.2335499,17.3231107,30/01/2023,,,
,,30,https://www.finn.no/realestate/lettings/ad.html?finnkode=288984283,-23.2335499,17.3231107,30/01/2023,,,
,,33,https://www.finn.no/realestate/lettings/ad.html?finnkode=259480089,-23.2335499,17.3231107,30/01/2023,,,
,,30,https://www.finn.no/realestate/lettings/ad.html?finnkode=288977249,-23.2335499,17.3231107,30/01/2023,,,
,,70,https://www.finn.no/realestate/lettings/ad.html?finnkode=86461698,-23.2335499,17.3231107,30/01/2023,,,
,,65,https://www.finn.no/realestate/lettings/ad.html?finnkode=95393735,-23.2335499,17.3231107,30/01/2023,,,
,,60,https://www.finn.no/realestate/lettings/ad.html?finnkode=288938826,-23.2335499,17.3231107,30/01/2023,,,
,,49,https://www.finn.no/realestate/lettings/ad.html?finnkode=73697959,-23.2335499,17.3231107,30/01/2023,,,
,,15,https://www.finn.no/realestate/lettings/ad.html?finnkode=267497391,-23.2335499,17.3231107,30/01/2023,,,
,,104,https://www.finn.no/realestate/lettings/ad.html?finnkode=229154706,-23.2335499,17.3231107,30/01/2023,,,
,,75,https://www.finn.no/realestate/lettings/ad.html?finnkode=286574419,-23.2335499,17.3231107,30/01/2023,,,
,,43,https://www.finn.no/realestate/lettings/ad.html?finnkode=288978898,-23.2335499,17.3231107,30/01/2023,,,
,,50,https://www.finn.no/realestate/lettings/ad.html?finnkode=288880517,-23.2335499,17.3231107,30/01/2023,,,
,,37,https://www.finn.no/realestate/lettings/ad.html?finnkode=288836949,-23.2335499,17.3231107,30/01/2023,,,
,,50,https://www.finn.no/realestate/lettings/ad.html?finnkode=192460560,-23.2335499,17.3231107,30/01/2023,,,
,,64,https://www.finn.no/realestate/lettings/ad.html?finnkode=288972393,-23.2335499,17.3231107,30/01/2023,,,
,,65,https://www.finn.no/realestate/lettings/ad.html?finnkode=170938130,-23.2335499,17.3231107,30/01/2023,,,
,,30,https://www.finn.no/realestate/lettings/ad.html?finnkode=288820886,-23.2335499,17.3231107,30/01/2023,,,
,,22,https://www.finn.no/realestate/lettings/ad.html?finnkode=276065610,-23.2335499,17.3231107,30/01/2023,,,
,,23,https://www.finn.no/realestate/lettings/ad.html?finnkode=124154861,-23.2335499,17.3231107,30/01/2023,,,
,,50,https://www.finn.no/realestate/lettings/ad.html?finnkode=284332491,-23.2335499,17.3231107,30/01/2023,,,
,,160,https://www.finn.no/realestate/lettings/ad.html?finnkode=285067655,-23.2335499,17.3231107,30/01/2023,,,
,,43,https://www.finn.no/realestate/lettings/ad.html?finnkode=75293181,-23.2335499,17.3231107,30/01/2023,,,
,,14,https://www.finn.no/realestate/lettings/ad.html?finnkode=94865721,-23.2335499,17.3231107,30/01/2023,,,
,,61,https://www.finn.no/realestate/lettings/ad.html?finnkode=288970369,-23.2335499,17.3231107,30/01/2023,,,
